REID,street,zipcode,city,state,latitude,longitude,FIPScounty,useCode,taxAssessmentYear,yearBuilt,lotSizeSqFt,finishedSqFt,bathrooms,bedrooms,zestimate,name,type
6846896779000,3679 Beeson Dairy Rd,27105,Winston Salem,NC,36.134028,-80.189621,37067,SingleFamily,2018,1958,1219680,1300,1.5,2,,Beeson Acres,neighborhood
6846896779000,3679 Beeson Dairy Rd,27105,Winston Salem,NC,36.134028,-80.189621,37067,SingleFamily,2018,1958,119790,1300,1.5,2,,Beeson Acres,neighborhood
5895242478000,6120 Hollow Wood Ct,27104,Winston Salem,NC,36.08998,-80.379982,37067,SingleFamily,2018,1975,22651,1174,2.0,3,127628,Winston-Salem,city
6823153464000,4015 Village Pl,27127,Winston Salem,NC,36.038767,-80.280697,37067,SingleFamily,2018,1977,11761,1424,2.0,3,130959,Caroline Village,neighborhood
6804493563000,4734 Eastwin Dr,27104,Winston Salem,NC,36.076821,-80.338943,37067,SingleFamily,2018,1956,26571,1248,1.5,2,136005,South Peace Haven,neighborhood
6823930857000,3132 Hickory Ridge Dr,27127,Winston Salem,NC,36.034704,-80.254627,37067,SingleFamily,2018,1988,13503,1900,2.0,3,184158,Kingstree,neighborhood
6808292483000,3670 Lakeview Dr,27040,Pfafftown,NC,36.186438,-80.347808,37067,SingleFamily,2018,1958,120225,2927,3.0,4,294654,Winston-Salem,city
6805898543000,3812 Dewsbury Rd,27104,Winston Salem,NC,36.10451,-80.324124,37067,SingleFamily,2018,1960,23522,4810,5.0,4,340602,Old Sherwood Forest,neighborhood
6816901807000,2922 Buena Vista Rd,27106,Winston Salem,NC,36.108482,-80.289505,37067,SingleFamily,2018,1968,22215,3154,3.0,4,529155,Buena Vista,neighborhood
5896376168000,5756 Birchdale Dr,27106,Winston Salem,NC,36.124944,-80.375785,37067,Mobile,2018,2000,20473,1568,2.0,3,111874,Winston-Salem,city
6808104224000,4562 Wedge Dr,27040,Pfafftown,NC,36.161107,-80.350205,37067,SingleFamily,2018,2017,19166,2256,2.5,4,229789,Winston-Salem,city
6876940540000,619 E 15th St,27105,Winston Salem,NC,36.114015,-80.237264,37067,SingleFamily,2018,1947,4791,1048,1.0,2,,North Winston,neighborhood
6876940540000,619 E 16th St,27105,Winston Salem,NC,36.114855,-80.237122,37067,SingleFamily,2018,1947,5227,1048,1.0,2,,North Winston,neighborhood
6876940540000,619 E 25th St,27105,Winston Salem,NC,36.122349,-80.2372,37067,SingleFamily,2018,1947,7405,1048,1.0,2,,North Winston,neighborhood
6813764733000,3000 Heather View Ct,27127,Winston Salem,NC,36.042181,-80.294009,37067,SingleFamily,2018,2006,11761,1282,2.0,3,135045,Winston-Salem,city
6847612235000,3708 Danube Dr,27105,Winston Salem,NC,36.137971,-80.198036,37067,SingleFamily,2018,1975,13939,1566,2.0,3,132451,Ebony Hills,neighborhood
6823264417000,105 Mary Dee Ct,27127,Winston Salem,NC,36.041602,-80.277163,37067,SingleFamily,2018,1997,13503,1652,2.5,3,174388,Winding Woods,neighborhood
6806658100000,245 Kramer Ct,27106,Winston Salem,NC,36.119678,-80.33135,37067,SingleFamily,2018,1968,25264,1680,2.0,3,181124,Robinhood Park,neighborhood
5884679712000,4646 Styers Ferry Rd,27104,Winston Salem,NC,36.086925,-80.378351,37067,SingleFamily,2018,1949,68824,1588,1.5,3,169662,Winston-Salem,city
5896764505000,5163 Fleetwood Cir,27106,Winston Salem,NC,36.123327,-80.363142,37067,SingleFamily,2018,1985,20037,1267,2.0,3,149008,Winston-Salem,city
6846690548000,313 Solon St,27105,Winston Salem,NC,36.133365,-80.198592,37067,SingleFamily,2018,1936,3920,1015,1.0,3,,Winston-Salem,city
6846690548000,313 Solon St,27105,Winston Salem,NC,36.133365,-80.198592,37067,SingleFamily,2018,1936,13068,1015,1.0,3,,Winston-Salem,city
6847125805000,3150 Woodfin Pl,27105,Winston Salem,NC,36.142202,-80.214116,37067,SingleFamily,2018,1967,19602,1630,2.5,3,149337,Northwoods Estate,neighborhood
6833172358000,3639 Clinard Ave,27127,Winston Salem,NC,36.044425,-80.247316,37067,SingleFamily,2018,1941,13503,1321,2.0,3,111263,Union Ridge,neighborhood
6813177867000,2520 Farm Acres Ct,27103,Winston Salem,NC,36.045097,-80.313275,37067,SingleFamily,2018,2012,10454,2287,3.0,3,198645,Winston-Salem,city
6854071957000,2830 E Sprague St,27107,Winston Salem,NC,36.074142,-80.183824,37067,SingleFamily,2018,1930,14810,1537,1.0,3,,Parkview,neighborhood
5893699222000,237 Mctavish Ln,27103,Winston Salem,NC,36.048234,-80.363552,37067,SingleFamily,2018,2000,24829,2613,2.5,3,246314,McGregor Downs,neighborhood
6856152581000,4177 Reidsville Rd,27101,Winston Salem,NC,36.122515,-80.181108,37067,SingleFamily,2018,1955,7840,1357,2.0,2,,Winston-Salem,city
6856152581000,4177 Reidsville Rd,27101,Winston Salem,NC,36.122515,-80.181108,37067,SingleFamily,2018,1955,35719,1595,2.0,2,,Winston-Salem,city
6828335591000,125 Laura Ave,27105,Winston Salem,NC,36.170851,-80.275232,37067,SingleFamily,2018,1959,22651,1120,1.0,3,98745,Hunter Hills,neighborhood
6863790929000,6029 Forest Trails Dr,27107,Winston Salem,NC,36.052793,-80.126409,37067,SingleFamily,2018,1994,20037,2317,2.0,3,273881,Winston-Salem,city
6856112974000,4248 Old Greensboro Rd,27101,Winston Salem,NC,36.112492,-80.180616,37067,SingleFamily,2018,1940,84070,1980,2.0,3,149450,Winston-Salem,city
6826120393000,827 Westover Ave,27104,Winston Salem,NC,36.112627,-80.28278,37067,SingleFamily,2018,1952,10454,1950,3.0,3,389844,Buena Vista,neighborhood
6832782983000,347 Kendall Dr,27107,Winston Salem,NC,36.021408,-80.226579,37067,SingleFamily,2018,2008,5662,2395,2.5,4,185339,Winston-Salem,city
6847645183000,4043 Larkspur Pl,27105,Winston Salem,NC,36.145932,-80.196958,37067,SingleFamily,2018,1971,12196,960,1.5,3,68201,Northampton,neighborhood
6838300323000,4677 Woodhurst Dr,27105,Winston Salem,NC,36.16244,-80.24317,37067,SingleFamily,2018,1955,21780,1564,2.0,3,118470,Mineral Springs,neighborhood
6828414124000,113 Mayfair Dr,27105,Winston Salem,NC,36.164381,-80.27232,37067,SingleFamily,2018,1957,20473,1040,2.0,3,90367,Hunter Hills,neighborhood
6833906392000,667 Field Crossing Ct,27107,Winston Salem,NC,36.025327,-80.218468,37067,SingleFamily,2018,2012,8712,1805,2.5,3,162566,Winston-Salem,city
5893178710000,915 S Peace Haven Rd,27103,Winston Salem,NC,36.04361,-80.38088,37067,SingleFamily,2018,1986,146361,1568,2.0,3,178526,Clemmons,city
5893178710000,915 S Peace Haven Rd,27103,Winston Salem,NC,36.04361,-80.38088,37067,SingleFamily,2018,1986,24393,1568,2.0,3,178526,Clemmons,city
6805476880000,565 Alpine Rd,27104,Winston Salem,NC,36.09958,-80.338155,37067,SingleFamily,2018,1968,28749,1934,2.0,3,207779,Knob View,neighborhood
6816793578000,1826 Polo Rd,27106,Winston Salem,NC,36.132417,-80.295668,37067,SingleFamily,2018,1952,14374,1099,1.0,3,147584,Ashlet Forest,neighborhood
6823650197000,1435 Bromwich Dr,27127,Winston Salem,NC,36.038146,-80.264683,37067,SingleFamily,2018,2004,13503,1152,2.0,3,134053,Winston-Salem,city
6806741214000,4305 Prestwick Pl,27106,Winston Salem,NC,36.117353,-80.330194,37067,SingleFamily,2018,2007,31363,2179,2.0,3,295058,Huntscroft,neighborhood
5897978463000,4510 Yadkinville Rd,27040,Winston Salem,NC,36.153316,-80.355373,37067,VacantResidentialLand,2018,1964,27007,2525,2.0,4,,Winston-Salem,city
6847074528000,4650 Circle Dr,27105,Winston Salem,NC,36.155159,-80.217995,37067,SingleFamily,2018,1972,13503,1334,2.0,3,88503,Ogburn Station,neighborhood
6834926033000,846 Woodcote Dr,27107,Winston Salem,NC,36.057564,-80.219169,37067,SingleFamily,2018,1969,10018,1202,1.5,3,50840,Easton,neighborhood
6815991056000,415 N Westview Dr,27104,Winston Salem,NC,36.103549,-80.289188,37067,SingleFamily,2018,1950,16988,2746,2.0,4,481633,Buena Vista,neighborhood
5894406916000,2540 Caudle Place Ln,27103,Winston Salem,NC,36.052927,-80.371425,37067,SingleFamily,2018,2008,12632,2069,2.0,3,288860,Clemmons,city
6834112728000,607 Mclean Ave,27127,Winston Salem,NC,36.056544,-80.247625,37067,SingleFamily,2018,1963,13503,1416,2.0,3,129825,Konnoak,neighborhood
6838131122000,435 Oak Summit Rd,27105,Winston Salem,NC,36.17002,-80.249704,37067,SingleFamily,2018,1880,108900,2447,1.0,4,126903,Winston-Salem,city
6834905795000,101 Fir Dr,27107,Winston Salem,NC,36.053948,-80.219265,37067,SingleFamily,2018,1994,9583,1040,2.0,3,69013,Easton,neighborhood
6832004070000,247 Sailway Rd,27127,Winston Salem,NC,35.996661,-80.249229,37067,SingleFamily,2018,2003,14810,1756,2.5,4,172855,Winston-Salem,city
6807666222000,4331 Erie Dr,27106,Winston Salem,NC,36.150192,-80.332405,37067,MultiFamily5Plus,2018,1956,23958,600,1.0,0,,Winston-Salem,city
6827569926000,4616 Tobacco St,27106,Winston Salem,NC,36.152914,-80.267013,37067,SingleFamily,2018,1940,18730,895,1.0,2,33416,Winston-Salem,city
6847203376000,3602 Bates Dr,27105,Winston Salem,NC,36.135419,-80.21108,37067,SingleFamily,2018,1965,8276,1750,2.0,3,52474,Prospect Park,neighborhood
6832991746000,506 Clear Meadow Dr,27107,Winston Salem,NC,36.023765,-80.22034,37067,SingleFamily,2018,2003,11325,1670,2.5,3,165472,Winston-Salem,city
6864878020000,4508 Brondesbury Dr,27107,Winston Salem,NC,36.072064,-80.12062,37067,SingleFamily,2018,1993,10454,1472,2.0,3,151063,Winston-Salem,city
6832502747000,202 Rink Rd,27107,Winston Salem,NC,35.998942,-80.233294,37067,VacantResidentialLand,2018,1945,44431,1600,3.0,2,,Winston-Salem,city
6804019171000,1445 Beaverton Trl,27103,Winston Salem,NC,36.053579,-80.349909,37067,SingleFamily,2018,1999,20908,2054,2.5,3,254659,Canton Forest,neighborhood
6845384535000,2905 Galaxy Ct,27101,Winston Salem,NC,36.102972,-80.206965,37067,SingleFamily,2018,1971,10454,1040,1.5,4,68504,City View,neighborhood
6832791186000,4231 Kendall Farms Way,27107,Winston Salem,NC,36.022065,-80.226912,37067,SingleFamily,2018,2017,6098,2805,3.0,5,207361,Winston-Salem,city
6846281952000,4910 Milton Dr,27105,Winston Salem,NC,36.131401,-80.211851,37067,Mobile,2018,2003,14810,1188,2.0,3,111660,Prospect Park,neighborhood
6822051150000,5015 Hogan Point Ct,27127,Winston Salem,NC,36.010317,-80.284503,37067,SingleFamily,2018,2011,10105,1795,2.5,3,168753,Winston-Salem,city
6808112108000,4426 Wedge Dr,27040,Pfafftown,NC,36.163623,-80.350971,37067,SingleFamily,2018,2018,13068,1680,2.0,3,232079,Winston-Salem,city
6807190762000,4330 Lochurst Dr,27040,Pfafftown,NC,36.159623,-80.351371,37067,SingleFamily,2018,2015,9147,2429,2.5,4,230213,Winston-Salem,city
6805946395000,132 Bishop St,27104,Winston Salem,NC,36.09029,-80.321018,37067,SingleFamily,2018,1959,20473,1560,1.5,2,140408,South Fork,neighborhood
6807841255000,4125 White Hawk Ln,27106,Winston Salem,NC,36.144899,-80.327153,37067,SingleFamily,2018,2005,19602,3291,4.0,4,558822,Greenbrier Farms,neighborhood
6876785052000,136 Bethania Oaks Cir,27040,Pfafftown,NC,36.196973,-80.338647,37067,SingleFamily,2018,1998,1742,1236,2.0,3,103323,Winston-Salem,city
6804310555000,1245 Castlegate Ct,27103,Winston Salem,NC,36.054856,-80.342856,37067,SingleFamily,2018,1973,16117,2238,2.0,5,183665,Salem Woods,neighborhood
6805748847000,237 Staffordshire Rd,27104,Winston Salem,NC,36.091583,-80.327316,37067,SingleFamily,2018,1978,19166,2810,3.0,4,298550,Peace Haven,neighborhood
6844210834000,3211 Thomasville Rd,27107,Winston Salem,NC,36.057018,-80.210984,37067,SingleFamily,2018,1947,6098,1224,1.0,3,21568,Winston-Salem,city
6814032227000,2905 Wonderwood Dr,27103,Winston Salem,NC,36.059856,-80.318715,37067,SingleFamily,2018,1979,23086,1853,2.5,3,220854,Atwood Acres,neighborhood
6856130119000,4265 Salem Landing Dr,27101,Winston Salem,NC,36.115998,-80.181566,37067,SingleFamily,2018,2001,16988,1744,2.5,3,154586,Winston-Salem,city
5895958717000,544 Sun Creek Dr,27104,Winston Salem,NC,36.093811,-80.354531,37067,SingleFamily,2018,1991,16988,2966,4.0,4,326640,Rollinghills,neighborhood
6832990437000,4219 Meredith Woods Ln,27107,Winston Salem,NC,36.022978,-80.220684,37067,SingleFamily,2018,2001,10018,1278,2.0,3,145039,Winston-Salem,city
6818158213000,4640 Kelly Dr,27106,Winston Salem,NC,36.175138,-80.315211,37067,SingleFamily,2018,1956,22215,1495,1.0,3,116430,Shattalon Heights,neighborhood
6823967154000,3665 Fiddlers Glenn Ct,27127,Winston Salem,NC,36.040984,-80.252346,37067,SingleFamily,2018,2011,7405,2264,2.5,4,227521,Union Ridge,neighborhood
5897994578000,4421 Lochurst Dr,27040,Pfafftown,NC,36.159181,-80.356761,37067,SingleFamily,2018,1990,14810,2696,2.5,4,307968,Lochhurst,neighborhood
6826746964000,2312 K Court Ave,27105,Winston Salem,NC,36.119995,-80.260641,37067,SingleFamily,2018,1951,13503,870,1.0,2,38430,Boston Thurmon,neighborhood
6864964927000,636 Nottinghill Dr,27107,Winston Salem,NC,36.072047,-80.118592,37067,SingleFamily,2018,1990,20473,2144,3.0,3,221056,Winston-Salem,city
6865324700000,195 Motsinger Dr,27107,Winston Salem,NC,36.087569,-80.139142,37067,SingleFamily,2018,1986,25264,1480,2.0,3,161885,Garden View,neighborhood
6815934852000,525 Lester Ln,27103,Winston Salem,NC,36.089166,-80.287914,37067,SingleFamily,2018,1951,11761,1113,1.0,3,115568,Biltmore,neighborhood
6803227866000,2464 Mid Salem Dr,27103,Winston Salem,NC,36.03104,-80.343519,37067,SingleFamily,2018,2005,6969,1260,2.0,3,142601,Winston-Salem,city
6803299220000,533 Osborne Rd,27103,Winston Salem,NC,36.048437,-80.343222,37067,SingleFamily,2018,2003,9147,1416,2.5,3,157102,Winston-Salem,city
6817617328000,2638 Wyman Rd,27106,Winston Salem,NC,36.137269,-80.297986,37067,SingleFamily,2018,1941,21780,2006,2.5,3,190528,Town and Country Estates,neighborhood
6806638884000,4145 Prestwick Xing,27106,Winston Salem,NC,36.116215,-80.330965,37067,SingleFamily,2018,2013,12196,2199,3.0,3,290796,Huntscroft,neighborhood
6814925999000,2715 Cardiff Ct,27103,Winston Salem,NC,36.059394,-80.286952,37067,SingleFamily,2018,1967,16117,2072,2.0,3,177587,British Woods,neighborhood
6824698102000,1731 Camden Rd,27103,Winston Salem,NC,36.07651,-80.262861,37067,SingleFamily,2018,1974,13068,1470,2.0,3,159097,Ardmore,neighborhood
6804848870000,2651 Scioto St,27103,Winston Salem,NC,36.064004,-80.32336,37067,SingleFamily,2018,1973,20037,1475,2.0,3,109606,Atwood Acres,neighborhood
6804226611000,1158 Jonestown Rd,27103,Winston Salem,NC,36.057764,-80.34445,37067,SingleFamily,2018,1988,10890,1347,2.0,3,149150,Canton Forest,neighborhood
6816066811000,931 Foxhall Dr,27106,Winston Salem,NC,36.124533,-80.318458,37067,SingleFamily,2018,1983,17859,1828,2.5,3,204885,Foxhall,neighborhood
6818557622000,4865 Murray Rd,27106,Winston Salem,NC,36.176383,-80.30194,37067,SingleFamily,2018,1950,108900,1386,1.0,3,115812,Winston-Salem,city
6803006702000,3059 Old Sides Mill Rd,27103,Winston Salem,NC,36.02505,-80.350642,37067,SingleFamily,2018,1950,9583,1215,2.0,2,106592,Winston-Salem,city
6817258242000,4130 Winchester Rd,27106,Winston Salem,NC,36.147717,-80.311252,37067,SingleFamily,2018,1966,16552,1566,2.0,3,188924,Town and Country Estates,neighborhood
6816022266000,3540 York Rd,27104,Winston Salem,NC,36.11204,-80.319444,37067,SingleFamily,2018,1967,24829,2356,3.0,5,291955,New Forestdale,neighborhood
6805717305000,4441 Country Club Rd,27104,Winston Salem,NC,36.081968,-80.327612,37067,SingleFamily,2018,1945,25700,1500,2.0,3,142443,South Fork,neighborhood
6815014052000,630 Creekway Dr,27104,Winston Salem,NC,36.08116,-80.318288,37067,SingleFamily,2018,1972,9583,1062,1.5,3,121446,South Fork,neighborhood
5898858240000,4440 Chebar Dr,27040,Pfafftown,NC,36.174595,-80.359118,37067,SingleFamily,2018,1976,20473,2792,3.0,4,225623,Winston-Salem,city
6805855285000,4275 Bower Ln,27104,Winston Salem,NC,36.092627,-80.324804,37067,SingleFamily,2018,1986,16988,1090,2.5,3,166511,South Fork,neighborhood
6846283917000,3506 Prospect Dr,27105,Winston Salem,NC,36.131598,-80.21123,37067,SingleFamily,2018,1970,1742,476,1.0,1,28832,Prospect Park,neighborhood
6804420029000,224 Foxcroft Dr,27103,Winston Salem,NC,36.056379,-80.339628,37067,SingleFamily,2018,1963,12196,1350,2.0,3,131434,Salem Woods,neighborhood
6803097666000,1273 Beaverton Trl,27103,Winston Salem,NC,36.049569,-80.350553,37067,SingleFamily,2018,1999,10890,1449,2.0,3,177529,Hampton Woodsc,neighborhood
6822898613000,1451 Chesborough Rd,27127,Winston Salem,NC,36.023063,-80.255251,37067,SingleFamily,2018,1968,25700,1526,2.0,3,149925,Wilshire Estates,neighborhood
6846318262000,2631 Wallingford Rd,27101,Winston Salem,NC,36.110341,-80.205652,37067,SingleFamily,2018,1992,22215,2969,3.0,3,198403,Winston Lake Estates,neighborhood
5897825938000,2649 Wessex Rd,27106,Winston Salem,NC,36.141025,-80.359851,37067,SingleFamily,2018,1966,36154,2780,2.5,3,226055,Winston-Salem,city
6812869002000,4625 Audrey Dr,27127,Winston Salem,NC,36.012779,-80.288598,37067,SingleFamily,2018,2007,9147,1874,2.0,3,191820,Winston-Salem,city
6847344718000,5071 Joshua Way Ln,27105,Winston Salem,NC,36.147617,-80.207722,37067,SingleFamily,2018,2006,9147,1718,2.0,3,138283,Old Carver,neighborhood
6808787873000,2041 Mallard Lakes Dr,27106,Winston Salem,NC,36.184937,-80.329071,37067,SingleFamily,2018,1973,35719,1624,3.0,4,182054,Mallard Lakes,neighborhood
6816067983000,940 Foxhall Dr,27106,Winston Salem,NC,36.124935,-80.317905,37067,SingleFamily,2018,1982,18295,1665,2.0,3,193875,Foxhall,neighborhood
6807747604000,3966 Burning Tree Ln,27106,Winston Salem,NC,36.145953,-80.328661,37067,SingleFamily,2018,2004,16552,3878,4.5,4,550711,Forsyth Forest,neighborhood
6808101769000,4236 Lochurst Dr,27040,Pfafftown,NC,36.162585,-80.351103,37067,SingleFamily,2018,2017,10454,2172,2.5,4,231225,Winston-Salem,city
6805547007000,421 Burkeridge Ct,27104,Winston Salem,NC,36.089298,-80.334464,37067,SingleFamily,2018,1972,17424,1500,3.0,4,238937,Peace Haven,neighborhood
6803495501000,891 Somerset Dr,27103,Winston Salem,NC,36.048872,-80.338079,37067,SingleFamily,2018,2001,84506,2880,5.0,3,441876,Hillcrest,neighborhood
6805195476000,1000 Lissa Anne Ln,27104,Winston Salem,NC,36.104012,-80.348738,37067,SingleFamily,2018,2003,27442,4935,5.5,6,851193,New Sherwood Forest,neighborhood
6803571012000,1800 Hunters Forest Dr,27103,Winston Salem,NC,36.042509,-80.335721,37067,SingleFamily,2018,1988,20473,2315,3.0,4,287624,Huntington Woods,neighborhood
6805790429000,832 N Peace Haven Rd,27104,Winston Salem,NC,36.104298,-80.330263,37067,SingleFamily,2018,1956,24394,1557,2.0,3,177019,Winston-Salem,city
6808328991000,4960 Leinbach Dr,27106,Winston Salem,NC,36.168503,-80.341929,37067,SingleFamily,2018,2003,23086,1420,2.0,3,143759,Cedar Forest,neighborhood
6805467065000,5000 Mountain View Rd,27104,Winston Salem,NC,36.094758,-80.337792,37067,SingleFamily,2018,1979,19166,1974,2.0,3,201704,Winston-Salem,city
6813844709000,1526 Janita Dr,27127,Winston Salem,NC,36.036803,-80.290683,37067,Mobile,2018,2000,45737,1456,2.0,3,130024,Janita Lakes Estates,neighborhood
6829033921000,5883 Summer Trace Ln,27105,Winston Salem,NC,36.199312,-80.286764,37067,SingleFamily,2018,1997,13068,1614,2.0,3,148631,Summer Trace,neighborhood
6856044080000,206 Grover St,27101,Winston Salem,NC,36.118184,-80.183352,37067,SingleFamily,2018,1952,20908,1000,1.0,2,60942,Winston-Salem,city
6816198194000,208 Trotters Way Ct,27106,Winston Salem,NC,36.130988,-80.314273,37067,SingleFamily,2018,1994,20037,3375,2.5,4,446980,Ridgemere,neighborhood
6822044257000,2000 Hogan Point Dr,27127,Winston Salem,NC,36.008046,-80.283278,37067,SingleFamily,2018,1999,9583,1372,2.0,3,157586,Winston-Salem,city
6864762571000,585 Country View Dr,27107,Winston Salem,NC,36.070684,-80.125867,37067,SingleFamily,2018,1996,23522,1320,2.0,3,163591,Winston-Salem,city
6833152642000,3865 Clinard Ave,27127,Winston Salem,NC,36.039579,-80.247227,37067,Mobile,2018,1983,14810,1152,2.0,3,94120,Union Ridge,neighborhood
6827986064000,363 Retnuh Dr,27105,Winston Salem,NC,36.156106,-80.254464,37067,SingleFamily,2018,1977,11325,1336,2.0,3,99300,Retnuh Hills,neighborhood
6823852397000,3055 Sides Rd,27127,Winston Salem,NC,36.037738,-80.25564,37067,SingleFamily,2018,1985,27007,1476,2.0,3,171014,Winston-Salem,city
6823852397000,3055 Sides Rd,27127,Winston Salem,NC,36.037738,-80.25564,37067,SingleFamily,2018,1985,27442,1476,2.0,3,171014,Winston-Salem,city
6823852397000,3055 Sides Rd,27127,Winston Salem,NC,36.037738,-80.25564,37067,SingleFamily,2018,1985,27442,1476,2.0,3,171014,Winston-Salem,city
6823852397000,3055 Sides Rd,27127,Winston Salem,NC,36.037738,-80.25564,37067,SingleFamily,2018,1985,64468,1476,2.0,3,171014,Winston-Salem,city
6855635480000,3551 Glen Lyon Dr,27107,Winston Salem,NC,36.089284,-80.16228,37067,SingleFamily,2018,2005,10019,1600,3.0,3,156270,Wintergreen,neighborhood
6837151327000,420 Alspaugh Dr,27105,Winston Salem,NC,36.148796,-80.249365,37067,SingleFamily,2018,1971,8712,1404,2.0,4,92203,North Hills,neighborhood
6808101783000,4242 Lochurst Dr,27040,Pfafftown,NC,36.162415,-80.351035,37067,SingleFamily,2018,2010,10454,2699,3.5,5,239148,Winston-Salem,city
6865121269000,140 Townsend Ridge Dr,27107,Winston Salem,NC,36.086376,-80.146722,37067,SingleFamily,2018,1959,25700,1526,2.0,3,137027,Winston-Salem,city
6816220847000,3365 York Rd,27106,Winston Salem,NC,36.113786,-80.313416,37067,SingleFamily,2018,2005,8276,2188,2.5,3,305872,Robinhood Trails,neighborhood
6803573234000,1809 Hunters Forest Dr,27103,Winston Salem,NC,36.04312,-80.334977,37067,SingleFamily,2018,1988,16988,3645,3.5,4,330362,Huntington Woods,neighborhood
5883960807000,115 Plymouth Ave,27104,Winston Salem,NC,36.097607,-80.296063,37067,SingleFamily,2018,1953,24393,2646,2.0,3,335502,Country Club,neighborhood
6838165109000,5681 Novack St,27105,Winston Salem,NC,36.178512,-80.248574,37067,SingleFamily,2018,2005,14810,1469,2.0,4,144495,Pinebrook Country Club,neighborhood
6823991837000,929 Elmhurst St,27127,Winston Salem,NC,36.05123,-80.25457,37067,SingleFamily,2018,1950,21780,2351,1.5,2,149300,Konnoak,neighborhood
6824537075000,1413 Bancroft St,27127,Winston Salem,NC,36.059752,-80.266169,37067,SingleFamily,2018,1925,17424,1084,1.0,4,22832,Hootstown,neighborhood
5897333217000,2519 Olivet Church Rd,27106,Winston Salem,NC,36.141643,-80.377327,37067,SingleFamily,2018,1931,27007,1473,1.0,3,135068,Winston-Salem,city
6822049336000,4800 Tutelo Trl,27127,Winston Salem,NC,36.008296,-80.281644,37067,SingleFamily,2018,1994,11761,1372,2.0,3,150277,Winston-Salem,city
6854894536000,307 Water Lily Cir,27107,Winston Salem,NC,36.078813,-80.155868,37067,SingleFamily,2018,2013,8276,2244,3.0,4,215579,Winston-Salem,city
6833050905000,2564 Fiddlers Glenn Dr,27127,Winston Salem,NC,36.040477,-80.251501,37067,SingleFamily,2018,2019,6098,2217,3.0,4,205189,Union Ridge,neighborhood
6846831069000,1509 Blaine St,27101,Winston Salem,NC,36.115626,-80.191248,37067,SingleFamily,2018,1960,20037,1189,1.0,3,100721,Winston-Salem,city
5896354818000,5544 Robinhood Rd,27106,Winston Salem,NC,36.121064,-80.376538,37067,SingleFamily,2018,1944,356320,1304,1.0,2,164337,Winston-Salem,city
6854881683000,3389 Tinley Park Dr,27107,Winston Salem,NC,36.076239,-80.156686,37067,SingleFamily,2018,2007,5662,1165,2.0,3,123295,Winston-Salem,city
6834304070000,3252 S Main St,27127,Winston Salem,NC,36.051692,-80.23989,37067,SingleFamily,2018,1940,9147,1761,3.0,3,134649,Konnoak,neighborhood
6822162453000,4821 Sagewood Ln,27127,Winston Salem,NC,36.01401,-80.280687,37067,SingleFamily,2018,1996,10018,1674,2.5,3,162651,Winston-Salem,city
5883877034000,125 Chrisfield Cir,27104,Winston Salem,NC,36.08238,-80.348538,37067,SingleFamily,2018,1985,1306,1536,2.5,2,110317,South Peace Haven,neighborhood
5883877034000,125 Westhaven Cir,27104,Winston Salem,NC,36.095221,-80.306539,37067,SingleFamily,2018,1987,2178,3001,3.0,4,110317,South Peace Haven,neighborhood
6822094754000,1967 Paragon Dr,27127,Winston Salem,NC,36.023089,-80.283522,37067,SingleFamily,2018,2011,6534,2077,3.0,3,184483,Winston-Salem,city
5894600138000,189 Sparks Ct,27103,Winston Salem,NC,36.050838,-80.366576,37067,SingleFamily,2018,2001,12632,1134,2.0,3,154341,Winston-Salem,city
6833588276000,621 Clemson Cir,27107,Winston Salem,NC,36.047012,-80.231719,37067,SingleFamily,2018,1948,8276,1008,1.0,3,63422,Weston,neighborhood
6846351931000,2530 Atlee St,27105,Winston Salem,NC,36.123203,-80.208338,37067,SingleFamily,2018,1959,11325,950,1.0,3,31997,Castle Heights,neighborhood
6856376222000,4328 Stokesdale Ave,27101,Winston Salem,NC,36.127088,-80.172918,37067,SingleFamily,2018,1947,12632,2407,3.0,5,190487,Winston-Salem,city
6814039276000,2960 Eddystone Ln,27103,Winston Salem,NC,36.05985,-80.316168,37067,SingleFamily,2018,1941,10890,1040,1.0,2,115994,West View,neighborhood
6846968231000,3813 Crusade Dr,27101,Winston Salem,NC,36.124213,-80.185633,37067,SingleFamily,2018,1992,12196,1270,2.0,3,136302,Winston-Salem,city
6828306518000,5137 Britt Rd,27105,Winston Salem,NC,36.162829,-80.275056,37067,SingleFamily,2018,1970,10454,2206,2.0,4,142076,Cherryview,neighborhood
5896659508000,5125 Robinhood Rd,27106,Winston Salem,NC,36.120676,-80.364822,37067,SingleFamily,2018,1941,35719,1552,2.0,3,173066,Winston-Salem,city
6823473607000,2040 Ardmore Village Ln,27127,Winston Salem,NC,36.044963,-80.270846,37067,SingleFamily,2018,2001,9148,1351,2.0,3,151054,Ardmore Village,neighborhood
6808797996000,2150 Foxhunter Ct,27106,Winston Salem,NC,36.188163,-80.329168,37067,SingleFamily,2018,1974,24829,1431,3.0,5,167509,Mallard Lakes,neighborhood
6854871258000,3485 Tinley Park Dr,27107,Winston Salem,NC,36.072514,-80.156735,37067,SingleFamily,2018,2005,8712,1126,2.0,3,121400,Winston-Salem,city
6813695320000,2691 Glen Forest Dr,27103,Winston Salem,NC,36.04921,-80.297191,37067,SingleFamily,2018,1995,61419,4143,4.0,4,321069,Mountain Brook,neighborhood
6847210328000,3110 Airport Rd,27105,Winston Salem,NC,36.138271,-80.212319,37067,SingleFamily,2018,1949,9147,1320,1.5,3,94497,Northwoods Estate,neighborhood
6816163399000,1071 Foxhall Dr,27106,Winston Salem,NC,36.123425,-80.315791,37067,SingleFamily,2018,1969,14374,1487,2.0,3,189514,Foxhall,neighborhood
5896729061000,5195 Ashlyn Dr,27106,Winston Salem,NC,36.110809,-80.361045,37067,SingleFamily,2018,2008,20908,1584,2.5,3,224077,Winston-Salem,city
6836806595000,1101 George Black Ln,27101,Winston Salem,NC,36.108229,-80.22321,37067,SingleFamily,2018,1986,15246,1820,3.0,3,128839,East Winston,neighborhood
6805213187000,4930 Ryandale Rd,27104,Winston Salem,NC,36.081277,-80.345564,37067,SingleFamily,2018,1958,19602,1588,2.0,4,146799,South Peace Haven,neighborhood
6827824670000,4037 Reich St,27105,Winston Salem,NC,36.141102,-80.258235,37067,SingleFamily,2018,1939,16552,1070,1.0,3,39653,Winston-Salem,city
6804693103000,405 Kettle Ct,27104,Winston Salem,NC,36.075835,-80.332268,37067,SingleFamily,2018,1992,5227,1306,2.0,3,145407,Winston-Salem,city
6864775000000,514 Smithdale St,27107,Winston Salem,NC,36.072038,-80.125077,37067,SingleFamily,2018,1980,20037,2440,3.0,4,196261,Winston-Salem,city
6816226787000,815 Conway Ct,27106,Winston Salem,NC,36.113416,-80.311244,37067,SingleFamily,2018,1959,23086,2751,3.0,3,362616,Robinhood Trails,neighborhood
6806212244000,4255 Allistair Rd,27104,Winston Salem,NC,36.108917,-80.346597,37067,SingleFamily,2018,1972,94089,5354,4.0,4,665968,New Sherwood Forest,neighborhood
6839008192000,1255 Marlborough Ln,27105,Winston Salem,NC,36.189153,-80.250775,37067,SingleFamily,2018,1961,24829,1953,2.0,4,145193,Pinebrook Country Club,neighborhood
6823438971000,1405 Sage Hill Dr,27127,Winston Salem,NC,36.034687,-80.26876,37067,SingleFamily,2018,2013,5227,2575,2.5,3,196582,Winston-Salem,city
6817203474000,742 Lynn Dee Dr,27106,Winston Salem,NC,36.134562,-80.312644,37067,SingleFamily,2018,1976,23087,2565,3.0,3,225838,Winston-Salem,city
6826355302000,2715 Bartram Rd,27106,Winston Salem,NC,36.120917,-80.27471,37067,SingleFamily,2018,1969,67518,4637,5.5,3,997767,Winston-Salem,city
6855627023000,109 Dunbarton Ct,27107,Winston Salem,NC,36.085489,-80.161721,37067,SingleFamily,2018,2010,10018,1870,2.5,3,177915,Wintergreen,neighborhood
5893396012000,850 Cameron Village Dr,27103,Winston Salem,NC,36.047564,-80.374738,37067,SingleFamily,2018,2005,9147,2725,4.0,4,312132,Clemmons,city
6833564653000,307 Oakdale St,27107,Winston Salem,NC,36.04259,-80.233083,37067,SingleFamily,2018,2007,16552,1134,2.0,3,92302,Weston,neighborhood
6832985455000,4800 Candlelight Dr,27107,Winston Salem,NC,36.020213,-80.218837,37067,SingleFamily,2018,1969,20037,1377,3.0,4,166722,Winston-Salem,city
5897895490000,3477 Waterway Dr,27040,Pfafftown,NC,36.158656,-80.359735,37067,SingleFamily,2018,2004,11326,2739,2.5,3,274070,Lochhurst,neighborhood
6847549506000,4218 Orchid Dr,27105,Winston Salem,NC,36.147048,-80.199291,37067,SingleFamily,2018,1971,13939,960,1.5,3,69384,Jefferson Gardens,neighborhood
5893820573000,4397 Winterberry Ridge Ct,27103,Winston Salem,NC,36.029907,-80.359337,37067,SingleFamily,2018,1998,13939,2824,2.5,4,292345,Clemmons,city
6854064764000,2401 Cole Rd,27107,Winston Salem,NC,36.070815,-80.182726,37067,SingleFamily,2018,1967,41382,1398,2.0,3,135424,Stewart Gardens,neighborhood
6865129429000,203 Corbin St,27107,Winston Salem,NC,36.086945,-80.144172,37067,SingleFamily,2018,1951,29185,1002,1.0,2,,Winston-Salem,city
6823139358000,1699 Thompson Dr,27127,Winston Salem,NC,36.033111,-80.278613,37067,SingleFamily,2018,1959,13939,1193,1.0,3,109911,Caroline Village,neighborhood
6804934189000,2950 Springhaven Dr,27103,Winston Salem,NC,36.059637,-80.321188,37067,SingleFamily,2018,1975,20037,1620,2.5,3,190432,Atwood Acres,neighborhood
6815795739000,2627 Club Park Rd,27104,Winston Salem,NC,36.105442,-80.294695,37067,SingleFamily,2018,1977,29280,4874,4.0,4,886285,Buena Vista,neighborhood
6818503822000,5004 Pinewood Dr,27106,Winston Salem,NC,36.163209,-80.303235,37067,SingleFamily,2018,1957,26136,972,1.0,3,95332,Poman Acres,neighborhood
6847013972000,3701 Whitfield Rd,27105,Winston Salem,NC,36.139601,-80.217909,37067,SingleFamily,2018,1968,10018,1740,2.0,4,138221,Northwoods Estate,neighborhood
6828918691000,5280 Northridge Dr,27105,Winston Salem,NC,36.166184,-80.254102,37067,SingleFamily,2018,2017,8276,1872,2.5,3,159319,Winston-Salem,city
6854392477000,2200 Victoria Village Ln,27107,Winston Salem,NC,36.078373,-80.173322,37067,SingleFamily,2018,2004,9147,1386,2.0,3,143686,Winston-Salem,city
6812754685000,3110 Glenshire Dr,27127,Winston Salem,NC,36.011737,-80.293409,37067,SingleFamily,2018,1993,15681,2016,2.5,3,205554,Winston-Salem,city
5893623660000,5980 Cottonwood Ln,27103,Winston Salem,NC,36.030102,-80.365073,37067,SingleFamily,2018,1969,20908,1334,2.0,3,175055,Clemmons,city
5894779880000,168 Cameron Way Cir,27103,Winston Salem,NC,36.071839,-80.360321,37067,SingleFamily,2018,2000,4791,1240,2.0,2,156931,Winston-Salem,city
6846951874000,3750 Crusade Dr,27101,Winston Salem,NC,36.123186,-80.187882,37067,SingleFamily,2018,1996,11325,1469,2.0,3,149386,Winston-Salem,city
6847419181000,3972 Cottington Dr,27105,Winston Salem,NC,36.137508,-80.202302,37067,SingleFamily,2018,1999,17859,1332,2.0,3,143183,Ebony Hills,neighborhood
6847766635000,4219 Garden St,27105,Winston Salem,NC,36.152837,-80.193538,37067,SingleFamily,2018,1952,25264,1116,1.0,3,52473,Jefferson Gardens,neighborhood
6823946221000,1114 Folkstone Ridge Ln,27127,Winston Salem,NC,36.035702,-80.252677,37067,SingleFamily,2018,2006,18730,1517,3.0,3,181649,Kingstree,neighborhood
6834532034000,2818 Emerson St,27127,Winston Salem,NC,36.060119,-80.234104,37067,SingleFamily,2018,1957,12196,1105,1.0,3,90456,South Park,neighborhood
6807663795000,4408 Erie Dr,27106,Winston Salem,NC,36.151599,-80.333212,37067,SingleFamily,2018,1984,19166,1316,2.0,3,153709,Winston-Salem,city
6837067074000,4269 Cody Dr,27105,Winston Salem,NC,36.150593,-80.250585,37067,SingleFamily,2018,1970,9147,1066,2.0,3,82749,North Hills,neighborhood
6807372040000,4423 Greystone Place Ct,27106,Winston Salem,NC,36.152281,-80.343814,37067,SingleFamily,2018,2004,13068,2900,3.0,5,358021,Chadwyck,neighborhood
6809719362000,1724 Turfwood Dr,27040,Pfafftown,NC,36.19174,-80.328525,37067,SingleFamily,2018,1963,20908,1379,2.5,3,148890,Winston-Salem,city
6815462086000,109 Westhaven Cir,27104,Winston Salem,NC,36.095159,-80.305518,37067,SingleFamily,2018,2002,4791,4104,3.5,4,707071,Country Club,neighborhood
6845833136000,1131 Salem Lake Rd,27107,Winston Salem,NC,36.088331,-80.190178,37067,SingleFamily,2018,1966,56628,2158,1.5,3,,Reynolda Forest,neighborhood
6845833136000,1131 Salem Lake Rd,27107,Winston Salem,NC,36.088331,-80.190178,37067,SingleFamily,2018,1966,114998,2308,2.5,5,,Reynolda Forest,neighborhood
6837143903000,410 Forest Hill Ave,27105,Winston Salem,NC,36.147625,-80.248741,37067,SingleFamily,2018,1970,7840,1112,1.5,3,84611,Forest Hills,neighborhood
6806454705000,37 Robinhood Cir,27106,Winston Salem,NC,36.121373,-80.339445,37067,SingleFamily,2018,1947,32670,1048,2.0,2,112901,Bent Tree Farm,neighborhood
6806454705000,37 Robinhood Cir,27106,Winston Salem,NC,36.121373,-80.339445,37067,SingleFamily,2018,1947,7840,1048,2.0,2,112901,Bent Tree Farm,neighborhood
6846007905000,2213 Gerald St,27101,Winston Salem,NC,36.109464,-80.216359,37067,SingleFamily,2018,1954,8712,864,1.0,3,34772,Slater Park,neighborhood
6809411078000,5659 Sweetbriar Rd,27040,Pfafftown,NC,36.190928,-80.341395,37067,SingleFamily,2018,1974,40946,1,3.0,4,208407,Winston-Salem,city
6822444493000,3062 Old Salisbury Rd,27127,Winston Salem,NC,36.008566,-80.269712,37067,SingleFamily,2018,1952,100623,1266,1.0,2,125563,Winston-Salem,city
6845612276000,1315 Butler St,27107,Winston Salem,NC,36.083028,-80.197085,37067,SingleFamily,2018,1956,40075,1854,1.5,4,127482,Reynolda Forest,neighborhood
6805680756000,689 Willowbrook Ln,27104,Winston Salem,NC,36.102238,-80.33354,37067,SingleFamily,2018,2012,29620,3051,4.5,4,534627,Winston-Salem,city
6823141967000,4036 Village Pl,27127,Winston Salem,NC,36.037444,-80.281374,37067,SingleFamily,2018,1978,11761,1392,2.0,3,132603,Caroline Village,neighborhood
6806750234000,209 Leland Dr,27106,Winston Salem,NC,36.120092,-80.330689,37067,SingleFamily,2018,1968,23522,1560,1.5,3,146633,Robinhood Park,neighborhood
6833356069000,4048 Lexwin Ave,27107,Winston Salem,NC,36.038159,-80.239069,37067,SingleFamily,2018,1948,13503,1192,1.0,3,31086,Weston,neighborhood
6804321615000,203 Shenandoah Dr,27103,Winston Salem,NC,36.057893,-80.342758,37067,SingleFamily,2018,1975,12196,1468,2.0,3,142653,Salem Woods,neighborhood
6807119983000,4045 Windsor Place Dr,27106,Winston Salem,NC,36.138248,-80.34791,37067,SingleFamily,2018,2000,20037,2648,2.5,4,379505,Winsor Place,neighborhood
6833239365000,4325 Walnut Hollow Dr,27127,Winston Salem,NC,36.033402,-80.241379,37067,SingleFamily,2018,1985,12632,1267,2.0,3,139443,South View,neighborhood
6828303430000,5124 Britt Rd,27105,Winston Salem,NC,36.162347,-80.275986,37067,SingleFamily,2018,1970,12196,925,1.0,3,59410,Cherryview,neighborhood
6822887223000,5111 Queensway Rd,27127,Winston Salem,NC,36.019202,-80.255531,37067,SingleFamily,2018,1968,21780,1969,2.0,3,,Wilshire Estates,neighborhood
6822887223000,5111 Queensway Rd,27127,Winston Salem,NC,36.019202,-80.255531,37067,SingleFamily,2018,1968,33105,1969,2.0,3,,Wilshire Estates,neighborhood
6855828138000,101 High Sedge Dr,27107,Winston Salem,NC,36.086014,-80.154622,37067,SingleFamily,2018,2003,12632,2516,3.0,3,196534,Winston-Salem,city
6847544068000,4206 S Jasmin Ct,27105,Winston Salem,NC,36.145719,-80.200758,37067,SingleFamily,2018,1970,11325,1104,1.5,3,68943,Northampton,neighborhood
6807646573000,3730 Hawkedale Dr,27106,Winston Salem,NC,36.145593,-80.332146,37067,SingleFamily,2018,1974,31798,1891,2.0,3,197982,Forsyth Forest,neighborhood
6812948083000,2118 Hogan Point Dr,27127,Winston Salem,NC,36.007389,-80.285203,37067,SingleFamily,2018,1999,11325,1911,2.0,4,170287,Winston-Salem,city
6822895862000,4851 Dorset Rd,27127,Winston Salem,NC,36.023578,-80.256078,37067,SingleFamily,2018,1966,20037,3913,3.0,4,217772,Wilshire Estates,neighborhood
5893443404000,3219 Brookland Dr,27103,Winston Salem,NC,36.035075,-80.37214,37067,SingleFamily,2018,1972,21780,1664,2.0,3,183330,Clemmons,city
6856479613000,145 Stanley Ave,27101,Winston Salem,NC,36.128297,-80.168495,37067,Mobile,2018,1994,24829,1404,2.0,3,95086,Winston-Salem,city
6805877543000,410 Friar Tuck Rd,27104,Winston Salem,NC,36.098987,-80.324382,37067,SingleFamily,2018,1964,20473,2460,2.5,4,318800,Old Sherwood Forest,neighborhood
6806825945000,1004 Blakeford Ct,27106,Winston Salem,NC,36.113863,-80.325288,37067,SingleFamily,2018,1991,26136,3548,4.5,4,449325,Huntscroft,neighborhood
6844006299000,1008 Nancy Ln,27107,Winston Salem,NC,36.052743,-80.215526,37067,SingleFamily,2018,1949,9583,750,1.0,4,32889,Easton,neighborhood
6843765615000,1240 Teague Rd,27107,Winston Salem,NC,36.042964,-80.192288,37067,SingleFamily,2018,1933,42253,2153,2.0,3,178235,Winston-Salem,city
6865113495000,233 Townsend Ridge Dr,27107,Winston Salem,NC,36.084053,-80.145942,37067,SingleFamily,2018,1999,16552,1398,2.0,3,147538,Winston-Salem,city
6816683748000,211 Miller Pointe Cir,27106,Winston Salem,NC,36.130183,-80.299198,37067,SingleFamily,2018,1999,2178,1262,2.0,2,156030,West Polo Road,neighborhood
6828007216000,5977 Old Plank Rd,27106,Winston Salem,NC,36.161851,-80.284851,37067,SingleFamily,2018,1990,871,933,2.0,2,64517,Winston-Salem,city
5895707105000,5340 Old Plantation Cir,27104,Winston Salem,NC,36.078289,-80.361415,37067,SingleFamily,2018,1999,9583,1856,3.0,3,219491,Breckingridge,neighborhood
6805053293000,421 Wind Haven Ln,27104,Winston Salem,NC,36.092328,-80.35253,37067,SingleFamily,2018,1988,13503,2402,4.5,4,330374,Rollinghills,neighborhood
6815054521000,256 N Gordon Dr,27104,Winston Salem,NC,36.093518,-80.318616,37067,SingleFamily,2018,1956,25700,1486,1.5,3,157655,South Fork,neighborhood
6808299680000,3247 High Cliffs Rd,27040,Pfafftown,NC,36.186836,-80.34535,37067,SingleFamily,2018,1977,22651,2554,2.5,4,234705,Winston-Salem,city
5895593107000,510 Hunters Knoll Rd,27106,Winston Salem,NC,36.10299,-80.36994,37067,SingleFamily,2018,1999,9583,2031,3.0,3,215988,Winston-Salem,city
5893746612000,5920 Greenhaven Dr,27103,Winston Salem,NC,36.035639,-80.360964,37067,SingleFamily,2018,1971,22651,2980,3.0,4,215297,Clemmons,city
6806688868000,1025 Brookmeade Dr,27106,Winston Salem,NC,36.130092,-80.331261,37067,SingleFamily,2018,1993,16552,2814,4.0,4,324878,Still Meadow,neighborhood
6803469192000,2508 Huntington Woods Dr,27103,Winston Salem,NC,36.040013,-80.336118,37067,SingleFamily,2018,1988,23522,3301,4.0,4,339448,Huntington Woods,neighborhood
6828928710000,113 Northoaks Ct,27105,Winston Salem,NC,36.16889,-80.254123,37067,SingleFamily,2018,2003,9583,1986,3.0,3,141155,Winston-Salem,city
6854067618000,2404 Gardenia Rd,27107,Winston Salem,NC,36.070617,-80.181862,37067,SingleFamily,2018,1959,20473,1293,1.5,3,114811,Stewart Gardens,neighborhood
6826575107000,2830 Montclair Rd,27106,Winston Salem,NC,36.12608,-80.268074,37067,SingleFamily,2018,1957,20908,3083,4.5,4,364045,Winston-Salem,city
6804350428000,731 Tam O Shanter Trl,27103,Winston Salem,NC,36.065681,-80.343195,37067,SingleFamily,2018,1968,20473,1700,2.0,3,160205,Westbrook,neighborhood
6807541508000,4312 Shattalon Dr,27106,Winston Salem,NC,36.145674,-80.337456,37067,SingleFamily,2018,2002,10575,1822,3.0,4,207912,Shattalon Lake Estates,neighborhood
6824289289000,2238 Cherokee Ln,27103,Winston Salem,NC,36.074109,-80.275788,37067,SingleFamily,2018,1963,23958,1660,2.0,3,211814,Ardmore,neighborhood
6834125593000,462 Beth Ave,27127,Winston Salem,NC,36.05857,-80.246445,37067,SingleFamily,2018,1964,8712,884,1.0,2,73449,Konnoak,neighborhood
6829818608000,942 Rock Spring Dr,27105,Winston Salem,NC,36.193497,-80.257953,37067,SingleFamily,2018,1955,21344,1359,2.0,3,103048,Plantation Homes,neighborhood
6817292535000,3938 Homestead Ln,27106,Winston Salem,NC,36.159557,-80.313534,37067,SingleFamily,2018,1963,26571,1804,2.0,3,168040,Beacon Hill,neighborhood
6847975316000,4403 Winnabow Rd,27105,Winston Salem,NC,36.154876,-80.187189,37067,SingleFamily,2018,1968,20037,1392,1.5,3,118649,Huff Hills,neighborhood
6806661055000,4210 Robinhood Rd,27106,Winston Salem,NC,36.122021,-80.333596,37067,SingleFamily,2018,1945,12632,1500,2.0,3,180030,Winston-Salem,city
6804019421000,1456 Beaverton Trl,27103,Winston Salem,NC,36.054425,-80.350098,37067,SingleFamily,2018,1998,19602,2013,2.0,4,228254,Canton Forest,neighborhood
6823961123000,2481 Fiddlers Glenn Dr,27127,Winston Salem,NC,36.040907,-80.254489,37067,SingleFamily,2018,2006,10454,2230,2.5,3,202255,Winston-Salem,city
6847870452000,4364 Northampton Dr,27105,Winston Salem,NC,36.154975,-80.19207,37067,SingleFamily,2018,1962,20037,1333,1.0,3,118238,Jefferson Gardens,neighborhood
6847263433000,4425 Carver School Rd,27105,Winston Salem,NC,36.152087,-80.211461,37067,SingleFamily,2018,1974,6534,1008,1.0,2,36366,Old Carver,neighborhood
6846298631000,3545 Cortland Ct,27105,Winston Salem,NC,36.133385,-80.209499,37067,SingleFamily,2018,2007,12196,1172,2.0,3,113984,Prospect Park,neighborhood
6807373125000,4040 Havenwood Dr,27106,Winston Salem,NC,36.152684,-80.343563,37067,SingleFamily,2018,1968,20037,1740,2.0,3,201219,Chadwyck,neighborhood
5895329091000,5675 Phillips Bridge Rd,27104,Winston Salem,NC,36.083483,-80.373936,37067,SingleFamily,2018,1960,103672,1619,2.5,3,224824,Winston-Salem,city
6827619843000,3801 Cherry St,27105,Winston Salem,NC,36.138906,-80.263359,37067,SingleFamily,2018,1948,16117,1233,1.0,2,88189,Brookwood,neighborhood
6819358431000,1220 Bethania Rural Hall Rd,27106,Winston Salem,NC,36.203194,-80.308765,37067,SingleFamily,2018,1975,20908,1247,2.0,2,125573,Winston-Salem,city
5897210988000,2523 Lake Forest Dr,27106,Winston Salem,NC,36.138029,-80.381451,37067,SingleFamily,2018,1963,25700,1736,3.0,3,196265,Winston-Salem,city
6807955564000,100 Turtle Creek Ct,27106,Winston Salem,NC,36.148494,-80.32242,37067,SingleFamily,2018,1996,65340,3325,3.5,4,471604,Greenbrier Farms,neighborhood
6823388131000,2015 Highfield Park Dr,27127,Winston Salem,NC,36.046174,-80.272476,37067,SingleFamily,2018,1997,9147,1368,2.0,3,148867,Ardmore Village,neighborhood
6847282847000,2121 School St,27105,Winston Salem,NC,36.158744,-80.211859,37067,SingleFamily,2018,1954,19166,1028,1.0,3,56097,Winston-Salem,city
6864795481000,2204 Blue Stone Ln,27107,Winston Salem,NC,36.078675,-80.124909,37067,SingleFamily,2018,1981,20038,1536,3.0,3,149979,Pebbel Creek Estates,neighborhood
6813755000000,2275 Briar Glen Rd,27127,Winston Salem,NC,36.037424,-80.293724,37067,SingleFamily,2018,1997,12632,1366,2.0,3,156372,Briar Glen,neighborhood
6837057556000,4211 Cody Dr,27105,Winston Salem,NC,36.149282,-80.25064,37067,SingleFamily,2018,1970,7405,1222,2.0,4,85500,North Hills,neighborhood
6823884597000,1027 Linger Rd,27127,Winston Salem,NC,36.047615,-80.256716,37067,SingleFamily,2018,1970,26136,2358,2.0,3,149111,Konnoak,neighborhood
6805376394000,524 Knob View Dr,27104,Winston Salem,NC,36.098248,-80.341557,37067,SingleFamily,2018,1990,50965,4444,4.5,5,734177,Knob View,neighborhood
6808914304000,3769 Cheshire Place Ct,27106,Winston Salem,NC,36.164379,-80.323251,37067,SingleFamily,2018,2003,14374,1261,3.0,3,150595,Georgetown,neighborhood
6847224596000,5008 Butterfield Dr,27105,Winston Salem,NC,36.141434,-80.210782,37067,SingleFamily,2018,1970,5227,952,1.0,3,36745,Old Carver,neighborhood
6815495856000,815 Yorkshire Rd,27106,Winston Salem,NC,36.10565,-80.304859,37067,SingleFamily,2018,1961,39639,1692,3.0,4,269204,Buena Vista,neighborhood
6817795435000,4920 Brian Center Ln,27106,Winston Salem,NC,36.159564,-80.295657,37067,SingleFamily,2018,2005,10454,2013,2.5,3,177194,Winston-Salem,city
6813290139000,430 Everidge Rd,27103,Winston Salem,NC,36.048737,-80.312258,37067,SingleFamily,2018,1962,22651,1722,2.0,3,153995,Winston-Salem,city
6808419891000,4005 Gracemont Dr,27106,Winston Salem,NC,36.165514,-80.338173,37067,SingleFamily,2018,1990,27878,1680,2.0,3,173124,Cedar Forest,neighborhood
6865203530000,619 Denny Dr,27107,Winston Salem,NC,36.081494,-80.142704,37067,SingleFamily,2018,2006,3920,1021,2.0,3,134396,Winston-Salem,city
6832688802000,4284 Piedmont Farms Way,27107,Winston Salem,NC,36.021102,-80.228195,37067,SingleFamily,2018,1972,257004,2532,2.0,3,205773,Winston-Salem,city
6813764215000,3116 Asheton Grove Ct,27127,Winston Salem,NC,36.04085,-80.294095,37067,SingleFamily,2018,2005,6098,2500,2.5,4,194016,Winston-Salem,city
6819046345000,1459 Turfwood Dr,27040,Pfafftown,NC,36.200173,-80.319599,37067,SingleFamily,2018,1965,20908,1600,2.5,3,169342,Winston-Salem,city
6854897743000,190 Meadowsweet Ct,27107,Winston Salem,NC,36.07925,-80.154741,37067,SingleFamily,2018,2008,7840,2309,2.5,4,213432,Winston-Salem,city
