REID,street,zipcode,city,state,latitude,longitude,FIPScounty,useCode,taxAssessmentYear,yearBuilt,lotSizeSqFt,finishedSqFt,bathrooms,bedrooms,zestimate,name,type
6855912632000,205 Sedge Meadow Dr,27107,Winston Salem,NC,36.084473,-80.15324,37067,SingleFamily,2018,2001,11761,1920,2.5,4,181076,Winston-Salem,city
6828924433000,340 Northoaks Dr,27105,Winston Salem,NC,36.168109,-80.2554,37067,SingleFamily,2018,2006,8407,1220,2.0,3,138111,Winston-Salem,city
6816503742000,716 Barnesdale Rd,27106,Winston Salem,NC,36.108032,-80.302159,37067,SingleFamily,2018,1958,18295,2800,3.0,5,325093,Buena Vista,neighborhood
6812948789000,2471 Hampton Hall Ln,27127,Winston Salem,NC,36.009435,-80.285206,37067,SingleFamily,2018,2009,5227,1231,2.0,3,126525,Winston-Salem,city
6805281121000,808 Moyers Rd,27104,Winston Salem,NC,36.100322,-80.346814,37067,SingleFamily,2018,2017,16988,2827,3.0,4,590326,Cedar View,neighborhood
6853071821000,3121 Greene Cross Dr,27107,Winston Salem,NC,36.046249,-80.183519,37067,SingleFamily,2018,1987,23086,1638,2.0,3,165453,Winston-Salem,city
6812838614000,4912 Joshua Ct,27127,Winston Salem,NC,36.006235,-80.288806,37067,SingleFamily,2018,2001,9147,1294,2.0,3,163251,Winston-Salem,city
6838233098000,4372 Oak Pointe Dr,27105,Winston Salem,NC,36.169986,-80.245423,37067,SingleFamily,2018,2015,5227,1829,3.0,3,148782,Winston-Salem,city
6806612758000,1005 Cross Gate Rd,27106,Winston Salem,NC,36.110554,-80.333001,37067,SingleFamily,2018,1993,16988,3412,4.0,4,370403,New Sherwood Forest,neighborhood
6823824738000,605 Ocala Dr,27127,Winston Salem,NC,36.031677,-80.256836,37067,SingleFamily,2018,1966,47916,1828,2.0,3,156186,Pinedale Manor,neighborhood
6815445954000,236 Burkewood Dr,27104,Winston Salem,NC,36.092082,-80.304588,37067,SingleFamily,2018,1953,17859,1251,1.0,2,176620,Country Club,neighborhood
6822549346000,3019 Canterbury Park Dr,27127,Winston Salem,NC,36.008482,-80.264713,37067,SingleFamily,2018,2003,9147,1850,2.0,3,178696,Winston-Salem,city
6847742417000,3904 Oak Ridge Dr,27105,Winston Salem,NC,36.146869,-80.194838,37067,SingleFamily,2018,1971,10018,1628,1.5,4,111032,Northampton,neighborhood
6833038986000,3200 Hickory Ridge Dr,27127,Winston Salem,NC,36.035024,-80.248436,37067,SingleFamily,2018,1990,15681,3083,3.0,3,208725,Kingstree,neighborhood
5893738402000,4515 Woodsman Way,27103,Winston Salem,NC,36.032347,-80.360327,37067,SingleFamily,2018,1974,21344,2515,3.0,3,220218,Clemmons,city
6824173489000,1414 Kenwood St,27103,Winston Salem,NC,36.071894,-80.28116,37067,SingleFamily,2018,1954,10018,1518,1.0,2,115082,Ardmore,neighborhood
6829037287000,5751 Fox Chase Dr,27105,Winston Salem,NC,36.197583,-80.285205,37067,SingleFamily,2018,2006,6098,1260,2.0,3,136788,Summer Trace,neighborhood
6843192711000,1024 William Dr,27107,Winston Salem,NC,36.051179,-80.213681,37067,SingleFamily,2018,1949,6098,1158,1.0,4,34692,Easton,neighborhood
6823276673000,2828 Austin Place Ct,27127,Winston Salem,NC,36.044801,-80.276367,37067,SingleFamily,2018,2005,56192,1226,2.5,3,205253,Winding Woods,neighborhood
6847374912000,4893 Doris St,27105,Winston Salem,NC,36.156204,-80.207819,37067,SingleFamily,2018,1910,7405,1238,1.0,3,32358,Old Carver,neighborhood
6863894732000,3309 Union Knoll Dr,27107,Winston Salem,NC,36.052072,-80.121643,37067,SingleFamily,2018,1959,23086,1332,1.0,3,138963,Winston-Salem,city
6807378911000,4016 Clarendon Ave,27106,Winston Salem,NC,36.154763,-80.341982,37067,SingleFamily,2018,1991,12196,2353,3.0,3,175345,Baycreek,neighborhood
5895914253000,208 Heatherton Way,27104,Winston Salem,NC,36.081349,-80.35551,37067,SingleFamily,2018,1979,18295,3100,4.0,4,324387,Huntcliff,neighborhood
6813768373000,3103 Lauren Hill Ct,27127,Winston Salem,NC,36.041094,-80.292513,37067,SingleFamily,2018,2005,13068,2359,2.5,3,192086,Winston-Salem,city
6827501912000,3327 University Pkwy,27106,Winston Salem,NC,36.136398,-80.269633,37067,SingleFamily,2018,1948,29620,3234,3.0,6,230593,Brookwood,neighborhood
5893398071000,810 Cameron Village Dr,27103,Winston Salem,NC,36.047543,-80.373839,37067,SingleFamily,2018,2005,11325,3541,4.0,4,370459,Clemmons,city
5895425696000,5724 Remington Dr,27104,Winston Salem,NC,36.085121,-80.372015,37067,SingleFamily,2018,1980,20037,2196,2.5,4,197237,Winston-Salem,city
6822059274000,4770 Seminole Ct,27127,Winston Salem,NC,36.010711,-80.281552,37067,SingleFamily,2018,1997,13503,2119,2.0,3,179688,Winston-Salem,city
6815650578000,301 Lawndale Dr,27104,Winston Salem,NC,36.093879,-80.299487,37067,SingleFamily,2018,1988,10890,1974,2.5,3,248867,Country Club,neighborhood
6813840925000,3865 Ebert Rd,27127,Winston Salem,NC,36.037295,-80.291992,37067,SingleFamily,2018,1960,20037,1344,2.0,3,152269,Janita Lakes Estates,neighborhood
6804272314000,4801 Kester Mill Rd,27103,Winston Salem,NC,36.072108,-80.345725,37067,SingleFamily,2018,1946,98445,908,1.0,2,,Winston-Salem,city
6805444819000,455 Burkes Crossing Dr,27104,Winston Salem,NC,36.091551,-80.338888,37067,SingleFamily,2018,1997,16988,3606,3.0,3,415705,Peace Haven,neighborhood
6803221536000,2475 Stratford Lake Rd,27103,Winston Salem,NC,36.0301,-80.345635,37067,SingleFamily,2018,2003,6969,954,1.0,2,118499,Winston-Salem,city
6808223090000,4304 Countess Pl,27106,Winston Salem,NC,36.165987,-80.346985,37067,SingleFamily,2018,1962,26571,2119,2.0,3,201563,Cedar Forest,neighborhood
6836024344000,765 W 14th St,27105,Winston Salem,NC,36.112935,-80.251117,37067,SingleFamily,2018,1996,15246,1169,3.0,3,99740,Kimberly Gateway Commons,neighborhood
6805051378000,428 Wind Haven Ln,27104,Winston Salem,NC,36.092784,-80.353308,37067,SingleFamily,2018,1996,20037,2242,3.0,4,273111,Rollinghills,neighborhood
6855316378000,164 Cool Springs Ct,27107,Winston Salem,NC,36.083594,-80.172023,37067,SingleFamily,2018,1990,180338,1491,2.0,3,216151,Winston-Salem,city
6817424114000,2716 Loch Dr,27106,Winston Salem,NC,36.139323,-80.305845,37067,SingleFamily,2018,1958,21780,1914,2.0,3,191187,Town and Country Estates,neighborhood
6816468261000,1478 Turkey Hill Rd,27106,Winston Salem,NC,36.123007,-80.304074,37067,SingleFamily,2018,2018,10890,2901,4.0,4,495057,Merrimont Hills,neighborhood
6816786168000,3030 Magazine Dr,27106,Winston Salem,NC,36.12857,-80.29466,37067,SingleFamily,2018,1967,15681,1711,2.5,3,196689,Ashlet Forest,neighborhood
6823403591000,224 Stone Moss Ln,27127,Winston Salem,NC,36.025349,-80.270207,37067,SingleFamily,2018,2003,9009,2100,2.5,3,189202,Winston-Salem,city
6847037040000,3871 Whitfield Rd,27105,Winston Salem,NC,36.14258,-80.216718,37067,SingleFamily,2018,1968,10890,1194,1.5,3,91285,Northwoods Estate,neighborhood
6847120745000,3031 Butterfield Dr,27105,Winston Salem,NC,36.141887,-80.215717,37067,SingleFamily,2018,1966,13939,1520,1.5,3,95747,Northwoods Estate,neighborhood
6813380323000,2595 Griffith Rd,27103,Winston Salem,NC,36.04631,-80.309086,37067,SingleFamily,2018,1952,1650793320,1996,2.0,3,180519,Hampton Sted,neighborhood
6847377533000,4605 Erin St,27105,Winston Salem,NC,36.155165,-80.206764,37067,SingleFamily,2018,1928,14810,1472,2.0,3,62096,Old Carver,neighborhood
6817370392000,3501 Reynolda Rd,27106,Winston Salem,NC,36.153505,-80.310456,37067,SingleFamily,2018,1951,207781,3012,2.0,3,303653,Windsor Estates,neighborhood
6847886224000,4465 Northampton Dr,27105,Winston Salem,NC,36.157249,-80.190222,37067,SingleFamily,2018,1939,27878,870,1.0,2,62706,Winston-Salem,city
6846379374000,3220 Tracy St,27105,Winston Salem,NC,36.127144,-80.205525,37067,SingleFamily,2018,1966,11325,1440,1.5,3,92057,Cardinal Acres,neighborhood
6844018925000,3100 Easton Dr,27107,Winston Salem,NC,36.057323,-80.215129,37067,SingleFamily,2018,2000,9583,1488,2.0,4,98270,Easton,neighborhood
6814969939000,1365 Pinebluff Rd,27103,Winston Salem,NC,36.07041,-80.286007,37067,SingleFamily,2018,1960,13939,1492,2.0,3,161990,Ardmore,neighborhood
6846148722000,2444 Caledonia Dr,27105,Winston Salem,NC,36.119878,-80.21272,37067,SingleFamily,2018,1958,7840,800,1.0,3,35414,Bowen Park,neighborhood
6827600675000,1223 Brookwood Dr,27106,Winston Salem,NC,36.135631,-80.266306,37067,SingleFamily,2018,1946,15246,1720,2.0,3,145956,Brookwood,neighborhood
6803180592000,1360 Stonecroft Ct,27103,Winston Salem,NC,36.046498,-80.349394,37067,SingleFamily,2018,2017,9147,3860,4.5,5,490645,Winston-Salem,city
6807594242000,3855 Velinda Dr,27106,Winston Salem,NC,36.158404,-80.336516,37067,SingleFamily,2018,1998,14374,1758,2.0,3,205915,Cedar Forest,neighborhood
6815198690000,655 Hertford Rd,27104,Winston Salem,NC,36.10478,-80.313774,37067,SingleFamily,2018,1998,24393,3310,3.0,4,504694,Old Sherwood Forest,neighborhood
6807764156000,3810 Sandalwood Ln,27106,Winston Salem,NC,36.150076,-80.329572,37067,SingleFamily,2018,1991,41382,1870,3.0,4,189200,Winston-Salem,city
5898606227000,3655 Stimpson Dr,27040,Pfafftown,NC,36.160431,-80.367638,37067,SingleFamily,2018,2014,64033,2002,2.5,3,260679,Winston-Salem,city
5898606227000,3655 Stimpson Dr,27040,Pfafftown,NC,36.160431,-80.367638,37067,SingleFamily,2018,2014,30927,2002,2.5,3,260679,Winston-Salem,city
5898606227000,3655 Stimpson Dr,27040,Pfafftown,NC,36.160431,-80.367638,37067,SingleFamily,2018,2014,72745,2002,2.5,3,260679,Winston-Salem,city
5897539165000,2724 Pfafftown Forest Dr,27106,Winston Salem,NC,36.141405,-80.368353,37067,SingleFamily,2018,2017,47044,4057,4.0,5,601092,Winston-Salem,city
6803360157000,2609 Caraway Ln,27103,Winston Salem,NC,36.040115,-80.342622,37067,SingleFamily,2018,1964,20473,1456,2.0,3,142892,Huntington Woods,neighborhood
6803360157000,2609 Caraway Ln,27103,Winston Salem,NC,36.040115,-80.342622,37067,SingleFamily,2018,1964,21780,1456,1.0,3,142892,Huntington Woods,neighborhood
6806504962000,1024 Glousman Rd,27104,Winston Salem,NC,36.108173,-80.3356,37067,SingleFamily,2018,1985,17424,3343,3.5,4,359199,New Sherwood Forest,neighborhood
6832784826000,340 Kendall Dr,27107,Winston Salem,NC,36.021236,-80.226093,37067,SingleFamily,2018,2008,6969,1836,2.5,3,154929,Winston-Salem,city
6843004649000,4271 Salem Springs Ct,27107,Winston Salem,NC,36.026365,-80.215939,37067,SingleFamily,2018,2017,9147,1584,3.0,3,150122,Winston-Salem,city
6865329123000,4210 Oakridge Place Dr,27107,Winston Salem,NC,36.086011,-80.137382,37067,SingleFamily,2018,2004,9147,1152,2.0,3,140840,Winston-Salem,city
6837881219000,4528 Baux Mountain Rd,27105,Winston Salem,NC,36.157063,-80.225895,37067,SingleFamily,2018,1998,17424,1352,2.0,3,,Northview,neighborhood
6806989874000,520 Petree Rd,27106,Winston Salem,NC,36.130078,-80.320732,37067,SingleFamily,2018,1961,40075,2401,4.0,5,243667,Winston-Salem,city
6846882438000,3627 San Carlos Rd,27105,Winston Salem,NC,36.130442,-80.191148,37067,SingleFamily,2018,1977,20037,2014,2.5,4,185906,Spanish Pines,neighborhood
6845112733000,1250 Peachtree St,27107,Winston Salem,NC,36.08417,-80.214161,37067,SingleFamily,2018,1958,12632,1025,1.0,3,50571,Morningside Manor,neighborhood
6803127661000,2505 Stratford Crossing Dr,27103,Winston Salem,NC,36.030202,-80.346902,37067,SingleFamily,2018,2003,11325,954,1.0,2,117764,Winston-Salem,city
5897673150000,3320 Community Church Rd,27040,Pfafftown,NC,36.152222,-80.367205,37067,SingleFamily,2018,1960,9147,960,1.0,2,90497,Winston-Salem,city
6832094142000,4952 Lighthouse Ct,27127,Winston Salem,NC,36.021688,-80.249782,37067,SingleFamily,2018,2004,6969,1250,2.0,3,149767,Winston-Salem,city
6854368650000,3243 Ridgeback Dr,27107,Winston Salem,NC,36.070538,-80.171248,37067,SingleFamily,2018,2019,9583,1280,2.0,3,129975,Winston-Salem,city
6804099933000,4914 Gladwyn Dr,27104,Winston Salem,NC,36.077846,-80.350595,37067,SingleFamily,2018,1958,57499,2000,2.0,4,187456,South Peace Haven,neighborhood
6813559040000,4108 Primrose Path,27127,Winston Salem,NC,36.037371,-80.299025,37067,SingleFamily,2018,1990,10454,1503,2.0,3,142933,Briar Glen,neighborhood
5896596782000,2280 Trinidad Ln,27106,Winston Salem,NC,36.132004,-80.369111,37067,SingleFamily,2018,1988,22651,1600,2.0,3,197832,Winston-Salem,city
6818479326000,2100 Sallies Ln,27106,Winston Salem,NC,36.181121,-80.304851,37067,SingleFamily,2018,1965,20908,1394,2.0,3,132698,Moravian Forest,neighborhood
6807835956000,157 Windrush Rd,27106,Winston Salem,NC,36.144077,-80.325811,37067,SingleFamily,2018,2001,14374,3168,3.5,4,459519,Greenbrier Farms,neighborhood
6822040830000,2435 Hampton Hall Ln,27127,Winston Salem,NC,36.009502,-80.284721,37067,SingleFamily,2018,2010,5662,1528,2.0,3,141483,Winston-Salem,city
6867051224000,4451 Ramseur Dr,27101,Winston Salem,NC,36.149383,-80.15116,37067,SingleFamily,2018,2012,9147,2650,3.0,4,202754,Walkertown,city
6817466198000,3100 Minart Dr,27106,Winston Salem,NC,36.150422,-80.30507,37067,SingleFamily,2018,1960,23958,1942,2.0,3,176101,Windsor Estates,neighborhood
6826040992000,900 Marguerite Dr,27106,Winston Salem,NC,36.119668,-80.28629,37067,SingleFamily,2018,1951,29620,3498,3.0,4,399312,Reynolda,neighborhood
6823960675000,2419 Fiddlers Glenn Dr,27127,Winston Salem,NC,36.042328,-80.254659,37067,SingleFamily,2018,2006,6534,2202,2.5,4,199516,Winston-Salem,city
6855923171000,116 Forest Glade Rd,27107,Winston Salem,NC,36.085823,-80.152779,37067,SingleFamily,2018,2011,9147,2635,2.5,3,203527,Winston-Salem,city
5897835848000,5215 Dartmoor St,27106,Winston Salem,NC,36.143533,-80.359636,37067,SingleFamily,2018,1964,39204,3015,2.0,4,241986,Winston-Salem,city
6843469125000,132 Southoak Dr,27107,Winston Salem,NC,36.041524,-80.201032,37067,SingleFamily,2018,1996,10890,3320,3.0,3,163939,Winston-Salem,city
6854489378000,3920 Thornaby Cir,27107,Winston Salem,NC,36.075439,-80.167515,37067,SingleFamily,2018,2002,7405,1533,2.0,4,150931,Winston-Salem,city
6823233124000,1660 Thompson Dr,27127,Winston Salem,NC,36.032456,-80.277327,37067,SingleFamily,2018,1959,17424,1616,2.0,2,133687,Caroline Village,neighborhood
6818282883000,2331 Trammel Ter,27106,Winston Salem,NC,36.185081,-80.313773,37067,SingleFamily,2018,1978,20908,2108,2.5,3,192851,Moravian Forest,neighborhood
6804018043000,1429 Beaverton Trl,27103,Winston Salem,NC,36.05333,-80.350293,37067,SingleFamily,2018,1999,22215,2045,3.0,3,247671,Canton Forest,neighborhood
6822268221000,131 Cahill Ct,27127,Winston Salem,NC,36.013434,-80.275347,37067,SingleFamily,2018,1999,9583,1695,2.5,3,188746,Winston-Salem,city
6865205199000,531 Troy Lndg,27107,Winston Salem,NC,36.080646,-80.14182,37067,SingleFamily,2018,2007,4792,1200,2.0,3,134218,Winston-Salem,city
5885644520000,808 Federal Hall Ln,27284,Winston Salem,NC,36.089098,-80.148825,37067,SingleFamily,2018,2012,871,1144,3.0,2,108393,Winston-Salem,city
6827824932000,4105 Reich St,27105,Winston Salem,NC,36.141842,-80.25834,37067,SingleFamily,2018,1939,27007,900,1.0,2,39193,Winston-Salem,city
6805582522000,140 Hunters Grove Ct,27104,Winston Salem,NC,36.101557,-80.336344,37067,SingleFamily,2018,1995,18295,2656,3.5,4,370219,Winston-Salem,city
6864690139000,436 Meredith Way,27107,Winston Salem,NC,36.078013,-80.130144,37067,SingleFamily,2018,2002,9147,1186,2.0,3,132222,Embark Oaks,neighborhood
6822272889000,1744 Swing Dr,27127,Winston Salem,NC,36.018011,-80.277243,37067,SingleFamily,2018,1999,21780,1288,2.0,3,124266,Winston-Salem,city
6817045691000,4230 Mill Creek Rd,27106,Winston Salem,NC,36.14597,-80.318869,37067,SingleFamily,2018,1969,13939,1776,2.5,4,184095,Town and Country Estates,neighborhood
6815303092000,3321 Arlington Dr,27103,Winston Salem,NC,36.078519,-80.308294,37067,SingleFamily,2018,1946,12196,550,1.0,2,52640,Old Vineyard,neighborhood
5896595614000,2295 Winterberry Dr,27106,Winston Salem,NC,36.131781,-80.369763,37067,SingleFamily,2018,1983,20037,1408,2.0,3,170185,Winston-Salem,city
6805057092000,325 Gatewood Dr,27104,Winston Salem,NC,36.09179,-80.351198,37067,SingleFamily,2018,1966,20473,1482,2.0,3,153541,Rollinghills,neighborhood
6804004707000,1384 Beaverton Trl,27103,Winston Salem,NC,36.05264,-80.351835,37067,SingleFamily,2018,2001,22216,2176,3.0,4,254340,Canton Forest,neighborhood
6812513946000,5272 Smoky Ridge Ln,27127,Winston Salem,NC,36.00156,-80.300387,37067,SingleFamily,2018,2015,9147,2112,2.5,3,228114,Winston-Salem,city
6812857942000,4640 Audrey Dr,27127,Winston Salem,NC,36.012534,-80.289139,37067,SingleFamily,2018,2007,9147,1811,3.0,4,178554,Winston-Salem,city
6864341288000,6041 Yeaton Glen Dr,27107,Winston Salem,NC,36.06443,-80.139626,37067,SingleFamily,2018,1993,12632,1861,2.5,3,190879,Winston-Salem,city
5892605892000,112 Lorelei Ct,27103,Winston Salem,NC,36.062023,-80.334032,37067,SingleFamily,2018,1969,13503,1735,2.0,4,153520,Salem Woods,neighborhood
5892605892000,112 Flintfield Dr,27103,Winston Salem,NC,36.060883,-80.339566,37067,SingleFamily,2018,1962,13503,1289,2.0,3,153520,Salem Woods,neighborhood
5892605892000,112 Capistrano Dr,27103,Winston Salem,NC,36.06213,-80.334889,37067,SingleFamily,2018,1968,12196,1324,2.0,3,153520,Salem Woods,neighborhood
5892605892000,112 Worthdale Dr,27103,Winston Salem,NC,36.059561,-80.336314,37067,SingleFamily,2018,1968,13068,1222,2.0,3,153520,Salem Woods,neighborhood
5892605892000,112 Shenandoah Dr,27103,Winston Salem,NC,36.058085,-80.341605,37067,SingleFamily,2018,1975,12196,1250,2.0,3,153520,Salem Woods,neighborhood
5892605892000,112 Cheltenham Dr,27103,Winston Salem,NC,36.054947,-80.340599,37067,SingleFamily,2018,1973,13503,1340,2.0,3,153520,Salem Woods,neighborhood
6804547838000,218 Capistrano Dr,27103,Winston Salem,NC,36.064114,-80.333978,37067,SingleFamily,2018,1971,12196,1250,2.0,4,145061,Salem Woods,neighborhood
6815095841000,706 Chester Rd,27104,Winston Salem,NC,36.105274,-80.318437,37067,SingleFamily,2018,1958,40075,2347,2.0,3,251355,Old Sherwood Forest,neighborhood
5896499357000,2281 Olivet Church Rd,27106,Winston Salem,NC,36.130965,-80.371581,37067,SingleFamily,2018,1960,66646,2506,2.0,3,241158,Winston-Salem,city
6845703745000,1244 Reynolds Forest Dr,27107,Winston Salem,NC,36.081615,-80.193719,37067,SingleFamily,2018,1988,23086,1332,2.5,3,159098,Reynolda Forest,neighborhood
6817600089000,424 Yates Rd,27106,Winston Salem,NC,36.133719,-80.300067,37067,SingleFamily,2018,1956,25264,1737,2.5,2,172345,Winston-Salem,city
6815240657000,3711 Country Club Rd,27104,Winston Salem,NC,36.091223,-80.313048,37067,SingleFamily,2018,1980,10018,1104,2.0,2,117905,South Fork,neighborhood
6854843575000,3942 Magnolia Place Ln,27107,Winston Salem,NC,36.065005,-80.155863,37067,SingleFamily,2018,1999,11325,1728,2.5,3,96248,Winston-Salem,city
6833091336000,3340 Rosemont Ave,27127,Winston Salem,NC,36.049817,-80.251174,37067,SingleFamily,2018,2000,11325,1150,2.0,3,113465,Konnoak,neighborhood
6817510890000,2660 Belwick Dr,27106,Winston Salem,NC,36.138375,-80.303536,37067,SingleFamily,2018,1968,20037,1236,2.0,3,165433,Town and Country Estates,neighborhood
6817327292000,719 Ransom Rd,27106,Winston Salem,NC,36.1395,-80.307896,37067,SingleFamily,2018,1948,37897,1481,1.0,4,76897,Town and Country Estates,neighborhood
5893384306000,3087 Cameron Village Ct,27103,Winston Salem,NC,36.045811,-80.375428,37067,SingleFamily,2018,2012,18295,3000,3.0,4,308078,Clemmons,city
6807695098000,4556 Oakwood Cir,27106,Winston Salem,NC,36.158077,-80.332572,37067,SingleFamily,2018,1989,35283,1363,2.0,3,152855,Old Town Heights,neighborhood
6803147853000,1585 Rockingham Dr,27103,Winston Salem,NC,36.036407,-80.347019,37067,SingleFamily,2018,2005,10454,2254,2.5,4,190690,Edgewood Farms,neighborhood
6823581022000,1625 Stoneshire Ct,27127,Winston Salem,NC,36.045983,-80.268067,37067,SingleFamily,2018,2006,9147,1450,2.5,3,157829,Winston-Salem,city
6844004647000,3309 Heitman Dr,27107,Winston Salem,NC,36.053779,-80.216353,37067,SingleFamily,2018,1949,8276,1125,1.0,4,31990,Easton,neighborhood
6807022172000,2635 Leighswood Dr,27106,Winston Salem,NC,36.138749,-80.353668,37067,SingleFamily,2018,2016,10019,3209,3.0,3,250853,Winston-Salem,city
6837882863000,1227 Motor Rd,27105,Winston Salem,NC,36.158527,-80.225299,37067,SingleFamily,2018,1930,10018,1153,1.0,3,49411,Northview,neighborhood
6844307110000,3551 Thomasville Rd,27107,Winston Salem,NC,36.052323,-80.205289,37067,SingleFamily,2018,1947,28314,749,1.0,2,32881,Winston-Salem,city
6865221413000,208 Maynard Dr,27107,Winston Salem,NC,36.086789,-80.143531,37067,SingleFamily,2018,1939,13939,900,1.0,3,51739,Winston-Salem,city
6864588799000,489 Mikala Dr,27107,Winston Salem,NC,36.076915,-80.130629,37067,SingleFamily,2018,2002,11761,1946,2.5,3,,Winston-Salem,city
6843979737000,3016 Greene Cross Ct,27107,Winston Salem,NC,36.0461,-80.184209,37067,SingleFamily,2018,1999,46609,2030,2.0,3,205768,Winston-Salem,city
5895416879000,5648 Phillips Bridge Rd,27104,Winston Salem,NC,36.083022,-80.371717,37067,SingleFamily,2018,1974,131115,2892,3.5,4,295166,Winston-Salem,city
6829524774000,5325 Gyddie Dr,27105,Winston Salem,NC,36.196291,-80.269245,37067,SingleFamily,2018,1995,13068,1798,2.5,3,162252,Angel Oaks,neighborhood
6814982351000,1254 Wedgewood Dr,27103,Winston Salem,NC,36.074018,-80.288399,37067,SingleFamily,2018,1958,14810,2807,3.0,4,169937,Ardmore,neighborhood
6826225770000,906 Oaklawn Ave,27104,Winston Salem,NC,36.113607,-80.277781,37067,SingleFamily,2018,1954,18730,2291,3.0,3,285975,Buena Vista,neighborhood
6813916958000,4128 Kennison Village Dr,27127,Winston Salem,NC,36.029213,-80.286296,37067,SingleFamily,2018,2004,13068,1233,2.0,3,127285,Janita Lakes Estates,neighborhood
6854483295000,180 Martindale Rd,27107,Winston Salem,NC,36.075058,-80.169473,37067,SingleFamily,2018,2002,9147,1150,2.0,3,117095,Winston-Salem,city
6803241928000,2650 Chatfield Dr,27103,Winston Salem,NC,36.036803,-80.345734,37067,SingleFamily,2018,2005,9583,2200,2.5,4,183521,Edgewood Farms,neighborhood
6823541664000,2209 Waverly Dell Dr,27127,Winston Salem,NC,36.036691,-80.2678,37067,SingleFamily,2018,2012,10018,2067,2.5,3,178366,Winston-Salem,city
6812522655000,3220 Farm Bell Ln,27127,Winston Salem,NC,36.003433,-80.300797,37067,SingleFamily,2018,2017,9147,1968,2.5,3,220197,Winston-Salem,city
6804067303000,4855 Kester Mill Ct,27103,Winston Salem,NC,36.067817,-80.351309,37067,SingleFamily,2018,1935,1392613,1608,1.0,3,201809,Winston-Salem,city
6864491452000,4191 Acorn Ln,27107,Winston Salem,NC,36.078598,-80.136507,37067,SingleFamily,2018,2005,11325,1528,2.0,3,,Winston-Salem,city
6833147570000,40 Avondale St,27127,Winston Salem,NC,36.036535,-80.245497,37067,SingleFamily,2018,1996,6098,1040,2.0,3,90148,South View,neighborhood
5897997391000,4412 Lochurst Dr,27040,Pfafftown,NC,36.158469,-80.355657,37067,SingleFamily,2018,1992,20037,2668,2.5,4,306205,Lochhurst,neighborhood
6805744617000,209 Staffordshire Rd,27104,Winston Salem,NC,36.091102,-80.328756,37067,SingleFamily,2018,1974,16117,2152,3.0,5,298645,Peace Haven,neighborhood
6823997911000,911 Elmhurst St,27127,Winston Salem,NC,36.051322,-80.252611,37067,SingleFamily,2018,2006,6534,1092,2.0,3,94149,Konnoak,neighborhood
6817981698000,5687 Chancellorsville Dr,27106,Winston Salem,NC,36.157465,-80.289917,37067,SingleFamily,2018,1972,11761,1250,1.5,3,100029,Stonewall,neighborhood
6818413205000,5025 Hutchins St,27106,Winston Salem,NC,36.164338,-80.306595,37067,SingleFamily,2018,1986,13504,2029,3.0,3,170236,Poman Acres,neighborhood
6824187362000,2344 Cherokee Ln,27103,Winston Salem,NC,36.074129,-80.279917,37067,SingleFamily,2018,1955,11761,1310,1.5,3,148331,Ardmore,neighborhood
6805571890000,94 Shadylawn Dr,27104,Winston Salem,NC,36.099639,-80.336355,37067,SingleFamily,2018,1995,15246,2490,4.0,3,262344,Winston-Salem,city
5893831432000,4425 Winterberry Ridge Ct,27103,Winston Salem,NC,36.032336,-80.359227,37067,SingleFamily,2018,1999,11761,2408,4.5,4,316500,Clemmons,city
6865115367000,224 Williamsgate Ct,27107,Winston Salem,NC,36.083852,-80.145341,37067,SingleFamily,2018,2000,6969,1216,2.0,3,134130,Winston-Salem,city
6807385384000,4137 Benton Creek Dr,27106,Winston Salem,NC,36.155926,-80.342748,37067,SingleFamily,2018,1991,17424,1886,2.5,3,216836,Baycreek,neighborhood
6834147388000,410 Cloister Dr,27127,Winston Salem,NC,36.063679,-80.245822,37067,SingleFamily,2018,1956,14810,1350,1.0,3,119012,Konnoak,neighborhood
6826555013000,2632 Arbor Place Ct,27104,Winston Salem,NC,36.12024,-80.267954,37067,SingleFamily,2018,2012,11325,3280,4.0,3,631556,Winston-Salem,city
6838307973000,4728 Starmount Dr,27105,Winston Salem,NC,36.164153,-80.240664,37067,SingleFamily,2018,1964,20037,1326,2.0,3,104631,Mineral Springs,neighborhood
6808030187000,4695 Duffer Ln,27040,Pfafftown,NC,36.169096,-80.354785,37067,SingleFamily,2018,1969,23958,1904,2.0,3,195758,Winston-Salem,city
6816611784000,847 Shoreland Rd,27106,Winston Salem,NC,36.110787,-80.299399,37067,SingleFamily,2018,1954,17859,1661,2.0,3,257148,Buena Vista,neighborhood
6813997291000,3553 Ebert Rd,27127,Winston Salem,NC,36.049035,-80.286131,37067,SingleFamily,2018,1956,55756,1498,2.0,3,184594,Cross Winds,neighborhood
6809805081000,2185 Widgeon Ct,27106,Winston Salem,NC,36.188199,-80.326394,37067,SingleFamily,2018,1973,18295,2020,3.0,3,138462,Mallard Lakes,neighborhood
6875528515000,1371 E Sprague St,27107,Winston Salem,NC,36.066423,-80.208293,37067,SingleFamily,2018,1928,6534,1272,1.0,2,37447,Waughtown,neighborhood
6875528515000,1371 Robbins Rd,27107,Winston Salem,NC,36.013157,-80.155479,37057,SingleFamily,2018,1987,54450,1428,2.0,3,37447,Waughtown,neighborhood
6875528515000,1371 Reynolds Forest Dr,27107,Winston Salem,NC,36.077467,-80.191158,37067,SingleFamily,2018,1999,25264,1432,3.5,4,37447,Waughtown,neighborhood
6803105502000,2968 S Stratford Rd,27103,Winston Salem,NC,36.024514,-80.347647,37067,SingleFamily,2018,1949,23086,942,2.0,3,69577,Winston-Salem,city
6827426794000,1717 Brookwood Dr,27106,Winston Salem,NC,36.141352,-80.271043,37067,SingleFamily,2018,1952,13068,1161,1.0,3,104887,Brookwood,neighborhood
6807849686000,3510 Old Pfafftown Rd,27106,Winston Salem,NC,36.146033,-80.324317,37067,SingleFamily,2018,1996,23345,3140,3.5,4,439240,Greenbrier Farms,neighborhood
6846978419000,3360 Beeson Acres Rd,27105,Winston Salem,NC,36.12774,-80.185758,37067,SingleFamily,2018,1999,9583,1320,2.0,3,144330,Winston-Salem,city
6828923243000,371 Azalea Dr,27105,Winston Salem,NC,36.167509,-80.255698,37067,SingleFamily,2018,2014,8276,1760,2.1,4,150139,Winston-Salem,city
6838413707000,5416 Helen Ave,27105,Winston Salem,NC,36.166512,-80.238932,37067,SingleFamily,2018,1926,20037,1100,2.0,3,62995,Mineral Springs,neighborhood
6838413707000,5416 Helen Ave,27105,Winston Salem,NC,36.166512,-80.238932,37067,SingleFamily,2018,1926,20037,1100,2.0,3,62995,Mineral Springs,neighborhood
6815249291000,129 Harper St,27104,Winston Salem,NC,36.090007,-80.30985,37067,SingleFamily,2018,1935,11325,1139,1.0,2,,South Fork,neighborhood
6815249291000,129 Harper St,27104,Winston Salem,NC,36.090007,-80.30985,37067,SingleFamily,2018,1935,6534,1139,1.0,2,,South Fork,neighborhood
6864966867000,637 Nottinghill Dr,27107,Winston Salem,NC,36.071751,-80.117741,37067,SingleFamily,2018,1990,20037,1630,2.0,3,181130,Winston-Salem,city
6824685844000,1181 Lamont Dr,27103,Winston Salem,NC,36.075749,-80.263738,37067,SingleFamily,2018,1988,10890,1390,2.0,3,169459,Ardmore,neighborhood
6806510971000,120 Hillstone Ct,27106,Winston Salem,NC,36.110872,-80.33695,37067,SingleFamily,2018,1994,18730,3224,2.5,4,395847,New Sherwood Forest,neighborhood
6808908435000,5509 Winona St,27106,Winston Salem,NC,36.161924,-80.321721,37067,SingleFamily,2018,1960,35719,1679,1.0,3,122189,Georgetown,neighborhood
6829806815000,5645 Plantation Dr,27105,Winston Salem,NC,36.191203,-80.258538,37067,SingleFamily,2018,1954,20037,1300,3.0,3,101027,Plantation Homes,neighborhood
6833460889000,3668 Cornell Blvd,27107,Winston Salem,NC,36.043173,-80.237729,37067,SingleFamily,2018,1948,10890,912,1.0,3,52903,Weston,neighborhood
6837977082000,4465 Stowe St,27105,Winston Salem,NC,36.15356,-80.22013,37067,Mobile,2018,2004,16988,1404,2.0,3,75665,Ogburn Station,neighborhood
6863282194000,4325 Compton Dr,27107,Winston Salem,NC,36.047407,-80.142509,37067,SingleFamily,2018,1969,20908,1614,2.0,3,,Winston-Salem,city
6863282194000,4325 Compton Dr,27107,Winston Salem,NC,36.047407,-80.142509,37067,SingleFamily,2018,1969,20908,1614,2.0,3,,Winston-Salem,city
6856080986000,3736 Beeson Dairy Rd,27105,Winston Salem,NC,36.131766,-80.184972,37067,SingleFamily,2018,1963,54014,3190,3.0,4,193601,Winston-Salem,city
6856138039000,4335 Buck Chase Ct,27101,Winston Salem,NC,36.115755,-80.178701,37067,SingleFamily,2018,2002,25700,1500,2.0,3,151634,Winston-Salem,city
5893725505000,5908 Cottonwood Ln,27103,Winston Salem,NC,36.02996,-80.361291,37067,SingleFamily,2018,1992,11761,1546,2.0,2,174429,Clemmons,city
6835897061000,814 N Cameron Ave,27101,Winston Salem,NC,36.104068,-80.222846,37067,SingleFamily,2018,1942,7405,1899,1.5,4,,Reynoldstown,neighborhood
6865335652000,4219 Orvil Ln,27107,Winston Salem,NC,36.090114,-80.138695,37067,SingleFamily,2018,1959,23958,1161,1.0,3,130402,Garden View,neighborhood
6845626987000,1042 Shalimar Dr,27107,Winston Salem,NC,36.087771,-80.195767,37067,SingleFamily,2018,1968,13939,900,1.0,3,92113,Shalimar,neighborhood
6845712897000,2740 Reynolds Park Rd,27107,Winston Salem,NC,36.084763,-80.193672,37067,SingleFamily,2018,1977,18295,1260,2.0,3,128107,Reynolda Forest,neighborhood
