REID,street,zipcode,city,state,latitude,longitude,FIPScounty,useCode,taxAssessmentYear,yearBuilt,lotSizeSqFt,finishedSqFt,bathrooms,bedrooms,zestimate,name,type
6824570387000,1310 Watson Ave,27103,Winston Salem,NC,36.071622,-80.268624,37067,SingleFamily,2018,1961,30056,2704,4.0,4,284638,Ardmore,neighborhood
6813809366000,4210 Sabrina Lake Rd,27127,Winston Salem,NC,36.024617,-80.288603,37067,SingleFamily,2018,2006,555390,15550,1.0,3,,Winston-Salem,city
6804824341000,2755 Farmbrook Rd,27103,Winston Salem,NC,36.057126,-80.324688,37067,SingleFamily,2018,1971,22215,1740,2.0,3,194458,Atwood Acres,neighborhood
6824849293000,945 Anne Ave,27127,Winston Salem,NC,36.063164,-80.255252,37067,SingleFamily,2018,1956,14374,1546,3.0,4,109891,Konnoak,neighborhood
6818640090000,5417 Shattalon Dr,27106,Winston Salem,NC,36.171963,-80.300927,37067,SingleFamily,2018,1947,33105,960,1.0,2,96246,Winston-Salem,city
6828609498000,103 Granada Ct,27105,Winston Salem,NC,36.162689,-80.26352,37067,SingleFamily,2018,1956,22215,1875,2.0,3,133298,Hunter Hills,neighborhood
5896495427000,2286 Olivet Church Rd,27106,Winston Salem,NC,36.13121,-80.373078,37067,SingleFamily,2018,1961,65340,2420,2.0,3,194128,Winston-Salem,city
6819513992000,1128 Tommys Lake Rd,27105,Winston Salem,NC,36.193728,-80.304245,37067,SingleFamily,2018,1978,21780,1246,2.0,3,151266,Swink Acres,neighborhood
6817619554000,2639 Wyman Rd,27106,Winston Salem,NC,36.137767,-80.297211,37067,SingleFamily,2018,1973,12196,1563,1.5,3,143422,Town and Country Estates,neighborhood
6824165139000,2343 Kaywood Ln,27103,Winston Salem,NC,36.068201,-80.280062,37067,SingleFamily,2018,1965,10018,1500,2.0,3,141654,Aldbrige,neighborhood
6824165139000,2343 Kaywood Ln,27103,Winston Salem,NC,36.068201,-80.280062,,SingleFamily,2018,1965,10018,1418,2.0,3,141654,Aldbrige,neighborhood
6816220265000,3400 Paddington Ln,27106,Winston Salem,NC,36.11205,-80.313314,37067,SingleFamily,2018,1960,19166,2623,3.0,3,300463,Robinhood Trails,neighborhood
6837687347000,209 Quail Dr,27105,Winston Salem,NC,36.157236,-80.230508,37067,SingleFamily,2018,1961,29185,1276,1.0,3,66395,Mineral Springs,neighborhood
6826040271000,1014 Vernon Ave,27106,Winston Salem,NC,36.11772,-80.286302,37067,SingleFamily,2018,1951,11325,1945,2.0,3,310090,Reynolda,neighborhood
6836828527000,1426 N Cameron Ave,27105,Winston Salem,NC,36.113931,-80.222778,37067,SingleFamily,2018,1940,4356,1014,1.0,3,30596,North East Winston,neighborhood
6809114396000,5665 Greenhill Dr,27040,Pfafftown,NC,36.191631,-80.350453,37067,SingleFamily,2018,1969,30056,1963,2.0,3,226043,Winston-Salem,city
6818745320000,5488 Becks Church Rd,27106,Winston Salem,NC,36.172823,-80.295825,37067,SingleFamily,2018,1951,58370,948,1.0,2,80079,Winston-Salem,city
6838617209000,120 Knott St,27105,Winston Salem,NC,36.165212,-80.230716,37067,SingleFamily,2018,1964,24393,1170,2.0,3,,Mineral Springs,neighborhood
6804506437000,429 Hollinswood Ave,27103,Winston Salem,NC,36.052003,-80.334119,37067,SingleFamily,2018,1991,15246,3157,4.0,3,312518,Ashford,neighborhood
6817031304000,4360 Witherow Rd,27106,Winston Salem,NC,36.142476,-80.320516,37067,SingleFamily,2018,1969,14810,1943,3.0,5,194238,Town and Country Estates,neighborhood
6812818262000,394 Quick Silver Dr,27127,Winston Salem,NC,35.999626,-80.288518,37067,SingleFamily,2018,2006,10454,2172,2.5,3,226140,Winston-Salem,city
6845426832000,2506 Reynolds Park Rd,27107,Winston Salem,NC,36.087274,-80.202722,37067,SingleFamily,2018,1958,25264,1316,1.5,2,62684,Winston-Salem,city
6804326379000,1130 Edenwood Dr,27103,Winston Salem,NC,36.057212,-80.340836,37067,SingleFamily,2018,1974,12196,1605,2.0,3,153413,Salem Woods,neighborhood
6807591440000,3938 Leinbach Dr,27106,Winston Salem,NC,36.158944,-80.337566,37067,SingleFamily,2018,1997,21780,1832,2.0,3,196686,Cedar Forest,neighborhood
6838818629000,1410 Winfield Dr,27105,Winston Salem,NC,36.166402,-80.223546,37067,SingleFamily,2018,1953,23958,900,1.0,2,28937,Mineral Springs,neighborhood
6818738896000,4220 James St,27106,Winston Salem,NC,36.171606,-80.29456,37067,SingleFamily,2018,1957,29185,1516,1.5,3,122954,Winston-Salem,city
6824151176000,2440 Ardmore Mnr,27103,Winston Salem,NC,36.065395,-80.281769,37067,SingleFamily,2018,1958,15681,1431,2.0,3,163116,Aldbrige,neighborhood
6805102196000,4915 Gladwyn Dr,27104,Winston Salem,NC,36.078428,-80.349374,37067,SingleFamily,2018,1975,29620,1631,2.0,3,177667,South Peace Haven,neighborhood
6815405021000,3237 Arlington Dr,27103,Winston Salem,NC,36.078502,-80.304489,37067,SingleFamily,2018,1950,15681,1962,2.0,3,124703,Old Vineyard,neighborhood
6805141695000,265 Natalie Dr,27104,Winston Salem,NC,36.090776,-80.349821,37067,SingleFamily,2018,1976,19166,2378,3.0,3,223466,Rollinghills,neighborhood
6833589120000,626 Clemson Cir,27107,Winston Salem,NC,36.046567,-80.23156,37067,SingleFamily,2018,1948,6969,1056,1.0,3,83894,Weston,neighborhood
6833139438000,4304 S Main St,27127,Winston Salem,NC,36.033747,-80.244849,37067,SingleFamily,2018,1936,48351,1866,2.0,4,,South View,neighborhood
6813792335000,2699 Nantucket Dr,27103,Winston Salem,NC,36.049335,-80.294824,37067,SingleFamily,2018,1971,38768,1927,3.0,4,,Mountain Brook,neighborhood
6813792335000,2699 Nantucket Dr,27103,Winston Salem,NC,36.049335,-80.294824,37067,SingleFamily,2018,1971,38768,1927,3.0,4,,Mountain Brook,neighborhood
6816023766000,3501 York Rd,27104,Winston Salem,NC,36.113407,-80.319108,37067,SingleFamily,2018,1965,24393,2699,3.0,4,298765,New Forestdale,neighborhood
6815060283000,320 Kyle Rd,27104,Winston Salem,NC,36.095455,-80.319791,37067,SingleFamily,2018,1970,20908,2023,3.0,3,184088,South Fork,neighborhood
6818409885000,2303 Hutchins St,27106,Winston Salem,NC,36.163258,-80.304257,37067,SingleFamily,2018,2007,22216,1300,2.0,3,144381,Poman Acres,neighborhood
6845261074000,2242 E 1st St,27101,Winston Salem,NC,36.095996,-80.211196,37067,SingleFamily,2018,1963,11761,950,1.0,3,50146,Winston-Salem,city
6815335728000,328 Keating Dr,27104,Winston Salem,NC,36.088762,-80.308215,37067,SingleFamily,2018,1940,18295,1660,2.0,3,168006,Country Club,neighborhood
6815335728000,328 Keating Dr,27104,Winston Salem,NC,36.088762,-80.308215,37067,SingleFamily,2018,1940,1742,1660,2.0,3,168006,Country Club,neighborhood
6803662735000,1749 Huntington Woods Ct,27103,Winston Salem,NC,36.041829,-80.331901,37067,SingleFamily,2018,1989,21780,3192,3.5,4,331774,Huntington Woods,neighborhood
6824389425000,1236 Irving St,27103,Winston Salem,NC,36.074571,-80.272576,37067,SingleFamily,2018,1950,11325,1500,2.0,3,177820,Ardmore,neighborhood
6826423956000,1057 Van Hoy Ave,27104,Winston Salem,NC,36.11448,-80.271668,37067,SingleFamily,2018,1949,15681,3215,4.0,5,672686,Reynolda Park,neighborhood
6823553134000,3250 Trenchard Ln,27127,Winston Salem,NC,36.038071,-80.267256,37067,SingleFamily,2018,2003,10018,1152,2.0,3,137994,Winston-Salem,city
6832511174000,5244 Jean Dr,27107,Winston Salem,NC,35.999936,-80.233386,37067,SingleFamily,2018,1959,21780,1540,1.5,3,120786,Winston-Salem,city
6824577893000,1883 Deborah Ln,27103,Winston Salem,NC,36.072922,-80.266249,37067,SingleFamily,2018,1967,8712,1076,1.0,3,141334,Ardmore,neighborhood
6847110868000,3826 Draper St,27105,Winston Salem,NC,36.139517,-80.215573,37067,SingleFamily,2018,1972,10454,1328,1.5,3,113411,Northwoods Estate,neighborhood
5895549812000,5550 Country Club Rd,27104,Winston Salem,NC,36.090785,-80.368331,37067,SingleFamily,2018,1954,1975446,1212,1.5,2,189892,Winston-Salem,city
6815928938000,488 Knollwood St,27103,Winston Salem,NC,36.086878,-80.286637,37067,SingleFamily,2018,1950,10454,1465,1.0,3,192901,Knollwood Manor,neighborhood
6815665044000,201 Pennsylvania Ave,27104,Winston Salem,NC,36.095119,-80.297913,37067,SingleFamily,2018,1950,19602,2000,2.0,3,264888,Country Club,neighborhood
6804839798000,2920 Carrollwood Dr,27103,Winston Salem,NC,36.061233,-80.322824,37067,SingleFamily,2018,1971,21344,1670,2.0,3,172254,Atwood Acres,neighborhood
6832625195000,5215 Mount Hope Dr,27107,Winston Salem,NC,36.002805,-80.228625,37067,SingleFamily,2018,2006,7840,1238,2.0,3,144394,Winston-Salem,city
6823305172000,148 Tortoise Ln,27127,Winston Salem,NC,36.024224,-80.272987,37067,SingleFamily,2018,1999,22651,1688,2.0,3,173609,Winston-Salem,city
6804692784000,107 Araminta Dr,27104,Winston Salem,NC,36.077492,-80.332351,37067,SingleFamily,2018,1965,24393,1247,2.0,3,137989,Winston-Salem,city
6824072123000,2551 Silas Creek Pkwy,27103,Winston Salem,NC,36.070787,-80.285032,37067,SingleFamily,2018,1966,128502,3304,3.0,5,317555,Ardmore,neighborhood
6836922740000,1442 Shady Mount Ave,27105,Winston Salem,NC,36.114251,-80.221437,37067,SingleFamily,2018,1957,6969,1073,1.0,3,32020,North East Winston,neighborhood
5895239008000,770 Wimbledon Dr,27104,Winston Salem,NC,36.086178,-80.377694,37067,SingleFamily,2018,1977,21344,1764,2.0,3,198199,Winston-Salem,city
6826027214000,815 N Avalon Rd,27104,Winston Salem,NC,36.112364,-80.284058,37067,SingleFamily,2018,1974,24393,1819,2.0,3,308449,Buena Vista,neighborhood
6832892105000,4250 Mae Len Dr,27107,Winston Salem,NC,36.022049,-80.223491,37067,SingleFamily,2018,1972,20473,1017,1.5,2,121307,Winston-Salem,city
6822414752000,3170 Old Salisbury Rd,27127,Winston Salem,NC,36.001161,-80.269609,37067,SingleFamily,2018,1940,47916,1653,1.0,3,139225,Winston-Salem,city
6824035048000,1904 Ebert Rd,27103,Winston Salem,NC,36.059789,-80.283917,37067,SingleFamily,2018,1955,70131,1086,1.0,3,114294,British Woods,neighborhood
6845639592000,1031 Treadway Ct,27107,Winston Salem,NC,36.089307,-80.194692,37067,SingleFamily,2018,1965,21344,1335,1.5,3,127413,Shalimar,neighborhood
5893785376000,312 Cutty Sark Rd,27103,Winston Salem,NC,36.0459,-80.361295,37067,SingleFamily,2018,1987,18150,2350,2.0,3,240999,McGregor Downs,neighborhood
6818433108000,5120 Hutchins St,27106,Winston Salem,NC,36.169638,-80.306719,37067,SingleFamily,2018,1985,14374,1242,2.0,3,138455,Poman Acres,neighborhood
6834122117000,504 Weisner St,27127,Winston Salem,NC,36.057604,-80.247653,37067,SingleFamily,2018,1959,13068,1666,1.5,3,136886,Konnoak,neighborhood
5893272710000,2947 Parkhurst Dr,27103,Winston Salem,NC,36.043917,-80.379433,37067,SingleFamily,2018,1959,13939,1176,1.0,3,131104,Clemmons,city
6824253629000,1103 Oak Grove Rd,27103,Winston Salem,NC,36.066938,-80.277873,37067,SingleFamily,2018,1963,16552,1161,2.0,3,142645,Aldbrige,neighborhood
6824579523000,1317 Tredwell Dr,27103,Winston Salem,NC,36.072115,-80.265799,37067,SingleFamily,2018,1967,7405,1028,1.0,3,144702,Ardmore,neighborhood
6806924651000,3369 Sally Kirk Rd,27106,Winston Salem,NC,36.112927,-80.322168,37067,SingleFamily,2018,1988,23958,3367,3.5,5,459290,Huntscroft,neighborhood
6816638273000,980 Wellington Rd,27106,Winston Salem,NC,36.114911,-80.297116,37067,SingleFamily,2018,1956,20908,3577,3.0,4,525718,Merrimont,neighborhood
6816638864000,1030 Wellington Rd,27106,Winston Salem,NC,36.116629,-80.297151,37067,SingleFamily,2018,1957,20908,2935,3.5,4,556861,Merrimont,neighborhood
5896738335000,4920 Century Oaks Ln,27106,Winston Salem,NC,36.114601,-80.361543,37067,SingleFamily,2018,1998,22651,3001,4.0,4,433558,Winston-Salem,city
6856086189000,3814 Crickett Ln,27105,Winston Salem,NC,36.12971,-80.18289,37067,SingleFamily,2018,1978,21780,1381,2.0,3,144348,Winston-Salem,city
6815458807000,160 Mayfield Rd,27104,Winston Salem,NC,36.094646,-80.303785,37067,SingleFamily,2018,1964,13504,1369,2.0,3,233902,Country Club,neighborhood
5894895261000,5201 Ivystone Ln,27104,Winston Salem,NC,36.075738,-80.358452,37067,SingleFamily,2018,2001,14374,1662,2.5,3,191487,Breckingridge,neighborhood
6804023420000,5025 Romara Dr,27103,Winston Salem,NC,36.057022,-80.35229,37067,SingleFamily,2018,1940,40075,1900,3.0,3,175291,Winston-Salem,city
5897884795000,4631 Peter Pfaff Dr,27040,Pfafftown,NC,36.156863,-80.360034,37067,SingleFamily,2018,2003,9147,1839,2.5,3,223050,Lochhurst,neighborhood
6832632902000,5052 S Main St,27107,Winston Salem,NC,36.007605,-80.23003,37067,SingleFamily,2018,1969,40075,2001,2.0,3,199600,Winston-Salem,city
6846749454000,3150 Kittering Ln,27105,Winston Salem,NC,36.119296,-80.191952,37067,SingleFamily,2018,1978,43995,2572,3.5,5,248560,Castleshine Woods,neighborhood
6838608397000,5109 Old Rural Hall Rd,27105,Winston Salem,NC,36.162678,-80.230065,37067,SingleFamily,2018,1920,32234,874,1.0,2,20832,Mineral Springs,neighborhood
6832251323000,4895 Follansbee Rd,27127,Winston Salem,NC,36.011333,-80.243877,37067,SingleFamily,2018,1965,40075,1711,2.0,3,142588,Winston-Salem,city
6815247442000,118 Harper St,27104,Winston Salem,NC,36.090598,-80.310701,37067,SingleFamily,2018,1940,16988,1168,1.0,3,47090,South Fork,neighborhood
6845642039000,980 Shalimar Dr,27107,Winston Salem,NC,36.090837,-80.197331,37067,SingleFamily,2018,1980,12632,1206,2.0,3,120894,Shalimar,neighborhood
6837187831000,527 Motor Rd,27105,Winston Salem,NC,36.158056,-80.247453,37067,SingleFamily,2018,1953,27878,1040,1.0,3,80514,Mineral Springs,neighborhood
6833137385000,4325 Charleston Dr,27127,Winston Salem,NC,36.033377,-80.245377,37067,SingleFamily,2018,1954,21344,1152,1.0,3,106735,South View,neighborhood
6833469898000,3647 Yale Ave,27107,Winston Salem,NC,36.043201,-80.234661,37067,SingleFamily,2018,1948,7840,1110,2.0,3,71140,Weston,neighborhood
6833176692000,3631 Hastings Ave,27127,Winston Salem,NC,36.045065,-80.246085,37067,SingleFamily,2018,1949,40946,1152,2.0,2,110377,Union Ridge,neighborhood
6838629752000,5357 Pineview Dr,27105,Winston Salem,NC,36.169158,-80.229975,37067,SingleFamily,2018,1956,24829,1224,1.0,3,90132,Winston-Salem,city
6805659350000,274 Stanaford Rd,27104,Winston Salem,NC,36.092783,-80.330339,37067,SingleFamily,2018,1972,15246,2758,3.0,3,299551,Peace Haven,neighborhood
6823336937000,2340 Old Salisbury Rd,27127,Winston Salem,NC,36.034788,-80.272956,37067,SingleFamily,2018,1951,20037,1392,1.0,2,124371,Winston-Salem,city
6817431619000,3134 Waterford Rd,27106,Winston Salem,NC,36.143542,-80.306908,37067,SingleFamily,2018,1965,35719,4406,4.0,5,328559,Town and Country Estates,neighborhood
5893746302000,4624 Woodsman Way,27103,Winston Salem,NC,36.034848,-80.360984,37067,SingleFamily,2018,1978,43560,1793,2.5,4,224529,Clemmons,city
5896782576000,2109 Storm Canyon Rd,27106,Winston Salem,NC,36.128892,-80.3637,37067,SingleFamily,2018,1975,20473,2085,2.0,4,206535,Winston-Salem,city
6846811524000,3812 Old Greensboro Rd,27101,Winston Salem,NC,36.11137,-80.191403,37067,SingleFamily,2018,1939,29185,847,1.0,2,39733,City View,neighborhood
6819246828000,1112 Village Oak Dr,27106,Winston Salem,NC,36.201718,-80.31291,37067,SingleFamily,2018,1981,20473,1520,3.0,3,170651,Winston-Salem,city
6812713757000,4805 Mischief Ct,27127,Winston Salem,NC,36.001086,-80.293671,37067,SingleFamily,2018,2004,14810,1136,2.0,3,139973,Winston-Salem,city
6813866076000,2044 Pope Rd,27127,Winston Salem,NC,36.04037,-80.28982,37067,SingleFamily,2018,1995,8276,1478,2.0,3,143073,Janita Lakes Estates,neighborhood
6849156900000,6497 Baux Mountain Rd,27105,Winston Salem,NC,36.205283,-80.214932,37067,SingleFamily,2018,1971,20037,1215,1.5,3,118747,Walkertown,city
6849156900000,6497 Baux Mountain Rd,27105,Winston Salem,NC,36.205283,-80.214932,37067,SingleFamily,2018,1971,22215,1215,1.5,3,118747,Walkertown,city
6827248589000,1229 Kress Dr,27106,Winston Salem,NC,36.146353,-80.277271,37067,SingleFamily,2018,1976,250,1450,3.0,3,150108,Brookwood,neighborhood
6822635503000,3096 Canterbury Park Dr,27127,Winston Salem,NC,36.006214,-80.262772,37067,SingleFamily,2018,2003,7840,1702,2.5,3,168873,Winston-Salem,city
6804524868000,335 Foxcroft Dr,27103,Winston Salem,NC,36.058617,-80.334802,37067,SingleFamily,2018,1968,11326,1242,2.0,3,121498,Salem Woods,neighborhood
6809945072000,1513 Turfwood Dr,27040,Pfafftown,NC,36.1992,-80.323182,37067,SingleFamily,2018,1971,31798,1901,3.0,4,165681,Winston-Salem,city
6823149910000,3945 Lois St,27127,Winston Salem,NC,36.037277,-80.278751,37067,SingleFamily,2018,1992,12196,1218,2.0,3,138224,Carriage Cove,neighborhood
6817228039000,836 Ransom Rd,27106,Winston Salem,NC,36.139111,-80.311193,37067,SingleFamily,2018,1959,20037,1568,1.5,3,144383,Winston-Salem,city
6826562754000,2804 Montclair Rd,27106,Winston Salem,NC,36.124821,-80.268827,37067,SingleFamily,2018,1963,20908,2965,3.0,4,296589,Winston-Salem,city
6827760774000,119 Melody Ln,27105,Winston Salem,NC,36.152382,-80.263151,37067,SingleFamily,2018,1931,49658,1584,2.0,4,,Retnuh Hills,neighborhood
6836054297000,2404 NW Collins St,27105,Winston Salem,NC,36.121,-80.251052,37067,SingleFamily,2018,1950,13503,1160,1.0,3,,Old Cherry,neighborhood
6846362075000,2533 Atlee St,27105,Winston Salem,NC,36.123593,-80.207837,37067,SingleFamily,2018,1959,9583,950,1.0,3,35885,Castle Heights,neighborhood
6806826366000,1231 Chester Rd,27104,Winston Salem,NC,36.112244,-80.324906,37067,SingleFamily,2018,1993,35283,3352,4.5,5,462616,Huntscroft,neighborhood
6808417990000,3977 Talcott Ave,27106,Winston Salem,NC,36.165802,-80.338844,37067,SingleFamily,2018,1995,13503,1063,2.0,3,142164,Cedar Forest,neighborhood
6838706315000,1126 Pleasant View Dr,27105,Winston Salem,NC,36.162613,-80.227565,37067,SingleFamily,2018,1930,21344,1392,1.0,3,39562,Northview,neighborhood
6815061008000,4103 Alonzo Dr,27104,Winston Salem,NC,36.094956,-80.319712,37067,SingleFamily,2018,1959,26136,1712,1.5,3,166651,South Fork,neighborhood
6822883783000,1451 Bridgton Rd,27127,Winston Salem,NC,36.020563,-80.256664,37067,SingleFamily,2018,1966,23958,1484,2.0,3,146446,Wilshire Estates,neighborhood
6846052918000,2531 Manchester St,27105,Winston Salem,NC,36.123274,-80.218208,37067,SingleFamily,2018,1927,7405,1216,1.0,4,32627,Bowen Park,neighborhood
6833162660000,3749 Clinard Ave,27127,Winston Salem,NC,36.042198,-80.247267,37067,SingleFamily,2018,1938,14374,1050,1.0,2,,Union Ridge,neighborhood
6805862352000,260 Gloucestershire Rd,27104,Winston Salem,NC,36.095625,-80.325995,37067,SingleFamily,2018,1977,20037,2784,3.5,5,361146,Peace Haven,neighborhood
6808006322000,3362 Grandview Club Rd,27040,Pfafftown,NC,36.161264,-80.35296,37067,SingleFamily,2018,1994,22215,3428,3.0,4,320364,Lochhurst,neighborhood
6808205384000,4715 Leinbach Dr,27106,Winston Salem,NC,36.161396,-80.346293,37067,SingleFamily,2018,1995,35719,2094,2.0,3,230155,Cedar Forest,neighborhood
6815010274000,4109 Sylvia St,27104,Winston Salem,NC,36.081728,-80.319571,37067,SingleFamily,2018,1960,30927,1911,1.5,3,167410,South Fork,neighborhood
6845593173000,3337 Old Greensboro Rd,27101,Winston Salem,NC,36.104643,-80.200542,37067,Mobile,2018,2000,45302,1998,2.0,4,115062,City View,neighborhood
6827947751000,200 Alspaugh Dr,27105,Winston Salem,NC,36.146849,-80.254019,37067,SingleFamily,2018,1938,15246,1017,1.0,2,39137,Forest Hills,neighborhood
6815017769000,359 S Gordon Dr,27104,Winston Salem,NC,36.083271,-80.317289,37067,SingleFamily,2018,1958,23958,1269,1.5,4,148848,South Fork,neighborhood
5893640903000,6070 Tumbleweed Trl,27103,Winston Salem,NC,36.036472,-80.366438,37067,SingleFamily,2018,1969,20473,1552,2.0,3,190344,Clemmons,city
6846366455000,3104 Carver School Rd,27105,Winston Salem,NC,36.124715,-80.206589,37067,SingleFamily,2018,1959,9583,950,1.0,3,34491,Castle Heights,neighborhood
6818199272000,5156 Cobblestone Rd,27106,Winston Salem,NC,36.186129,-80.314851,37067,SingleFamily,2018,1979,23086,1566,2.0,3,162283,Moravian Forest,neighborhood
6845591805000,566 Waterworks Rd,27101,Winston Salem,NC,36.106613,-80.20144,37067,SingleFamily,2018,1928,6098,1485,2.0,2,38452,Winston Lake Estates,neighborhood
6812940835000,4773 Audrey Dr,27127,Winston Salem,NC,36.009617,-80.288107,37067,SingleFamily,2018,2004,9147,1819,2.5,3,189249,Winston-Salem,city
6816122940000,3421 York Rd,27104,Winston Salem,NC,36.1138,-80.316164,37067,SingleFamily,2018,1965,23522,3327,4.0,5,347413,New Forestdale,neighborhood
6812628627000,4645 Beckel Ct,27127,Winston Salem,NC,36.003485,-80.295479,37067,SingleFamily,2018,2002,11761,1163,2.0,3,140388,Winston-Salem,city
6823242745000,1600 Caspian Way Ln,27127,Winston Salem,NC,36.036926,-80.277682,37067,SingleFamily,2018,1992,10890,1320,2.0,3,137269,Carriage Cove,neighborhood
6816638670000,1010 Wellington Rd,27106,Winston Salem,NC,36.115945,-80.297132,37067,SingleFamily,2018,1956,20908,4375,5.5,6,695775,Merrimont,neighborhood
6807596658000,3919 Leinbach Dr,27106,Winston Salem,NC,36.15968,-80.335809,37067,SingleFamily,2018,2017,19602,1788,2.0,3,170780,Cedar Forest,neighborhood
6826032297000,933 Vernon Ave,27106,Winston Salem,NC,36.115214,-80.285528,37067,SingleFamily,2018,1948,11325,1790,2.0,3,288075,Reynolda,neighborhood
6839202740000,756 Old Hollow Rd,27105,Winston Salem,NC,36.191001,-80.246388,37067,SingleFamily,2018,1939,37026,1368,1.0,3,,Winston-Salem,city
6829348064000,5788 Stanleyville Dr,27105,Rural Hall,NC,36.199841,-80.274855,37067,SingleFamily,2018,1937,34848,868,1.0,2,77812,Winston-Salem,city
6816314580000,3200 Blenheim Pl,27106,Winston Salem,NC,36.11003,-80.30853,37067,SingleFamily,2018,1969,32234,2562,3.0,5,373360,Robinhood Trails,neighborhood
6816132505000,3513 Brunswick Ct,27104,Winston Salem,NC,36.115604,-80.316337,37067,SingleFamily,2018,1978,16117,2803,2.5,4,278247,New Forestdale,neighborhood
6827149418000,1101 Cypress Cir,27106,Winston Salem,NC,36.146009,-80.280512,37067,SingleFamily,2018,1962,22035,9841,6.0,5,250098,Winston-Salem,city
6823597540000,1715 South St,27127,Winston Salem,NC,36.050065,-80.266011,37067,SingleFamily,2018,1967,3920,944,1.0,2,64917,Winston-Salem,city
6827415702000,1460 Brookwood Dr,27106,Winston Salem,NC,36.138506,-80.271626,37067,SingleFamily,2018,1962,18730,1400,1.5,3,134432,Brookwood,neighborhood
6827954289000,225 Marvin Blvd,27105,Winston Salem,NC,36.148524,-80.254919,37067,SingleFamily,2018,1951,8276,868,1.0,2,28849,Forest Hills,neighborhood
6845603881000,1403 Butler St,27107,Winston Salem,NC,36.081817,-80.196717,37067,SingleFamily,2018,1955,19166,1280,1.0,2,95585,Reynolda Forest,neighborhood
6815807833000,2810 Birchwood Dr,27103,Winston Salem,NC,36.080945,-80.290264,37067,SingleFamily,2018,1960,12632,1391,2.0,3,174693,Knollwood Manor,neighborhood
6846700036000,428 Wales St,27101,Winston Salem,NC,36.107275,-80.194861,37067,SingleFamily,2018,1925,7405,1056,1.0,2,36703,City View,neighborhood
6815814556000,2831 Foxwood Ln,27103,Winston Salem,NC,36.082945,-80.29125,37067,SingleFamily,2018,1962,12632,1930,1.5,3,180885,Knollwood Manor,neighborhood
6844156520000,1224 E Sprague St,27107,Winston Salem,NC,36.067168,-80.2128,37067,SingleFamily,2018,1940,21344,1088,1.5,3,86532,Waughtown,neighborhood
6806804669000,1065 N Peace Haven Rd,27104,Winston Salem,NC,36.107652,-80.325497,37067,SingleFamily,2018,1953,22215,1736,1.5,3,197788,Forestdale,neighborhood
6815401112000,1255 Fortune St,27103,Winston Salem,NC,36.07883,-80.30593,37067,SingleFamily,2018,1950,13939,1524,2.0,4,132017,Old Vineyard,neighborhood
6844005200000,1002 Nancy Ln,27107,Winston Salem,NC,36.052472,-80.216119,37067,SingleFamily,2018,1949,11761,750,1.0,2,22217,Easton,neighborhood
6846810412000,3800 Old Greensboro Rd,27101,Winston Salem,NC,36.111032,-80.191656,37067,SingleFamily,2018,1928,31887,810,1.0,2,,City View,neighborhood
6846810412000,3800 Old Greensboro Rd,27101,Winston Salem,NC,36.111043,-80.191604,,SingleFamily,2018,1928,31887,810,1.0,2,,City View,neighborhood
6833251130000,4048 S Main St,27127,Winston Salem,NC,36.038194,-80.244215,37067,SingleFamily,2018,1927,36154,1280,1.0,3,,Union Ridge,neighborhood
6827771790000,128 Athens Dr,27105,Winston Salem,NC,36.155018,-80.262776,37067,SingleFamily,2018,1962,16385,1859,2.0,3,134777,Retnuh Hills,neighborhood
6813644521000,2155 Dave St,27127,Winston Salem,NC,36.036002,-80.297373,37067,SingleFamily,2018,1989,12196,1968,3.0,3,161529,Briar Glen,neighborhood
6846276850000,2820 Raleigh Ave,27105,Winston Salem,NC,36.128357,-80.209977,37067,SingleFamily,2018,1959,12632,1062,2.0,3,40463,Castle Heights,neighborhood
6824908912000,3112 Fleet St,27127,Winston Salem,NC,36.054082,-80.252227,37067,SingleFamily,2018,1960,21780,1134,1.0,3,101865,Konnoak,neighborhood
6804546314000,125 Lorelei Ct,27103,Winston Salem,NC,36.062684,-80.334388,37067,SingleFamily,2018,1969,10890,1071,1.0,3,127775,Salem Woods,neighborhood
6838641172000,1007 Curtis Dr,27105,Winston Salem,NC,36.172925,-80.232636,37067,SingleFamily,2018,1940,12196,806,1.0,2,44262,Winston-Salem,city
6814811823000,2260 New Castle Dr,27103,Winston Salem,NC,36.056192,-80.291917,37067,SingleFamily,2018,1972,15681,1648,2.0,3,157478,British Woods,neighborhood
6815186202000,3440 Kirklees Rd,27104,Winston Salem,NC,36.100992,-80.314703,37067,SingleFamily,2018,1966,27007,2376,2.5,4,296782,Old Sherwood Forest,neighborhood
6822487686000,1695 Heather Trace Ln,27127,Winston Salem,NC,36.020276,-80.268853,37067,SingleFamily,2018,2006,9147,1869,2.5,3,181640,Winston-Salem,city
6833056779000,3760 Wyandotte Ave,27127,Winston Salem,NC,36.04005,-80.249179,37067,SingleFamily,2018,1950,26571,1932,2.0,3,140668,Union Ridge,neighborhood
6808121932000,3601 Grandview Club Rd,27040,Pfafftown,NC,36.168484,-80.351322,37067,SingleFamily,2018,1965,24393,3789,4.0,5,199383,Winston-Salem,city
5893804848000,3140 S Stratford Rd,27103,Winston Salem,NC,36.025372,-80.357982,37067,SingleFamily,2018,1950,20908,1056,1.0,3,88913,Clemmons,city
6815066161000,350 N Gordon Dr,27104,Winston Salem,NC,36.09516,-80.317775,37067,SingleFamily,2018,1991,21780,3021,3.0,4,339120,South Fork,neighborhood
6812643082000,1990 Denise Ln,27127,Winston Salem,NC,36.007209,-80.297023,37067,SingleFamily,2018,2003,12632,1408,2.0,3,172335,Winston-Salem,city
6807596202000,3835 Velinda Dr,27106,Winston Salem,NC,36.158404,-80.335981,37067,SingleFamily,2018,1998,14375,1489,2.0,3,178874,Cedar Forest,neighborhood
6843097915000,1011 Betty Dr,27107,Winston Salem,NC,36.051811,-80.215417,37067,SingleFamily,2018,1949,11761,1460,1.0,3,,Easton,neighborhood
6807399204000,4015 Velinda Dr,27106,Winston Salem,NC,36.15841,-80.341764,37067,SingleFamily,2018,1995,14374,1922,2.0,3,214095,Cedar Forest,neighborhood
6808033276000,4705 Duffer Ln,27040,Pfafftown,NC,36.169354,-80.353894,37067,SingleFamily,2018,1967,23522,1981,2.0,3,183617,Winston-Salem,city
6823216584000,2624 Old Salisbury Rd,27127,Winston Salem,NC,36.028088,-80.276025,37067,SingleFamily,2018,1953,58370,710,1.0,3,135742,Winston-Salem,city
6826032396000,939 Vernon Ave,27106,Winston Salem,NC,36.115352,-80.285537,37067,SingleFamily,2018,1948,15246,2098,2.5,3,376746,Reynolda,neighborhood
5894830304000,199 Wexham Rd,27103,Winston Salem,NC,36.059589,-80.360052,37067,SingleFamily,2018,1995,20908,3250,3.0,3,291034,Hunters Ridge,neighborhood
6813699750000,2661 Nantucket Dr,27103,Winston Salem,NC,36.050308,-80.295838,37067,SingleFamily,2018,1972,14853,2352,2.0,3,170408,Mountain Brook,neighborhood
6834129054000,3020 Marmion St,27127,Winston Salem,NC,36.057143,-80.24516,37067,SingleFamily,2018,1951,21780,1410,1.0,3,123676,Konnoak,neighborhood
5896932302000,4950 Shady Maple Ln,27106,Winston Salem,NC,36.114536,-80.356931,37067,SingleFamily,2018,1999,14810,3339,4.0,4,408939,Winston-Salem,city
6816640869000,2510 Merrimont Dr,27106,Winston Salem,NC,36.119468,-80.299939,37067,SingleFamily,2018,1967,15246,2332,2.0,4,249429,Merrimont Hills,neighborhood
6812736871000,2366 Joshua Ln,27127,Winston Salem,NC,36.006691,-80.292661,37067,SingleFamily,2018,2003,10454,1234,2.5,4,167605,Winston-Salem,city
5896947359000,136 Brooks Landing Dr,27106,Winston Salem,NC,36.117439,-80.355044,37067,SingleFamily,2018,2002,10018,1979,2.0,3,246128,Winston-Salem,city
6804318970000,1171 Edenwood Dr,27103,Winston Salem,NC,36.055869,-80.340138,37067,SingleFamily,2018,1974,11761,1575,1.0,3,139009,Salem Woods,neighborhood
5895222981000,5821 Remington Dr,27104,Winston Salem,NC,36.085556,-80.379919,37067,SingleFamily,2018,1975,35283,1506,2.5,3,195727,Winston-Salem,city
6805898411000,649 Friar Tuck Rd,27104,Winston Salem,NC,36.104172,-80.324213,37067,SingleFamily,2018,1964,22215,1682,3.0,3,256572,Old Sherwood Forest,neighborhood
6806764187000,102 Woodrow Ave,27106,Winston Salem,NC,36.122686,-80.329034,37067,SingleFamily,2018,1959,24393,1228,1.0,3,131083,Robinhood Park,neighborhood
6806080167000,2265 Hilltop Dr,27106,Winston Salem,NC,36.127146,-80.354159,37067,SingleFamily,2018,1963,607662,1932,2.5,4,377413,Winston-Salem,city
6824373457000,1426 Miller St,27103,Winston Salem,NC,36.071851,-80.274541,37067,SingleFamily,2018,1950,1306,1473,2.0,3,,Ardmore,neighborhood
6824373457000,1426 Miller St,27103,Winston Salem,NC,36.071851,-80.274541,37067,SingleFamily,2018,1950,30927,1473,2.0,3,,Ardmore,neighborhood
6827878527000,275 Melody Ln,27105,Winston Salem,NC,36.154678,-80.257262,37067,SingleFamily,2018,1969,21780,1824,2.0,3,142664,Retnuh Hills,neighborhood
6814878325000,1323 Bolton St,27103,Winston Salem,NC,36.071382,-80.289816,37067,SingleFamily,2018,1957,15681,1421,1.5,3,151357,Ardmore,neighborhood
5895692924000,725 Wallridge Dr,27106,Winston Salem,NC,36.105134,-80.366851,37067,SingleFamily,2018,2001,9583,1590,3.0,3,195789,Winston-Salem,city
6846003909000,2133 E 12th St,27101,Winston Salem,NC,36.109574,-80.217692,37067,SingleFamily,2018,1954,11761,1050,1.0,3,50005,Slater Park,neighborhood
6818014936000,3837 Pembrooke Rd,27106,Winston Salem,NC,36.166127,-80.319727,37067,SingleFamily,2018,1972,11325,1036,1.5,3,97016,Georgetown,neighborhood
6847722326000,3921 Northampton Dr,27105,Winston Salem,NC,36.141038,-80.194748,37067,SingleFamily,2018,1935,43124,1072,1.0,2,96040,Winston-Salem,city
6804600078000,500 Cherbourg Ave,27103,Winston Salem,NC,36.050885,-80.332656,37067,SingleFamily,2018,1992,17859,3,3.5,3,336132,Ashford,neighborhood
6808412254000,4653 Walden Dr,27106,Winston Salem,NC,36.16393,-80.340645,37067,SingleFamily,2018,1957,31363,1608,2.0,3,133362,Cedar Forest,neighborhood
