REID,street,zipcode,city,state,latitude,longitude,FIPScounty,useCode,taxAssessmentYear,yearBuilt,lotSizeSqFt,finishedSqFt,bathrooms,bedrooms,zestimate,name,type
6824187780000,1135 Kenwood St,27103,Winston Salem,NC,36.07519,-80.279866,37067,SingleFamily,2018,1946,6534,672,1.0,2,111161,Ardmore,neighborhood
6835029491000,625 Laurel St,27101,Winston Salem,NC,36.085706,-80.248845,37067,Duplex,2018,1949,4791,1350,2.0,2,99575,West Salem,neighborhood
6844033122000,1027 Moravia St,27107,Winston Salem,NC,36.060497,-80.216907,37067,VacantResidentialLand,2018,1965,12196,980,1.0,3,,Belview,neighborhood
6836959340000,2414 Manchester St,27105,Winston Salem,NC,36.121389,-80.219334,37067,SingleFamily,2018,1985,16988,1524,3.0,5,63089,Bowen Park,neighborhood
6816452339000,97 Carter Cir,27106,Winston Salem,NC,36.12079,-80.306133,37067,SingleFamily,2018,1953,15681,1310,1.5,3,144293,Mount Tabor,neighborhood
6825434126000,2081 Craig St,27103,Winston Salem,NC,36.087492,-80.271117,37067,SingleFamily,2018,1928,9583,1403,1.0,2,189716,Ardmore,neighborhood
6834422194000,2928 Stockton St,27127,Winston Salem,NC,36.057598,-80.23725,37067,SingleFamily,2018,1951,8712,988,1.0,3,42237,South Park,neighborhood
6824195006000,2388 Jefferson Ave,27103,Winston Salem,NC,36.076162,-80.280847,37067,SingleFamily,2018,1937,7405,826,1.0,3,136503,Ardmore,neighborhood
6844183673000,1582 Longview Dr,27107,Winston Salem,NC,36.075688,-80.213552,37067,SingleFamily,2018,1986,6969,1008,1.0,3,57688,Morningside Manor,neighborhood
6826942426000,2037 Lincoln Ave,27105,Winston Salem,NC,36.11874,-80.255341,37067,SingleFamily,2018,1938,8712,816,1.0,2,28482,Old Cherry,neighborhood
6844042888000,1020 Goldfloss St,27107,Winston Salem,NC,36.065361,-80.217085,37067,SingleFamily,2018,1948,9147,720,1.0,2,28339,Waughtown,neighborhood
6825713849000,1418 W Academy St,27103,Winston Salem,NC,36.083592,-80.261176,37067,SingleFamily,2018,1922,10454,1131,1.0,3,165002,Ardmore,neighborhood
6825713849000,1418 W Academy St,27103,Winston Salem,NC,36.083592,-80.261176,37067,SingleFamily,2018,1922,12632,1131,1.0,3,165002,Ardmore,neighborhood
6825223265000,2345 Rosewood Ave,27103,Winston Salem,NC,36.084993,-80.278028,37067,SingleFamily,2018,1932,10890,1680,1.5,3,290265,Ardmore,neighborhood
6836922729000,1602 Shady Mount Ave,27105,Winston Salem,NC,36.114501,-80.221416,37067,SingleFamily,2018,1950,6969,1407,1.5,3,,North East Winston,neighborhood
6826840018000,2000 Cannon Ave,27105,Winston Salem,NC,36.117632,-80.259424,37067,SingleFamily,2018,1941,8276,1116,1.0,3,38935,Boston Thurmon,neighborhood
6826109476000,620 Arbor Rd,27104,Winston Salem,NC,36.10755,-80.279731,37067,SingleFamily,2018,1927,15681,4736,5.0,7,1001613,Buena Vista,neighborhood
6825124422000,2424 Elizabeth Ave,27103,Winston Salem,NC,36.085394,-80.281236,37067,SingleFamily,2018,1929,20473,2134,2.0,2,323284,Ardmore,neighborhood
6837335594000,4034 Leo St,27105,Winston Salem,NC,36.143866,-80.240928,37067,SingleFamily,2018,1951,7840,1065,2.0,2,56710,Montview,neighborhood
6816790317000,1839 Polo Rd,27106,Winston Salem,NC,36.131719,-80.29694,37067,SingleFamily,2018,1939,21780,1678,2.0,3,151585,West Polo Road,neighborhood
6834067473000,701 W Sprague St,27127,Winston Salem,NC,36.069289,-80.249328,37067,SingleFamily,2018,1920,6969,804,1.0,2,49877,Washington Park,neighborhood
6836272741000,2937 NW Greenway Ave,27105,Winston Salem,NC,36.127759,-80.245272,37067,SingleFamily,2018,1954,16117,1212,1.0,2,80260,Greenway,neighborhood
6835965614000,1927 Kentucky Ave,27101,Winston Salem,NC,36.097642,-80.220187,37067,SingleFamily,2018,1949,8712,887,1.0,3,32976,Skyland,neighborhood
6844130969000,2620 Ludwig St,27107,Winston Salem,NC,36.062909,-80.214423,37067,SingleFamily,2018,1948,8712,726,1.0,2,26635,Waughtown,neighborhood
6844445952000,1626 E Sprague St,27107,Winston Salem,NC,36.065548,-80.202687,37067,SingleFamily,2018,1949,27878,1796,2.0,4,74105,Waughtown,neighborhood
6826220278000,814 Arbor Rd,27104,Winston Salem,NC,36.11249,-80.279459,37067,SingleFamily,2018,1924,15681,2014,2.0,4,585258,Buena Vista,neighborhood
6834836104000,818 Morsinie St,27107,Winston Salem,NC,36.060494,-80.222711,37067,SingleFamily,2018,1955,6534,976,2.0,3,42991,Easton,neighborhood
6815895289000,401 Sheffield Dr,27104,Winston Salem,NC,36.104164,-80.291118,37067,SingleFamily,2018,1929,43560,6654,5.0,5,1660439,Buena Vista,neighborhood
6835021275000,616 Hunter Ave,27101,Winston Salem,NC,36.085242,-80.251602,37067,Duplex,2018,1920,11325,2088,2.0,4,126291,West Salem,neighborhood
6836259049000,2402 Gilmer Ave,27105,Winston Salem,NC,36.120621,-80.242772,37067,SingleFamily,2018,1928,5662,1080,1.0,4,39898,Greenway,neighborhood
6834286709000,133 Vintage Ave,27127,Winston Salem,NC,36.075813,-80.243248,37067,SingleFamily,2018,1961,8712,819,1.0,2,77440,Washington Park,neighborhood
6825002830000,838 Bellview St,27103,Winston Salem,NC,36.080938,-80.285181,37067,SingleFamily,2018,1941,9148,1506,2.0,3,214253,Ardmore,neighborhood
6825229087000,2252 Rosewood Ave,27103,Winston Salem,NC,36.084424,-80.27591,37067,SingleFamily,2018,1930,9147,1338,1.0,3,247595,Ardmore,neighborhood
6844131132000,2728 Sink St,27107,Winston Salem,NC,36.060531,-80.214131,37067,SingleFamily,2018,1952,11761,864,1.0,2,30427,Waughtown,neighborhood
6826407242000,1780 Robinhood Rd,27104,Winston Salem,NC,36.106948,-80.270363,37067,SingleFamily,2018,1946,43560,3710,4.0,4,515664,Buena Vista,neighborhood
6834943821000,847 E Brookline St,27107,Winston Salem,NC,36.065107,-80.220346,37067,SingleFamily,2018,1949,9147,1638,1.0,3,54365,Belview,neighborhood
6825909517000,916 Shober St,27101,Winston Salem,NC,36.0806,-80.252404,37067,SingleFamily,2018,1954,7405,884,1.0,2,119062,West Salem,neighborhood
6834323523000,2906 Edwards St,27127,Winston Salem,NC,36.058648,-80.240547,37067,SingleFamily,2018,2002,10018,1214,2.0,3,98145,South Park,neighborhood
6834327460000,2904 S Main St,27127,Winston Salem,NC,36.058296,-80.239035,37067,SingleFamily,2018,1938,7840,2100,1.0,3,56141,South Park,neighborhood
6834965925000,2018 Francis St,27107,Winston Salem,NC,36.071006,-80.219747,37067,SingleFamily,2018,1915,6969,1182,1.0,3,37960,Forest Park,neighborhood
6836456812000,2512 Patrick Ave,27105,Winston Salem,NC,36.12266,-80.237202,37067,SingleFamily,2018,1948,7405,888,1.0,2,32866,North Winston,neighborhood
6826831633000,1724 Grant Ave,27105,Winston Salem,NC,36.116437,-80.259005,37067,SingleFamily,2018,1932,4791,950,1.0,3,31605,Boston Thurmon,neighborhood
6844272170000,1336 Marne St,27107,Winston Salem,NC,36.071516,-80.210471,37067,SingleFamily,2018,1953,6969,926,1.0,2,34038,Forest Park,neighborhood
6825097503000,449 N Avalon Rd,27104,Winston Salem,NC,36.104859,-80.283966,37067,SingleFamily,2018,1936,22215,3317,3.5,5,645164,Buena Vista,neighborhood
6834288822000,117 Vintage Ave,27127,Winston Salem,NC,36.075892,-80.242514,37067,SingleFamily,2018,1920,10454,2500,2.0,4,232173,Washington Park,neighborhood
6834064482000,722 Salisbury Ridge Rd,27127,Winston Salem,NC,36.069245,-80.250307,37067,SingleFamily,2018,1935,7405,894,1.0,2,56515,Washington Park,neighborhood
6826851626000,705 W Twenty Fifth And One Half St,27105,Winston Salem,NC,36.12201,-80.259129,37067,SingleFamily,2018,1939,4791,980,1.0,2,50264,Boston Thurmon,neighborhood
6844144389000,2619 Peachtree St,27107,Winston Salem,NC,36.064025,-80.213017,37067,SingleFamily,2018,1918,7405,1316,1.0,2,34180,Waughtown,neighborhood
6844276350000,1423 Marne St,27107,Winston Salem,NC,36.072062,-80.209171,37067,SingleFamily,2018,1958,8276,768,1.0,2,26722,Forest Park,neighborhood
6825437043000,2043 Craig St,27103,Winston Salem,NC,36.0872,-80.270015,37067,SingleFamily,2018,1954,4356,942,1.0,2,155414,Ardmore,neighborhood
6844175233000,1748 Longview Dr,27107,Winston Salem,NC,36.07185,-80.21292,37067,SingleFamily,2018,1941,8276,1435,2.0,2,61155,Forest Park,neighborhood
6835990743000,908 Rich Ave,27101,Winston Salem,NC,36.10611,-80.221866,37067,SingleFamily,2018,1920,5662,1302,1.0,2,35691,Reynoldstown,neighborhood
6825380977000,401 N Stratford Rd,27104,Winston Salem,NC,36.10343,-80.275925,37067,SingleFamily,2018,2001,24829,5282,6.0,4,1023061,West Highlands,neighborhood
6844442349000,2341 Marble St,27107,Winston Salem,NC,36.064132,-80.203697,37067,SingleFamily,2018,1947,10018,720,1.0,2,23384,Waughtown,neighborhood
6834349299000,2637 S Main St,27127,Winston Salem,NC,36.063512,-80.238369,37067,SingleFamily,2018,1951,7405,736,1.0,2,44288,South Park,neighborhood
6825227226000,2311 Rosewood Ave,27103,Winston Salem,NC,36.085032,-80.276811,37067,SingleFamily,2018,1938,10890,1178,1.0,3,249717,Ardmore,neighborhood
6844141244000,2613 Ludwig St,27107,Winston Salem,NC,36.063614,-80.214159,37067,SingleFamily,2018,1915,7405,784,1.0,3,28171,Waughtown,neighborhood
6844161288000,1197 Waughtown St,27107,Winston Salem,NC,36.069208,-80.214093,37067,SingleFamily,2018,1917,16552,2458,2.0,3,,Forest Park,neighborhood
6837548962000,716 Newton St,27105,Winston Salem,NC,36.147692,-80.233316,37067,SingleFamily,2018,1947,19602,852,1.0,2,,Ogburn Station,neighborhood
6825618332000,652 S Sunset Dr,27103,Winston Salem,NC,36.082575,-80.262863,37067,SingleFamily,2018,1930,9147,1570,1.0,3,180079,Ardmore,neighborhood
6834069752000,604 Salisbury Ridge Rd,27127,Winston Salem,NC,36.070081,-80.248754,37067,SingleFamily,2018,1922,7840,1034,1.0,2,50607,Washington Park,neighborhood
6825137275000,306 Magnolia St,27103,Winston Salem,NC,36.087727,-80.280097,37067,SingleFamily,2018,1943,9147,1200,1.5,3,193811,Ardmore,neighborhood
6816389054000,138 Linbrook Dr,27106,Winston Salem,NC,36.12806,-80.307228,37067,SingleFamily,2018,1977,31363,1025,1.5,3,125295,West Polo Road,neighborhood
6836928824000,2036 Dellabrook Rd,27105,Winston Salem,NC,36.114621,-80.219393,37067,SingleFamily,2018,1920,6534,1245,1.0,3,28283,North East Winston,neighborhood
6837558977000,714 Kapp St,27105,Winston Salem,NC,36.150564,-80.233313,37067,SingleFamily,2018,1936,20037,1008,1.0,2,35819,Ogburn Station,neighborhood
6825518491000,1825 Gaston St,27103,Winston Salem,NC,36.082764,-80.266063,37067,SingleFamily,2018,1930,10890,2106,2.5,4,271735,Ardmore,neighborhood
6834441755000,2600 Stockton St,27127,Winston Salem,NC,36.064751,-80.237827,37067,SingleFamily,2018,1931,7405,1120,1.0,3,41281,South Park,neighborhood
6825309581000,2206 Gaston St,27103,Winston Salem,NC,36.080233,-80.272474,37067,SingleFamily,2018,1951,8965,1062,1.0,2,168125,Ardmore,neighborhood
6826301646000,645 N Stratford Rd,27104,Winston Salem,NC,36.108074,-80.275741,37067,SingleFamily,2018,1927,20037,2406,3.0,3,538814,Buena Vista,neighborhood
6825323487000,2216 Elizabeth Ave,27103,Winston Salem,NC,36.085601,-80.274607,37067,SingleFamily,2018,1928,10890,1406,2.0,3,275659,Ardmore,neighborhood
6844356138000,2266 Tryon St,27107,Winston Salem,NC,36.066269,-80.205771,37067,SingleFamily,2018,1935,12196,892,1.0,2,35450,Waughtown,neighborhood
6833360704000,3761 Konnoak Dr,27127,Winston Salem,NC,36.042708,-80.241378,37067,SingleFamily,2018,1930,11325,974,1.0,2,90127,Union Ridge,neighborhood
6825171661000,2436 Warwick Rd,27104,Winston Salem,NC,36.09968,-80.282304,37067,SingleFamily,2018,1949,19166,3476,4.5,5,718555,Buena Vista,neighborhood
6836257643000,2501 Gilmer Ave,27105,Winston Salem,NC,36.12209,-80.243508,37067,SingleFamily,2018,1928,6969,1458,1.0,3,64760,Greenway,neighborhood
6835971687000,1852 E 5th St,27101,Winston Salem,NC,36.100438,-80.221352,37067,SingleFamily,2018,1951,11325,2347,2.5,3,137989,Skyland,neighborhood
