REID,street,zipcode,city,state,latitude,longitude,FIPScounty,useCode,taxAssessmentYear,yearBuilt,lotSizeSqFt,finishedSqFt,bathrooms,bedrooms,zestimate,name,type
6836755322000,2416 N Dunleith Ave,27105,Winston Salem,NC,36.121412,-80.227302,37067,SingleFamily,2018,1961,5227,1298,1.5,2,35261,North East Winston,neighborhood
6837324269000,3883 Sheraton St,27105,Winston Salem,NC,36.14031,-80.241351,37067,SingleFamily,2018,1949,8276,1278,2.0,3,,Montview,neighborhood
6837324269000,3883 Sheraton St,27105,Winston Salem,NC,36.14031,-80.241351,37067,SingleFamily,2018,1949,16117,1278,2.0,3,,Montview,neighborhood
6825113294000,733 Magnolia St,27103,Winston Salem,NC,36.082137,-80.281259,37067,SingleFamily,2018,1951,20908,1020,2.0,3,183670,Ardmore,neighborhood
6825206020000,1051 S Hawthorne Rd,27103,Winston Salem,NC,36.078809,-80.277068,37067,SingleFamily,2018,1928,7405,1414,2.0,3,263194,Ardmore,neighborhood
6835990454000,852 Rich Ave,27101,Winston Salem,NC,36.105322,-80.221861,37067,SingleFamily,2018,1920,5227,1073,1.0,2,,Reynoldstown,neighborhood
6844063383000,1133 Waughtown St,27107,Winston Salem,NC,36.069326,-80.216831,37067,SingleFamily,2018,1950,6534,860,1.0,2,33199,Forest Park,neighborhood
6844283103000,1325 Belleauwood St,27107,Winston Salem,NC,36.074309,-80.210416,37067,SingleFamily,2018,1930,6098,906,1.0,2,32804,Forest Park,neighborhood
6844057428000,2314 Sink St,27107,Winston Salem,NC,36.06701,-80.215622,37067,SingleFamily,2018,1938,8276,1052,2.0,3,58026,Waughtown,neighborhood
6816359422000,131 Carter Cir,27106,Winston Salem,NC,36.120837,-80.307184,37067,SingleFamily,2018,1931,19166,1052,1.0,2,108519,Mount Tabor,neighborhood
6826853032000,2324 Thurmond St,27105,Winston Salem,NC,36.120262,-80.258369,37067,SingleFamily,2018,1940,5662,1616,1.0,4,55969,Boston Thurmon,neighborhood
6834477603000,1844 Chapel St,27127,Winston Salem,NC,36.072712,-80.236091,37067,SingleFamily,2018,1910,10018,982,1.0,2,,North Carolina School of the Arts,neighborhood
6844522803000,2628 Woodville St,27107,Winston Salem,NC,36.059873,-80.200342,37067,SingleFamily,2018,1932,7405,974,2.0,3,41952,Waughtown,neighborhood
6834066500000,710 Salisbury Ridge Rd,27127,Winston Salem,NC,36.069474,-80.249884,37067,SingleFamily,2018,1922,7405,1416,2.0,3,121356,Washington Park,neighborhood
6825105373000,2425 Lyndhurst Ave,27103,Winston Salem,NC,36.079835,-80.280699,37067,SingleFamily,2018,1953,10454,936,1.0,2,148265,Ardmore,neighborhood
6835667146000,1314 E 1st St,27101,Winston Salem,NC,36.096201,-80.229566,37067,SingleFamily,2018,1920,4791,1120,1.0,3,33104,East Winston,neighborhood
6824175584000,1409 Kenwood St,27103,Winston Salem,NC,36.071989,-80.280469,37067,SingleFamily,2018,1954,10890,912,1.0,3,109535,Ardmore,neighborhood
6844276627000,1434 Donald St,27107,Winston Salem,NC,36.073063,-80.209301,37067,SingleFamily,2018,1922,14810,1330,1.0,2,,Forest Park,neighborhood
6825626592000,447 Brent St,27103,Winston Salem,NC,36.085836,-80.263413,37067,SingleFamily,2018,1932,6534,1300,3.0,3,240029,Ardmore,neighborhood
6826418417000,1718 Meadowbrook Dr,27104,Winston Salem,NC,36.110413,-80.27027,37067,SingleFamily,2018,1948,15681,2549,2.0,3,443274,Buena Vista,neighborhood
6815773245000,2900 Country Club Rd,27104,Winston Salem,NC,36.098541,-80.295164,37067,SingleFamily,2018,1924,79279,7810,6.0,9,1562084,Country Club,neighborhood
6827007741000,141 Rosedale Cir,27106,Winston Salem,NC,36.135573,-80.284368,37067,SingleFamily,2018,1935,13939,865,1.0,3,116358,Woodberry Forest,neighborhood
6826942321000,2027 Lincoln Ave,27105,Winston Salem,NC,36.118328,-80.25534,37067,SingleFamily,2018,1955,8712,952,1.0,2,,Old Cherry,neighborhood
6816572971000,99 Tabor St,27106,Winston Salem,NC,36.127725,-80.302741,37067,SingleFamily,2018,1983,10454,768,1.0,2,77233,West Polo Road,neighborhood
6845584838000,3328 Old Greensboro Rd,27101,Winston Salem,NC,36.103978,-80.200216,37067,SingleFamily,2018,1920,20037,952,1.0,1,36789,City View,neighborhood
6825318429000,721 Miller St,27103,Winston Salem,NC,36.082907,-80.27314,37067,SingleFamily,2018,1925,7405,1630,2.0,3,252285,Ardmore,neighborhood
6836245302000,2324 Montrose Ave,27105,Winston Salem,NC,36.118465,-80.244233,37067,SingleFamily,2018,1938,1306800,1600,1.0,2,54790,Greenway,neighborhood
6837035183000,190 Clayton St,27105,Winston Salem,NC,36.142587,-80.251099,37067,SingleFamily,2018,1947,17424,1349,2.0,2,,Forest Hills,neighborhood
6826834892000,1735 Thurmond St,27105,Winston Salem,NC,36.116981,-80.257802,37067,SingleFamily,2018,1934,6098,1436,1.5,3,42189,Boston Thurmon,neighborhood
6826834892000,1735 Thurmond St,27105,Winston Salem,NC,36.116981,-80.257802,37067,SingleFamily,2018,1934,9583,1436,1.5,3,42189,Boston Thurmon,neighborhood
6844374430000,1501 Harding St,27107,Winston Salem,NC,36.072411,-80.206533,37067,SingleFamily,2018,1949,13939,896,1.0,3,39817,Forest Park,neighborhood
6825087140000,2525 Warwick Rd,27104,Winston Salem,NC,36.100969,-80.28377,37067,SingleFamily,2018,1973,27450,3920,6.0,4,895169,Buena Vista,neighborhood
6834260604000,2133 Konnoak View Dr,27127,Winston Salem,NC,36.069897,-80.245227,37067,SingleFamily,2018,1937,6534,949,1.0,2,57542,Washington Park,neighborhood
6826217115000,727 Oaklawn Ave,27104,Winston Salem,NC,36.109418,-80.277241,37067,SingleFamily,2018,1937,15681,2928,2.5,3,597902,Buena Vista,neighborhood
6833294293000,3406 Konnoak Dr,27127,Winston Salem,NC,36.049559,-80.243263,37067,SingleFamily,2018,1967,13939,1408,2.0,3,141338,Konnoak,neighborhood
6834561656000,221 E Sprague St,27127,Winston Salem,NC,36.07008,-80.234722,37067,SingleFamily,2018,1905,5227,1756,2.0,3,,Sunnyside,neighborhood
6834561656000,221 E Sprague St,27127,Winston Salem,NC,36.07008,-80.234722,37067,SingleFamily,2018,1905,5227,1756,2.0,3,,Sunnyside,neighborhood
6844155213000,53 Cottage St,27107,Winston Salem,NC,36.066324,-80.212948,37067,SingleFamily,2018,1928,10890,1136,1.0,2,33786,Waughtown,neighborhood
6844266907000,1413 Verdun St,27107,Winston Salem,NC,36.071149,-80.209324,37067,SingleFamily,2018,1924,6969,954,1.5,2,35869,Forest Park,neighborhood
6836255850000,2510 Gilmer Ave,27105,Winston Salem,NC,36.122588,-80.244165,37067,SingleFamily,2018,1930,13068,1518,2.0,4,65000,Greenway,neighborhood
6825396230000,477 Carolina Cir,27104,Winston Salem,NC,36.104113,-80.27405,37067,SingleFamily,2018,1930,21780,3471,2.5,4,549475,West Highlands,neighborhood
6833279800000,3657 Konnoak Dr,27127,Winston Salem,NC,36.045666,-80.24173,37067,SingleFamily,2018,1960,13939,1306,1.0,3,108913,Union Ridge,neighborhood
6836277563000,2914 NE Bon Air Ave,27105,Winston Salem,NC,36.127298,-80.243523,37067,SingleFamily,2018,1937,7405,1255,1.0,2,86856,Greenway,neighborhood
6826118320000,735 Roslyn Rd,27104,Winston Salem,NC,36.10979,-80.280266,37067,SingleFamily,2018,1950,23522,2910,4.0,4,766122,Buena Vista,neighborhood
6826312173000,2042 Sussex Ln,27104,Winston Salem,NC,36.109347,-80.275432,37067,SingleFamily,2018,2001,16117,774,3.5,4,477753,Buena Vista,neighborhood
6835024011000,927 West St,27101,Winston Salem,NC,36.084518,-80.250735,37067,SingleFamily,2018,1924,4791,1560,2.0,4,262563,West Salem,neighborhood
6835771217000,1408 E 4th St,27101,Winston Salem,NC,36.099268,-80.228344,37067,SingleFamily,2018,1940,6098,1334,1.0,2,28873,East Winston,neighborhood
6825227896000,2306 Westfield Ave,27103,Winston Salem,NC,36.086654,-80.276593,37067,SingleFamily,2018,1936,10454,1589,2.0,2,269804,Ardmore,neighborhood
6826126545000,830 Roslyn Rd,27104,Winston Salem,NC,36.113243,-80.280929,37067,SingleFamily,2018,1968,16575,3700,4.0,4,856420,Buena Vista,neighborhood
6837027796000,3905 Indiana Ave,27105,Winston Salem,NC,36.141604,-80.2504,37067,SingleFamily,2018,1940,9147,936,1.0,2,36766,Forest Hills,neighborhood
6825701771000,812 S Sunset Dr,27103,Winston Salem,NC,36.080902,-80.261684,37067,SingleFamily,2018,1930,15246,912,1.0,2,127968,Ardmore,neighborhood
6844173548000,1721 Peachtree St,27107,Winston Salem,NC,36.072805,-80.213613,37067,SingleFamily,2018,1920,6969,1170,2.0,2,81386,Forest Park,neighborhood
6826217003000,715 Oaklawn Ave,27104,Winston Salem,NC,36.109089,-80.27726,37067,SingleFamily,2018,1928,31363,3774,3.0,5,884931,Buena Vista,neighborhood
6837528993000,718 Efird St,27105,Winston Salem,NC,36.142226,-80.23314,37067,SingleFamily,2018,1971,14810,1600,2.0,4,81956,Ogburn Station,neighborhood
6825559187000,116 N Hawthorne Rd,27104,Winston Salem,NC,36.093121,-80.265913,37067,SingleFamily,2018,1922,7840,2390,2.0,4,244294,Winston-Salem,city
6825170666000,2446 Warwick Rd,27104,Winston Salem,NC,36.099847,-80.282693,37067,SingleFamily,2018,2004,31363,5026,4.0,4,1202493,Buena Vista,neighborhood
6844160726000,2015 Hoover St,27107,Winston Salem,NC,36.070536,-80.214675,37067,SingleFamily,2018,1949,7405,896,1.0,2,34885,Forest Park,neighborhood
6834423854000,2841 Stockton St,27127,Winston Salem,NC,36.059533,-80.237081,37067,SingleFamily,2018,1955,7405,860,1.0,3,28592,South Park,neighborhood
6845581900000,3305 Old Greensboro Rd,27101,Winston Salem,NC,36.104045,-80.201433,37067,SingleFamily,2018,1925,9147,1156,1.0,2,36989,City View,neighborhood
6834445218000,2636 Patria St,27127,Winston Salem,NC,36.063504,-80.236574,37067,SingleFamily,2018,1956,9583,1862,2.0,3,105209,South Park,neighborhood
6834822272000,738 Woodcote Dr,27107,Winston Salem,NC,36.057951,-80.223724,37067,SingleFamily,2018,1948,7405,784,1.0,2,28052,Easton,neighborhood
6834269588000,123 W Sprague St,27127,Winston Salem,NC,36.069772,-80.241829,37067,SingleFamily,2018,1925,7405,1628,1.0,3,103252,Washington Park,neighborhood
6824189584000,2335 Cherokee Ln,27103,Winston Salem,NC,36.074731,-80.279148,37067,SingleFamily,2018,1951,8276,960,1.0,3,137771,Ardmore,neighborhood
6825605844000,820 Brent St,27103,Winston Salem,NC,36.081258,-80.263892,37067,SingleFamily,2018,1948,14374,1,1.0,3,167231,Ardmore,neighborhood
6836719804000,1326 N Jackson Ave,27101,Winston Salem,NC,36.111834,-80.225872,37067,SingleFamily,2018,1910,8712,904,1.0,2,29623,East Winston,neighborhood
6826845302000,2025 Thurmond St,27105,Winston Salem,NC,36.118322,-80.257802,37067,SingleFamily,2018,1924,6098,1028,1.0,3,36591,Boston Thurmon,neighborhood
6834206868000,3155 Konnoak Dr,27127,Winston Salem,NC,36.054083,-80.242689,37067,SingleFamily,2018,1949,2099,1525,2.0,3,127814,Konnoak,neighborhood
6836934135000,1701 Shady Mount Ave,27105,Winston Salem,NC,36.115535,-80.220737,37067,SingleFamily,2018,1957,20908,1589,2.0,3,62265,North East Winston,neighborhood
6844267338000,1422 Bretton St,27107,Winston Salem,NC,36.069536,-80.208879,37067,SingleFamily,2018,1957,13503,1300,1.0,3,97943,Forest Park,neighborhood
6825401703000,2197 Gaston St,27103,Winston Salem,NC,36.08082,-80.272092,37067,SingleFamily,2018,1935,10018,1686,1.0,3,205368,Ardmore,neighborhood
6826118006000,719 Roslyn Rd,27104,Winston Salem,NC,36.109131,-80.280303,37067,SingleFamily,2018,1951,22651,2583,3.0,3,506528,Buena Vista,neighborhood
6844141270000,2615 Ludwig St,27107,Winston Salem,NC,36.063498,-80.21407,37067,SingleFamily,2018,1920,7405,994,2.0,3,33316,Waughtown,neighborhood
6825332564000,2227 Queen St,27103,Winston Salem,NC,36.088518,-80.275135,37067,SingleFamily,2018,1930,15246,2336,2.0,4,329965,Ardmore,neighborhood
6826311983000,789 N Stratford Rd,27104,Winston Salem,NC,36.111712,-80.275804,37067,SingleFamily,2018,1950,15246,1233,2.0,3,185354,Buena Vista,neighborhood
6844775549000,2351 E Sprague St,27107,Winston Salem,NC,36.073011,-80.192637,37067,SingleFamily,2018,1935,10454,1142,1.0,2,36026,Parkview,neighborhood
6844775549000,2351 E Sprague St,27107,Winston Salem,NC,36.073011,-80.192637,37067,SingleFamily,2018,1935,5662,1142,1.0,2,36026,Parkview,neighborhood
6834425913000,2832 Patria St,27127,Winston Salem,NC,36.059812,-80.236525,37067,SingleFamily,2018,1962,7405,980,1.0,2,49917,South Park,neighborhood
6816365394000,275 Carter Cir,27106,Winston Salem,NC,36.123336,-80.308461,37067,SingleFamily,2018,1981,10454,1128,2.0,3,135863,Mount Tabor,neighborhood
6835877506000,1810 E 5th St,27101,Winston Salem,NC,36.100127,-80.222952,37067,SingleFamily,2018,1950,10018,1122,1.0,2,30341,Skyland,neighborhood
6836715974000,1330 N Dunleith Ave,27101,Winston Salem,NC,36.112083,-80.226958,37067,SingleFamily,2018,2000,5662,1560,2.0,4,100229,East Winston,neighborhood
6845263949000,2248 Flag St,27101,Winston Salem,NC,36.098661,-80.210606,37067,SingleFamily,2018,1939,2178,780,1.0,3,28006,Skyland,neighborhood
6834871494000,2004 Dacian St,27107,Winston Salem,NC,36.0723,-80.224264,37067,SingleFamily,2018,1935,7405,773,1.0,2,28262,Forest Park,neighborhood
6846125963000,2413 Booker St,27105,Winston Salem,NC,36.114964,-80.213564,37067,SingleFamily,2018,1930,5227,1032,1.0,2,35018,Dreamland,neighborhood
6834840949000,2519 Dacian St,27107,Winston Salem,NC,36.065567,-80.224664,37067,SingleFamily,2018,1925,7405,616,1.0,1,25805,Belview,neighborhood
6845371773000,2822 Rowell St,27101,Winston Salem,NC,36.100725,-80.207834,37067,SingleFamily,2018,1969,7840,1380,2.0,5,,City View,neighborhood
6844055435000,1047 E Devonshire St,27107,Winston Salem,NC,36.066916,-80.21631,37067,SingleFamily,2018,1952,9147,1260,2.0,3,47189,Waughtown,neighborhood
6834878033000,2040 Urban St,27107,Winston Salem,NC,36.071191,-80.222101,37067,SingleFamily,2018,1922,7405,1008,1.0,3,36251,Forest Park,neighborhood
6824175687000,1401 Kenwood St,27103,Winston Salem,NC,36.072355,-80.280491,37067,SingleFamily,2018,1955,10018,1100,1.0,3,122943,Ardmore,neighborhood
6844046284000,2516 Sink St,27107,Winston Salem,NC,36.063596,-80.215973,37067,SingleFamily,2018,1950,13939,1589,2.0,3,94982,Waughtown,neighborhood
6844554363000,9 E Sprague St,27127,Winston Salem,NC,36.069896,-80.238456,37067,SingleFamily,2018,1925,7405,1225,1.0,4,92349,Sunnyside,neighborhood
6826832297000,1620 Thurmond St,27105,Winston Salem,NC,36.115424,-80.258405,37067,SingleFamily,2018,1970,6969,644,1.0,2,25450,Boston Thurmon,neighborhood
6824591825000,939 Watson Ave,27103,Winston Salem,NC,36.078453,-80.268604,37067,SingleFamily,2018,1950,10454,1192,1.0,3,170094,Ardmore,neighborhood
6845470625000,421 Mount Vernon Ave,27101,Winston Salem,NC,36.100568,-80.204959,37067,SingleFamily,2018,1937,11194,956,1.0,2,33149,City View,neighborhood
6836052286000,2405 Pittsburg Ave,27105,Winston Salem,NC,36.120981,-80.251749,37067,SingleFamily,2018,1928,9583,1030,1.0,2,,Old Cherry,neighborhood
6825622304000,1802 Elizabeth Ave,27103,Winston Salem,NC,36.085362,-80.265074,37067,SingleFamily,2018,1925,7405,1695,1.5,3,263233,Ardmore,neighborhood
6825139215000,2378 Queen St,27103,Winston Salem,NC,36.0877,-80.279594,37067,SingleFamily,2018,1945,9147,1189,1.0,2,187806,Ardmore,neighborhood
6825431524000,2079 Queen St,27103,Winston Salem,NC,36.08857,-80.272096,37067,SingleFamily,2018,1937,8276,1851,2.0,3,249059,Ardmore,neighborhood
6825603732000,815 Gales Ave,27103,Winston Salem,NC,36.080927,-80.264518,37067,SingleFamily,2018,1928,8712,1158,1.0,3,189327,Ardmore,neighborhood
6826313073000,2020 Sussex Ln,27104,Winston Salem,NC,36.109094,-80.275008,37067,SingleFamily,2018,1951,13503,2786,4.0,4,569339,Buena Vista,neighborhood
6845487411000,3122 Old Greensboro Rd,27101,Winston Salem,NC,36.102644,-80.202654,37067,SingleFamily,2018,1930,38332,1350,1.0,3,37738,City View,neighborhood
6815773698000,2901 Country Club Rd,27104,Winston Salem,NC,36.099721,-80.295062,37067,SingleFamily,2018,1929,30492,992,4.0,4,909724,Country Club,neighborhood
6833292218000,329 Elmwood Dr,27127,Winston Salem,NC,36.049676,-80.244149,37067,SingleFamily,2018,1953,21344,1189,1.0,3,98010,Konnoak,neighborhood
6826118854000,781 Roslyn Rd,27104,Winston Salem,NC,36.111271,-80.280184,37067,SingleFamily,2018,1948,15681,2131,1.0,2,418085,Buena Vista,neighborhood
6834941949000,822 Goldfloss St,27107,Winston Salem,NC,36.065603,-80.220961,37067,SingleFamily,2018,1956,7405,768,1.0,2,28000,Belview,neighborhood
6835773474000,1427 E 4th St,27101,Winston Salem,NC,36.099736,-80.227452,37067,SingleFamily,2018,1940,14374,1640,1.0,3,45507,East Winston,neighborhood
6837337597000,4035 Leo St,27105,Winston Salem,NC,36.14391,-80.240255,37067,MultiFamily2To4,2018,1949,20037,910,1.0,3,70850,Montview,neighborhood
6854063924000,2349 Cole Rd,27107,Winston Salem,NC,36.071321,-80.183242,37067,SingleFamily,2018,1954,7405,1152,1.0,2,,Stewart Gardens,neighborhood
6835992505000,861 Rich Ave,27101,Winston Salem,NC,36.105598,-80.221355,37067,SingleFamily,2018,1939,5662,1044,1.0,2,30217,Reynoldstown,neighborhood
6825618235000,656 S Sunset Dr,27103,Winston Salem,NC,36.082374,-80.26287,37067,SingleFamily,2018,1928,13068,1616,2.0,4,187052,Ardmore,neighborhood
6844042792000,1011 E Brookline St,27107,Winston Salem,NC,36.064897,-80.21704,37067,SingleFamily,2018,1948,13939,1012,2.0,2,34247,Waughtown,neighborhood
6844437161000,1649 Radcliff St,27107,Winston Salem,NC,36.06065,-80.201855,37067,SingleFamily,2018,1959,10454,999,1.0,3,46274,Waughtown,neighborhood
6836272445000,2915 NW Greenway Ave,27105,Winston Salem,NC,36.127003,-80.245265,37067,SingleFamily,2018,1955,12196,1600,1.0,3,98596,Greenway,neighborhood
6824298555000,1107 Martin St,27103,Winston Salem,NC,36.077558,-80.276253,37067,SingleFamily,2018,1952,12632,1437,2.0,3,216559,Ardmore,neighborhood
6825527451000,1838 Elizabeth Ave,27103,Winston Salem,NC,36.085512,-80.266571,37067,SingleFamily,2018,1930,5662,1411,1.0,3,204808,Ardmore,neighborhood
6825616867000,613 Brent St,27103,Winston Salem,NC,36.084069,-80.263456,37067,SingleFamily,2018,1920,6098,924,1.0,2,127797,Ardmore,neighborhood
6825424191000,607 Fenimore St,27103,Winston Salem,NC,36.084664,-80.270817,37067,SingleFamily,2018,1930,8712,1400,1.0,2,229784,Ardmore,neighborhood
6837142188000,310 Forest Hill Ave,27105,Winston Salem,NC,36.145507,-80.248817,37067,SingleFamily,2018,1932,8712,1900,1.5,3,117620,Forest Hills,neighborhood
6833395128000,3416 S Main St,27127,Winston Salem,NC,36.049482,-80.23974,37067,SingleFamily,2018,1941,8000,1450,2.0,3,127769,Konnoak,neighborhood
6836946428000,2055 Bowen Blvd,27105,Winston Salem,NC,36.11916,-80.220165,37067,SingleFamily,2018,1946,7840,816,1.0,3,26038,Bowen Park,neighborhood
6834963860000,2035 S Martin Luther King Jr Dr,27107,Winston Salem,NC,36.070592,-80.220281,37067,SingleFamily,2018,1958,6969,864,1.0,2,29612,Forest Park,neighborhood
6816476379000,1421 Benbow St,27106,Winston Salem,NC,36.126254,-80.304772,37067,SingleFamily,2018,1986,9583,1536,2.0,3,145388,West Polo Road,neighborhood
6844660341000,1906 E Sprague St,27107,Winston Salem,NC,36.069473,-80.197696,37067,SingleFamily,2018,1932,4791,1033,1.0,2,38185,Flat Rock,neighborhood
6827021132000,300 Friendship Cir,27106,Winston Salem,NC,36.139453,-80.286435,37067,SingleFamily,2018,1963,27007,2395,3.0,3,381246,Winston-Salem,city
6836836352000,1716 N Gray Ave,27105,Winston Salem,NC,36.11592,-80.223372,37067,SingleFamily,2018,1950,7405,1712,2.0,3,52919,North East Winston,neighborhood
6834800884000,3300 Urban St,27107,Winston Salem,NC,36.054187,-80.22438,37067,SingleFamily,2018,1956,5227,800,1.0,2,35155,Easton,neighborhood
6825907405000,927 Holland St,27101,Winston Salem,NC,36.080237,-80.253121,37067,SingleFamily,2018,1942,10890,1885,2.0,3,221578,West Salem,neighborhood
6834279003000,2117 S Broad St,27127,Winston Salem,NC,36.070992,-80.242156,37067,SingleFamily,2018,1948,10890,1305,1.0,3,94942,Washington Park,neighborhood
6845158967000,2229 E 1st St,27101,Winston Salem,NC,36.095872,-80.212231,37067,SingleFamily,2018,1955,8276,864,1.0,2,36591,Winston-Salem,city
6845287436000,663 Mount Vernon Ave,27101,Winston Salem,NC,36.102731,-80.209385,37067,SingleFamily,2018,1935,18730,780,1.0,2,26908,Skyland,neighborhood
6835996192000,2042 Temple St,27101,Winston Salem,NC,36.104449,-80.219673,37067,SingleFamily,2018,1940,7405,1141,1.0,3,32215,Reynoldstown,neighborhood
6844055874000,1025 E Sprague St,27107,Winston Salem,NC,36.067984,-80.216154,37067,SingleFamily,2018,1920,8276,1149,1.0,2,34320,Waughtown,neighborhood
6825511169000,1932 Gaston St,27103,Winston Salem,NC,36.082157,-80.268511,37067,SingleFamily,2018,1947,10018,1568,2.0,4,209760,Ardmore,neighborhood
6825501216000,903 Watson Ave,27103,Winston Salem,NC,36.079579,-80.268631,37067,SingleFamily,2018,1942,8276,1116,1.5,3,189403,Ardmore,neighborhood
6844574963000,1920 Shelby Ln,27107,Winston Salem,NC,36.073877,-80.199701,37067,SingleFamily,2018,1936,8276,1155,1.0,3,40087,Flat Rock,neighborhood
6825312438000,2233 Parkway Dr,27103,Winston Salem,NC,36.082865,-80.275018,37067,SingleFamily,2018,1951,10454,2304,2.5,5,334953,Ardmore,neighborhood
6825402511000,2194 Gaston St,27103,Winston Salem,NC,36.08021,-80.271714,37067,SingleFamily,2018,1941,10890,1678,2.0,3,218162,Ardmore,neighborhood
6825463521000,1839 W 1st St,27104,Winston Salem,NC,36.096728,-80.271591,37067,SingleFamily,2018,1952,27007,1382,3.0,2,240055,West Highlands,neighborhood
6844035677000,2811 Thomasville Rd,27107,Winston Salem,NC,36.062024,-80.21606,37067,SingleFamily,2018,1948,10454,630,1.0,2,27933,Waughtown,neighborhood
6846065153000,2531 Machine St,27105,Winston Salem,NC,36.123704,-80.217082,37067,SingleFamily,2018,1953,6534,1008,1.0,3,30738,Bowen Park,neighborhood
6825516481000,717 Lockland Ave,27103,Winston Salem,NC,36.08277,-80.266775,37067,SingleFamily,2018,1930,6969,1620,2.0,3,241597,Ardmore,neighborhood
6834165912000,430 W Acadia Ave,27127,Winston Salem,NC,36.070656,-80.246838,37067,SingleFamily,2018,1918,13503,2184,3.0,4,186104,Washington Park,neighborhood
6835890652000,901 N Jackson Ave,27101,Winston Salem,NC,36.105775,-80.225251,37067,SingleFamily,2018,1920,7405,1025,1.0,2,31121,East Winston,neighborhood
6827111145000,125 Rosedale Cir,27106,Winston Salem,NC,36.136843,-80.282979,37067,SingleFamily,2018,1940,14374,1617,2.0,3,194129,Woodberry Forest,neighborhood
6834841060000,728 Aureole St,27107,Winston Salem,NC,36.062826,-80.224233,37067,SingleFamily,2018,1915,7405,594,1.0,2,27614,Belview,neighborhood
6835869473000,1840 Maryland Ave,27101,Winston Salem,NC,36.097033,-80.222019,37067,SingleFamily,2018,1948,5662,768,1.0,2,26181,Skyland,neighborhood
6846123220000,1420 Douglas St,27105,Winston Salem,NC,36.112945,-80.214391,37067,SingleFamily,2018,1930,7405,936,1.0,2,34995,Dreamland,neighborhood
6824095580000,1047 Magnolia St,27103,Winston Salem,NC,36.077268,-80.283978,37067,SingleFamily,2018,1941,18295,1589,1.5,3,239239,Ardmore,neighborhood
6835114118000,719 Walnut St,27101,Winston Salem,NC,36.082337,-80.247371,37067,SingleFamily,2018,1953,7405,800,1.0,2,80706,West Salem,neighborhood
6825592523000,1715 Virginia Rd,27104,Winston Salem,NC,36.105086,-80.268679,37067,SingleFamily,2018,1925,14810,3185,2.5,5,538402,West Highlands,neighborhood
6844375650000,1712 Rockford St,27107,Winston Salem,NC,36.072937,-80.206196,37067,SingleFamily,2018,1955,10454,832,1.0,2,34777,Forest Park,neighborhood
6834835951000,2801 Urban St,27107,Winston Salem,NC,36.062635,-80.222902,37067,SingleFamily,2018,1950,7405,1080,1.0,3,29584,Belview,neighborhood
6844279027000,1434 Marne St,27107,Winston Salem,NC,36.071456,-80.208254,37067,SingleFamily,2018,1953,13939,952,1.0,4,38421,Forest Park,neighborhood
6835120608000,606 Mulberry St,27101,Winston Salem,NC,36.086448,-80.248819,37067,SingleFamily,2018,1941,4791,860,1.0,2,96681,West Salem,neighborhood
6844262622000,1331 Bretton St,27107,Winston Salem,NC,36.070179,-80.210616,37067,SingleFamily,2018,1927,8712,1062,1.0,2,57199,Forest Park,neighborhood
6816583190000,140 Endsley Ave,27106,Winston Salem,NC,36.12825,-80.302347,37067,SingleFamily,2018,1946,7405,952,1.0,2,74281,West Polo Road,neighborhood
6834217642000,211 Sundown St,27127,Winston Salem,NC,36.056127,-80.242487,37067,SingleFamily,2018,1946,8712,1000,2.0,2,86537,Konnoak,neighborhood
6825012130000,814 Bellview St,27103,Winston Salem,NC,36.081761,-80.285212,37067,SingleFamily,2018,1953,8276,1208,2.0,2,196618,Ardmore,neighborhood
6826813159000,1126 Thurmond St,27105,Winston Salem,NC,36.109715,-80.258141,37067,SingleFamily,2018,1955,10454,1008,1.0,3,39679,Boston Thurmon,neighborhood
6827028258000,111 Idlewilde Dr,27106,Winston Salem,NC,36.139985,-80.284031,37067,SingleFamily,2018,1938,16117,1582,2.0,2,204027,Winston-Salem,city
6826107898000,701 Roslyn Rd,27104,Winston Salem,NC,36.108637,-80.28033,37067,SingleFamily,2018,1937,15681,2962,3.0,4,677008,Buena Vista,neighborhood
6826834791000,1729 Thurmond St,27105,Winston Salem,NC,36.116601,-80.257801,37067,SingleFamily,2018,1962,6098,1015,1.0,3,,Boston Thurmon,neighborhood
6825482331000,1947 Angelo St,27104,Winston Salem,NC,36.101676,-80.272019,37067,SingleFamily,2018,1953,12196,1569,2.0,3,246898,West Highlands,neighborhood
6834458955000,2421 Patria St,27127,Winston Salem,NC,36.068093,-80.235519,37067,SingleFamily,2018,1924,7405,1234,1.0,2,77321,Sunnyside,neighborhood
6834870039000,2033 Althea St,27107,Winston Salem,NC,36.07134,-80.224823,37067,SingleFamily,2018,1915,7405,954,1.0,3,32618,Forest Park,neighborhood
6844273955000,1324 Belleauwood St,27107,Winston Salem,NC,36.073832,-80.21023,37067,SingleFamily,2018,1957,8276,768,1.0,2,27576,Forest Park,neighborhood
6824592693000,954 Madison Ave,27103,Winston Salem,NC,36.077853,-80.26801,37067,SingleFamily,2018,1950,14374,1288,2.0,3,178716,Ardmore,neighborhood
6836460363000,2717 Ivy Ave,27105,Winston Salem,NC,36.124028,-80.23905,37067,SingleFamily,2018,1947,7405,900,1.0,2,27197,Glenn Avenue,neighborhood
6815905013000,2732 Lyndhurst Ave,27103,Winston Salem,NC,36.07875,-80.287591,37067,SingleFamily,2018,1959,11325,1410,1.5,3,197373,Ardmore,neighborhood
6854074712000,2824 Frank St,27107,Winston Salem,NC,36.073461,-80.182934,37067,SingleFamily,2018,1957,15681,867,1.0,2,49385,Parkview,neighborhood
6824294472000,1113 Ebert St,27103,Winston Salem,NC,36.077208,-80.277559,37067,SingleFamily,2018,1930,9583,1092,1.0,2,153798,Ardmore,neighborhood
6834385226000,1810 S Main St,27127,Winston Salem,NC,36.07443,-80.240106,37067,SingleFamily,2018,1915,6969,1610,2.0,3,204369,Washington Park,neighborhood
6835017921000,706 S Green St,27101,Winston Salem,NC,36.084307,-80.249753,37067,SingleFamily,2018,1920,7405,1922,2.0,4,196398,West Salem,neighborhood
6824397064000,1143 Miller St,27103,Winston Salem,NC,36.076208,-80.273168,37067,SingleFamily,2018,1948,12196,832,2.0,3,197643,Ardmore,neighborhood
6827110967000,1203 Polo Rd,27106,Winston Salem,NC,36.139115,-80.283312,37067,SingleFamily,2018,1925,32670,1171,1.5,2,135104,Winston-Salem,city
6837438138000,549 Efird St,27105,Winston Salem,NC,36.142877,-80.236744,37067,SingleFamily,2018,1940,11761,1663,2.0,3,56168,Ogburn Station,neighborhood
6836838001000,1619 N Gray Ave,27105,Winston Salem,NC,36.115131,-80.222837,37067,SingleFamily,2018,1949,5662,808,1.0,2,26201,North East Winston,neighborhood
6834247773000,145 Edgewood Cir,27127,Winston Salem,NC,36.064675,-80.242474,37067,SingleFamily,2018,1950,8712,768,1.0,2,46920,South Park,neighborhood
6844054968000,2215 Colony St,27107,Winston Salem,NC,36.068361,-80.216563,37067,SingleFamily,2018,1905,3484,756,1.0,2,29532,Waughtown,neighborhood
6834971801000,1963 Dew Ave,27107,Winston Salem,NC,36.073341,-80.221202,37067,SingleFamily,2018,1990,9147,1104,1.5,3,79377,Forest Park,neighborhood
6826756675000,745 W Twenty Fifth And One Half St,27105,Winston Salem,NC,36.121947,-80.260653,37067,SingleFamily,2018,1946,4791,816,1.0,2,28239,Boston Thurmon,neighborhood
6826210951000,788 Arbor Rd,27104,Winston Salem,NC,36.11147,-80.279514,37067,SingleFamily,2018,1929,15681,4100,4.0,4,814901,Buena Vista,neighborhood
6827013670000,1318 Polo Rd,27106,Winston Salem,NC,36.138032,-80.285608,37067,SingleFamily,2018,1958,13939,1296,2.0,3,157871,Woodberry Forest,neighborhood
6835890658000,903 N Jackson Ave,27101,Winston Salem,NC,36.105911,-80.22525,37067,SingleFamily,2018,1920,5227,883,1.0,2,,East Winston,neighborhood
6834857769000,748 E Sprague St,27107,Winston Salem,NC,36.067785,-80.222291,37067,SingleFamily,2018,1948,7840,878,1.0,2,31730,Belview,neighborhood
6825580333000,306 Wiley Ave,27104,Winston Salem,NC,36.101759,-80.269291,37067,SingleFamily,2018,1953,10454,1064,1.5,2,190805,West Highlands,neighborhood
6846137086000,1513 Emerald St,27105,Winston Salem,NC,36.115343,-80.212753,37067,SingleFamily,2018,1928,4356,1408,1.0,3,,Dreamland,neighborhood
6846137086000,1513 Emerald St,27105,Winston Salem,NC,36.115343,-80.212753,37067,SingleFamily,2018,1928,5227,1408,1.0,3,,Dreamland,neighborhood
6846137086000,1513 Emerald St,27105,Winston Salem,NC,36.115343,-80.212753,37067,SingleFamily,2018,1928,2178,1408,1.0,3,,Dreamland,neighborhood
6846137086000,1513 Emerald St,27105,Winston Salem,NC,36.115343,-80.212753,37067,SingleFamily,2018,1928,5662,1408,1.0,3,,Dreamland,neighborhood
6846137086000,1513 Emerald St,27105,Winston Salem,NC,36.115343,-80.212753,37067,SingleFamily,2018,1928,2178,1408,1.0,3,,Dreamland,neighborhood
6825221424000,2362 Elizabeth Ave,27103,Winston Salem,NC,36.085468,-80.278867,37067,MultiFamily2To4,2018,1929,10890,3600,3.5,5,317367,Ardmore,neighborhood
6825711790000,615 Corona St,27103,Winston Salem,NC,36.083545,-80.26165,37067,SingleFamily,2018,1951,16400,910,1.0,2,128584,Ardmore,neighborhood
6834558812000,2414 Vargrave St,27127,Winston Salem,NC,36.067804,-80.232258,37067,SingleFamily,2018,1920,3920,788,1.0,2,35768,Sunnyside,neighborhood
6844136678000,2718 Peachtree St,27107,Winston Salem,NC,36.062103,-80.212342,37067,SingleFamily,2018,1954,7405,1040,1.0,3,36237,Waughtown,neighborhood
6834371164000,130 W Acadia Ave,27127,Winston Salem,NC,36.071288,-80.241325,37067,SingleFamily,2018,1935,20473,1079,1.0,2,,Washington Park,neighborhood
6834371164000,130 W Acadia Ave,27127,Winston Salem,NC,36.071288,-80.241325,37067,SingleFamily,2018,1935,11325,1079,1.0,2,,Washington Park,neighborhood
6834433159000,2815 Stockton St,27127,Winston Salem,NC,36.060496,-80.237091,37067,SingleFamily,2018,1950,7405,1110,1.0,2,80990,South Park,neighborhood
6834206298000,3247 Konnoak Dr,27127,Winston Salem,NC,36.052462,-80.242588,37067,SingleFamily,2018,1958,12196,1344,1.5,3,124325,Konnoak,neighborhood
6845278797000,2805 Rowell St,27101,Winston Salem,NC,36.100816,-80.208792,37067,SingleFamily,2018,1954,22215,1224,1.0,2,39707,Skyland,neighborhood
6826846536000,2042 Harrison Ave,27105,Winston Salem,NC,36.119009,-80.257347,37067,SingleFamily,2018,1930,6098,672,1.0,2,23544,Boston Thurmon,neighborhood
6826846536000,2042 Harrison Ave,27105,Winston Salem,NC,36.119009,-80.257347,37067,SingleFamily,2018,1930,6098,672,1.0,2,23544,Boston Thurmon,neighborhood
6826202429000,625 Arbor Rd,27104,Winston Salem,NC,36.107576,-80.278865,37067,SingleFamily,2018,1936,15681,3438,3.0,4,648268,Buena Vista,neighborhood
6825505616000,849 Madison Ave,27103,Winston Salem,NC,36.08071,-80.267305,37067,SingleFamily,2018,1948,11325,1702,2.0,3,235139,Ardmore,neighborhood
6845582744000,3304 Old Greensboro Rd,27101,Winston Salem,NC,36.10358,-80.200887,37067,SingleFamily,2018,1967,9147,1336,1.5,3,67171,City View,neighborhood
6824175491000,1421 Kenwood St,27103,Winston Salem,NC,36.07168,-80.280448,37067,SingleFamily,2018,1956,8712,925,1.0,3,105959,Ardmore,neighborhood
6826736403000,933 Taft St,27105,Winston Salem,NC,36.115848,-80.260789,37067,SingleFamily,2018,1936,7405,718,1.0,2,25129,Boston Thurmon,neighborhood
6834310796000,3017 Luther St,27127,Winston Salem,NC,36.056527,-80.241292,37067,SingleFamily,2018,1948,10018,860,1.0,3,74533,Konnoak,neighborhood
6826827978000,1607 Harrison Ave,27105,Winston Salem,NC,36.114669,-80.256795,37067,SingleFamily,2018,1956,5662,924,1.0,3,31317,Boston Thurmon,neighborhood
6835767067000,1514 E 1st St,27101,Winston Salem,NC,36.095977,-80.226081,37067,SingleFamily,2018,1927,6534,1404,2.0,3,41754,East Winston,neighborhood
6844173643000,1717 Peachtree St,27107,Winston Salem,NC,36.072943,-80.213616,37067,SingleFamily,2018,1915,6969,840,1.0,3,30343,Forest Park,neighborhood
6844176745000,1707 Longview Dr,27107,Winston Salem,NC,36.073287,-80.212627,37067,SingleFamily,2018,1952,5227,1020,1.0,3,51052,Forest Park,neighborhood
6836719129000,1220 N Jackson Ave,27101,Winston Salem,NC,36.110046,-80.22575,37067,SingleFamily,2018,1915,5662,854,1.0,2,28963,East Winston,neighborhood
6845274711000,542 Edna St,27101,Winston Salem,NC,36.100637,-80.210417,37067,SingleFamily,2018,1926,30927,904,1.0,2,,Skyland,neighborhood
6836364378000,2730 N Glenn Ave,27105,Winston Salem,NC,36.124161,-80.241025,37067,SingleFamily,2018,1928,7405,1926,1.5,4,56612,Glenn Avenue,neighborhood
6826217759000,779 Oaklawn Ave,27104,Winston Salem,NC,36.111119,-80.277147,37067,SingleFamily,2018,1926,15681,2727,2.5,3,562937,Buena Vista,neighborhood
6844168673000,1305 Bretton St,27107,Winston Salem,NC,36.070191,-80.211802,37067,SingleFamily,2018,1924,8276,1822,2.0,5,49532,Forest Park,neighborhood
6826208583000,630 N Stratford Rd,27104,Winston Salem,NC,36.107723,-80.276657,37067,SingleFamily,2018,2019,15681,3903,5.0,5,1057319,Buena Vista,neighborhood
6816450982000,55 Carter Cir,27106,Winston Salem,NC,36.12224,-80.30667,37067,SingleFamily,2018,1927,18730,1316,2.0,2,102087,Mount Tabor,neighborhood
6825117979000,2408 Rosewood Ave,27103,Winston Salem,NC,36.084296,-80.280011,37067,SingleFamily,2018,1938,10890,2122,3.0,4,362107,Ardmore,neighborhood
6834802379000,735 Ferndale Ave,27107,Winston Salem,NC,36.052914,-80.22367,37067,SingleFamily,2018,1957,5227,768,1.0,2,25653,Easton,neighborhood
6834268863000,2201 S Broad St,27127,Winston Salem,NC,36.070438,-80.242287,37067,SingleFamily,2018,1935,9147,1443,1.0,3,134990,Washington Park,neighborhood
6845372302000,2804 Old Greensboro Rd,27101,Winston Salem,NC,36.099598,-80.207712,37067,SingleFamily,2018,1935,7405,910,1.0,3,40367,City View,neighborhood
6834800328000,715 Ferndale Ave,27107,Winston Salem,NC,36.052904,-80.224516,37067,SingleFamily,2018,1958,5227,942,1.0,2,29071,Easton,neighborhood
6826814992000,1333 Thurmond St,27105,Winston Salem,NC,36.111756,-80.25773,37067,SingleFamily,2018,1952,6969,806,2.0,2,28120,Boston Thurmon,neighborhood
6844055294000,1050 E Devonshire St,27107,Winston Salem,NC,36.066318,-80.216051,37067,SingleFamily,2018,1950,11325,1112,2.0,3,61566,Waughtown,neighborhood
6845587676000,401 Buick St,27101,Winston Salem,NC,36.103358,-80.199095,37067,SingleFamily,2018,1969,13503,1068,1.0,3,103825,City View,neighborhood
6844563754000,1813 Waughtown St,27107,Winston Salem,NC,36.070615,-80.200015,37067,SingleFamily,2018,1947,7840,912,1.0,2,40298,Flat Rock,neighborhood
6824199330000,2343 Jefferson Ave,27103,Winston Salem,NC,36.076839,-80.279406,37067,SingleFamily,2018,1948,7405,1270,1.5,3,159051,Ardmore,neighborhood
6825238258000,2300 Queen St,27103,Winston Salem,NC,36.087808,-80.276437,37067,SingleFamily,2018,1950,10890,1606,1.0,3,234800,Ardmore,neighborhood
6825418476000,715 Watson Ave,27103,Winston Salem,NC,36.082869,-80.26955,37067,MultiFamily2To4,2018,1927,5662,2600,3.0,6,326091,Ardmore,neighborhood
6834380632000,1708 Doune St,27127,Winston Salem,NC,36.075357,-80.241735,37067,SingleFamily,2018,1930,3484,1025,1.0,2,88615,Washington Park,neighborhood
6826115183000,720 Roslyn Rd,27104,Winston Salem,NC,36.109316,-80.281091,37067,SingleFamily,2018,1938,15681,4025,3.5,4,969511,Buena Vista,neighborhood
6836366393000,2715 N Glenn Ave,27105,Winston Salem,NC,36.124025,-80.24032,37067,SingleFamily,2018,1927,7405,1268,1.0,3,46984,Glenn Avenue,neighborhood
6834557936000,344 E Devonshire St,27127,Winston Salem,NC,36.068198,-80.232515,37067,SingleFamily,2018,1953,7405,956,1.0,2,86217,Sunnyside,neighborhood
6834239847000,2723 Edwards St,27127,Winston Salem,NC,36.062315,-80.241885,37067,SingleFamily,2018,1954,10890,1008,1.5,3,72587,South Park,neighborhood
6825197507000,2322 Buena Vista Rd,27104,Winston Salem,NC,36.105097,-80.280785,37067,SingleFamily,2018,1928,25265,3400,3.0,4,611544,Buena Vista,neighborhood
6833084884000,3416 Potomac St,27127,Winston Salem,NC,36.048412,-80.249978,37067,SingleFamily,2018,1951,30056,1447,2.0,2,129016,Konnoak,neighborhood
6835113220000,729 Walnut St,27101,Winston Salem,NC,36.082398,-80.247698,37067,SingleFamily,2018,1950,7405,1300,1.0,4,151136,West Salem,neighborhood
6825213469000,2345 Parkway Dr,27103,Winston Salem,NC,36.082875,-80.278019,37067,SingleFamily,2018,1962,8712,1317,2.0,3,233543,Ardmore,neighborhood
6833565460000,312 Oakdale St,27107,Winston Salem,NC,36.041881,-80.232701,37067,SingleFamily,2018,2005,6098,1066,2.0,3,89586,Weston,neighborhood
6837755133000,1100 Newport St,27105,Winston Salem,NC,36.14833,-80.227651,37067,SingleFamily,2018,1947,16552,942,1.0,2,34802,Ogburn Station,neighborhood
6825620139000,1815 W Academy St,27103,Winston Salem,NC,36.084905,-80.265596,37067,SingleFamily,2018,1925,12196,1326,1.0,3,210908,Ardmore,neighborhood
6844586341000,1866 Flatrock St,27107,Winston Salem,NC,36.074932,-80.199077,37067,SingleFamily,2018,1996,17424,1161,2.0,3,91314,Flat Rock,neighborhood
6825560639000,1836 Runnymede Rd,27104,Winston Salem,NC,36.097263,-80.269201,37067,SingleFamily,2018,1930,18295,2404,3.0,4,257464,West Highlands,neighborhood
6835876246000,1806 E 4th St,27101,Winston Salem,NC,36.099304,-80.22318,37067,SingleFamily,2018,1951,6534,904,1.0,0,34108,Skyland,neighborhood
6825571837000,1821 Georgia Ave,27104,Winston Salem,NC,36.100478,-80.268888,37067,SingleFamily,2018,1925,17859,3732,4.0,4,782549,West Highlands,neighborhood
6834171120000,529 W Acadia Ave,27127,Winston Salem,NC,36.071102,-80.248182,37067,SingleFamily,2018,1957,12196,1040,1.0,3,98409,Washington Park,neighborhood
6833282899000,327 Strickland Ave,27127,Winston Salem,NC,36.048596,-80.243858,37067,SingleFamily,2018,1940,12632,780,1.0,2,50759,Konnoak,neighborhood
6835669006000,1329 C E Gray Dr,27101,Winston Salem,NC,36.095938,-80.229015,37067,SingleFamily,2018,1940,3484,1168,1.0,3,37611,East Winston,neighborhood
6825206257000,1028 S Hawthorne Rd,27103,Winston Salem,NC,36.079554,-80.276945,37067,SingleFamily,2018,1947,9147,1556,2.0,3,235296,Ardmore,neighborhood
6826805768000,1101 Thurmond St,27105,Winston Salem,NC,36.108603,-80.257421,37067,SingleFamily,2018,1915,10890,1285,1.0,3,52499,Boston Thurmon,neighborhood
6844173296000,1205 Marne St,27107,Winston Salem,NC,36.071911,-80.213439,37067,SingleFamily,2018,1925,4791,1799,2.0,4,,Forest Park,neighborhood
6835994156000,837 Camel Ave,27101,Winston Salem,NC,36.104546,-80.220469,37067,SingleFamily,2018,1940,5662,818,1.0,3,27368,Reynoldstown,neighborhood
6834066398000,709 W Sprague St,27127,Winston Salem,NC,36.069137,-80.24961,37067,SingleFamily,2018,1925,7405,894,1.0,2,89847,Washington Park,neighborhood
6825291308000,2226 Buena Vista Rd,27104,Winston Salem,NC,36.104543,-80.279309,37067,SingleFamily,2018,1926,16552,3110,2.5,4,650431,Buena Vista,neighborhood
6824491190000,1133 Irving St,27103,Winston Salem,NC,36.076392,-80.271721,37067,SingleFamily,2018,1952,10454,1300,1.0,3,193186,Ardmore,neighborhood
6824097118000,2453 Jefferson Ave,27103,Winston Salem,NC,36.076472,-80.283441,37067,SingleFamily,2018,1940,7840,1897,3.0,4,247766,Ardmore,neighborhood
6834437624000,2737 Patria St,27127,Winston Salem,NC,36.06174,-80.235871,37067,SingleFamily,2018,1962,7405,800,1.0,2,49728,South Park,neighborhood
6835975143000,1957 Maryland Ave,27101,Winston Salem,NC,36.098981,-80.220127,37067,SingleFamily,2018,1940,8712,1004,1.0,2,33001,Skyland,neighborhood
6815771540000,2925 Country Club Rd,27104,Winston Salem,NC,36.099203,-80.295932,37067,SingleFamily,2018,1951,23958,3500,4.0,4,581225,Country Club,neighborhood
6826423250000,1365 Reynolda Rd,27104,Winston Salem,NC,36.112422,-80.271716,37067,SingleFamily,2018,1940,27442,2341,2.5,4,368568,Reynolda Park,neighborhood
6836277363000,2902 NE Bon Air Ave,27105,Winston Salem,NC,36.126749,-80.243518,37067,SingleFamily,2018,1930,7405,1641,2.0,2,,Greenway,neighborhood
6844584531000,1848 Flatrock St,27107,Winston Salem,NC,36.075498,-80.199782,37067,SingleFamily,2018,1935,47480,1132,1.0,3,66083,Flat Rock,neighborhood
6825473148000,1875 Runnymede Rd,27104,Winston Salem,NC,36.09859,-80.271549,37067,SingleFamily,2018,1925,42688,3622,4.5,6,858689,West Highlands,neighborhood
6835887368000,1792 New Walkertown Rd,27101,Winston Salem,NC,36.102415,-80.222865,37067,SingleFamily,2018,1920,9583,2500,2.0,4,,East Winston,neighborhood
6815908876000,836 Knollwood St,27103,Winston Salem,NC,36.08108,-80.2864,37067,SingleFamily,2018,1940,8712,1227,2.0,2,167180,Knollwood Manor,neighborhood
6834903387000,921 Ferndale Ave,27107,Winston Salem,NC,36.052903,-80.219998,37067,SingleFamily,2018,1966,6098,768,1.0,2,25265,Easton,neighborhood
6844052684000,1018 E Sprague St,27107,Winston Salem,NC,36.067437,-80.217142,37067,SingleFamily,2018,1941,7840,1603,2.0,3,95179,Waughtown,neighborhood
6815035620000,124 S Gordon Dr,27104,Winston Salem,NC,36.088234,-80.318163,37067,SingleFamily,2018,1966,14810,1200,2.0,2,121228,South Fork,neighborhood
6825527528000,1839 Elizabeth Ave,27103,Winston Salem,NC,36.085979,-80.266672,37067,SingleFamily,2018,1925,7405,1521,1.0,3,206631,Ardmore,neighborhood
6825004636000,843 Bellview St,27103,Winston Salem,NC,36.08055,-80.284489,37067,SingleFamily,2018,1947,8276,1996,1.5,3,257258,Ardmore,neighborhood
6835990359000,850 Rich Ave,27101,Winston Salem,NC,36.105184,-80.221859,37067,SingleFamily,2018,1941,5227,1200,1.0,3,31275,Reynoldstown,neighborhood
6825572252000,1803 Runnymede Rd,27104,Winston Salem,NC,36.098699,-80.268455,37067,SingleFamily,2018,1951,20473,2459,4.0,3,471858,West Highlands,neighborhood
6826419567000,1711 Meadowbrook Dr,27104,Winston Salem,NC,36.11068,-80.269692,37067,SingleFamily,2018,1950,10890,2119,2.0,4,334684,Buena Vista,neighborhood
6845694552000,438 Crews St,27101,Winston Salem,NC,36.105773,-80.196805,37067,SingleFamily,2018,1933,7405,872,1.0,3,39475,City View,neighborhood
6834367533000,2218 S Main St,27127,Winston Salem,NC,36.069661,-80.239302,37067,SingleFamily,2018,1916,7405,2300,4.0,4,245575,Washington Park,neighborhood
6825427064000,2018 W Academy St,27103,Winston Salem,NC,36.084472,-80.26989,37067,SingleFamily,2018,1940,7840,966,1.0,4,186253,Ardmore,neighborhood
6837564580000,4428 Carrie Ave,27105,Winston Salem,NC,36.152031,-80.234648,37067,SingleFamily,2018,1946,32670,586,1.0,2,76427,Mineral Springs,neighborhood
6834068468000,543 W Sprague St,27127,Winston Salem,NC,36.069435,-80.249045,37067,SingleFamily,2018,1953,7405,1008,1.0,3,66888,Washington Park,neighborhood
6845166061000,2215 E 1st St,27101,Winston Salem,NC,36.095959,-80.212949,37067,SingleFamily,2018,1954,53143,1580,2.0,3,94524,Winston-Salem,city
6837448109000,547 Ontario St,27105,Winston Salem,NC,36.145648,-80.236869,37067,SingleFamily,2018,1930,8712,719,1.0,2,27342,Ogburn Station,neighborhood
6836241431000,2330 Greenway Ave,27105,Winston Salem,NC,36.118685,-80.245747,37067,SingleFamily,2018,1928,17424,1419,1.0,3,68559,Greenway,neighborhood
6826316037000,2009 Sussex Ln,27104,Winston Salem,NC,36.109245,-80.274121,37067,SingleFamily,2018,1950,13068,1939,2.0,4,373646,Buena Vista,neighborhood
6825601620000,822 Gales Ave,27103,Winston Salem,NC,36.080563,-80.265248,37067,SingleFamily,2018,1937,11325,1791,2.0,3,272945,Ardmore,neighborhood
6835772187000,1419 E 3rd St,27101,Winston Salem,NC,36.098985,-80.22774,37067,SingleFamily,2018,1940,6098,1406,1.0,3,43887,East Winston,neighborhood
6816735886000,3510 Buena Vista Rd,27106,Winston Salem,NC,36.116669,-80.294981,37067,SingleFamily,2018,1975,23958,3649,2.5,5,607661,Merrimont,neighborhood
6835673129000,1201 E 3rd St,27101,Winston Salem,NC,36.099011,-80.230985,37067,SingleFamily,2018,1975,6969,1020,1.0,2,30430,East Winston,neighborhood
6824098990000,1226 S Hawthorne Rd,27103,Winston Salem,NC,36.078456,-80.282856,37067,SingleFamily,2018,1928,9147,1904,2.0,3,288488,Ardmore,neighborhood
6826843517000,2048 Thurmond St,27105,Winston Salem,NC,36.119014,-80.258437,37067,SingleFamily,2018,1937,7405,918,2.0,2,31158,Boston Thurmon,neighborhood
6826111890000,766 Sylvan Rd,27104,Winston Salem,NC,36.111137,-80.282401,37067,SingleFamily,2018,1953,12196,1642,2.0,3,344525,Buena Vista,neighborhood
6825501910000,831 Watson Ave,27103,Winston Salem,NC,36.081351,-80.268709,37067,SingleFamily,2018,1923,11325,1449,1.0,3,205122,Ardmore,neighborhood
6836820723000,1612 N Jackson Ave,27105,Winston Salem,NC,36.114278,-80.22546,37067,SingleFamily,2018,1937,5227,672,1.0,2,21329,North East Winston,neighborhood
6826214479000,752 Oaklawn Ave,27104,Winston Salem,NC,36.110324,-80.278054,37067,SingleFamily,2018,1928,15681,2687,2.5,4,601105,Buena Vista,neighborhood
6844377257000,1531 Harding St,27107,Winston Salem,NC,36.072036,-80.205446,37067,SingleFamily,2018,1953,8276,1140,1.5,3,41560,Forest Park,neighborhood
6835992604000,903 Rich Ave,27101,Winston Salem,NC,36.105845,-80.221359,37067,SingleFamily,2018,2005,5662,1035,2.0,3,83294,Reynoldstown,neighborhood
6844440514000,2330 Marble St,27107,Winston Salem,NC,36.064523,-80.204459,37067,SingleFamily,2018,1946,8712,700,1.0,2,20945,Waughtown,neighborhood
6825309384000,1020 Irving St,27103,Winston Salem,NC,36.079763,-80.272477,37067,SingleFamily,2018,1941,12632,1697,1.0,4,228129,Ardmore,neighborhood
6815986908000,2635 Forest Dr,27104,Winston Salem,NC,36.10334,-80.287736,37067,SingleFamily,2018,1948,14810,1692,2.0,3,319092,Buena Vista,neighborhood
6825575867000,268 N Hawthorne Rd,27104,Winston Salem,NC,36.100506,-80.267467,37067,SingleFamily,2018,1951,11325,2274,2.0,4,384970,West Highlands,neighborhood
6825002734000,842 Bellview St,27103,Winston Salem,NC,36.080691,-80.285172,37067,SingleFamily,2018,1938,9147,1525,1.5,2,196364,Ardmore,neighborhood
6834879614000,1910 Dew Ave,27107,Winston Salem,NC,36.07286,-80.221846,37067,SingleFamily,2018,1956,20908,940,1.0,3,36303,Forest Park,neighborhood
6837521928000,604 Efird St,27105,Winston Salem,NC,36.142335,-80.235856,37067,SingleFamily,2018,1920,17859,1116,1.0,3,35811,Ogburn Station,neighborhood
6824597300000,1014 Lockland Ave,27103,Winston Salem,NC,36.077001,-80.266595,37067,SingleFamily,2018,1952,9147,1042,2.0,2,140385,Ardmore,neighborhood
6825012527000,712 Bellview St,27103,Winston Salem,NC,36.082967,-80.285259,37067,SingleFamily,2018,1940,9147,1228,2.0,2,203042,Ardmore,neighborhood
6825584882000,429 Horace Mann Ave,27104,Winston Salem,NC,36.10312,-80.267785,37067,SingleFamily,2018,1952,6969,1154,1.0,3,204524,West Highlands,neighborhood
6826833100000,1600 Thurmond St,27105,Winston Salem,NC,36.114953,-80.258401,37067,MultiFamily2To4,2018,1958,13503,1400,2.0,3,73158,Boston Thurmon,neighborhood
6816377430000,1261 Millerwood Dr,27106,Winston Salem,NC,36.126121,-80.307929,37067,SingleFamily,2018,1946,66646,1860,2.0,3,178397,West Polo Road,neighborhood
6825564407000,1619 Hyde Ave,27104,Winston Salem,NC,36.096643,-80.267958,37067,SingleFamily,2018,1925,10018,2586,3.0,3,510537,West Highlands,neighborhood
6834336174000,2811 Woodleigh St,27127,Winston Salem,NC,36.060324,-80.239407,37067,SingleFamily,2018,1925,6969,854,1.0,3,,South Park,neighborhood
6837336906000,4068 Leo St,27105,Winston Salem,NC,36.145004,-80.24093,37067,SingleFamily,2018,1939,6969,948,1.0,2,48127,Montview,neighborhood
6815435934000,412 Burkewood Dr,27104,Winston Salem,NC,36.089322,-80.304594,37067,SingleFamily,2018,1959,13068,1053,1.0,2,171068,Country Club,neighborhood
6825582887000,434 Horace Mann Ave,27104,Winston Salem,NC,36.103297,-80.268444,37067,SingleFamily,2018,1951,10454,1772,2.0,3,192232,West Highlands,neighborhood
6816583698000,176 Endsley Ave,27106,Winston Salem,NC,36.129827,-80.30236,37067,SingleFamily,2018,1955,15246,1292,1.0,2,121191,West Polo Road,neighborhood
6834303157000,3247 Anderson Dr,27127,Winston Salem,NC,36.052165,-80.24035,37067,SingleFamily,2018,1948,7405,1623,2.0,3,123860,Konnoak,neighborhood
6844774749000,2400 Waughtown St,27107,Winston Salem,NC,36.073599,-80.19303,37067,SingleFamily,2018,1997,14810,1040,2.0,3,81208,Parkview,neighborhood
6826841562000,2041 Cannon Ave,27105,Winston Salem,NC,36.118882,-80.258931,37067,SingleFamily,2018,1950,6969,720,1.0,2,22884,Boston Thurmon,neighborhood
6834977635000,1905 Francis St,27107,Winston Salem,NC,36.072931,-80.219072,37067,SingleFamily,2018,1927,6969,812,1.0,2,29693,Forest Park,neighborhood
6827013221000,136 Harmon Ave,27106,Winston Salem,NC,36.136963,-80.285776,37067,SingleFamily,2018,1939,17859,2105,2.0,3,211882,Woodberry Forest,neighborhood
6825403002000,2194 Ardsley St,27103,Winston Salem,NC,36.07901,-80.271361,37067,SingleFamily,2018,1945,8276,816,1.0,2,121181,Ardmore,neighborhood
6844136009000,2744 Ludwig St,27107,Winston Salem,NC,36.060455,-80.212573,37067,SingleFamily,2018,1950,10018,1000,1.5,3,32374,Waughtown,neighborhood
6816460201000,33 Carter Cir,27106,Winston Salem,NC,36.122946,-80.307268,37067,SingleFamily,2018,1979,15681,1331,1.5,2,134968,Mount Tabor,neighborhood
6844014352000,3215 Heitman Dr,27107,Winston Salem,NC,36.055536,-80.216408,37067,SingleFamily,2018,1960,23086,1824,2.0,3,65191,Easton,neighborhood
6825109985000,2390 Fairway Dr,27103,Winston Salem,NC,36.081383,-80.279207,37067,SingleFamily,2018,1939,10454,1786,3.0,3,346963,Ardmore,neighborhood
6825304862000,918 S Hawthorne Rd,27103,Winston Salem,NC,36.081016,-80.274306,37067,SingleFamily,2018,1926,6098,1400,1.0,2,219923,Ardmore,neighborhood
6826758421000,2516 Ocono St,27105,Winston Salem,NC,36.121313,-80.260188,37067,SingleFamily,2018,1959,9147,1100,1.0,2,23081,Boston Thurmon,neighborhood
6834246352000,183 Edgewood Cir,27127,Winston Salem,NC,36.063533,-80.242862,37067,SingleFamily,2018,1950,8276,768,1.0,2,46395,South Park,neighborhood
6834425233000,2920 Patria St,27127,Winston Salem,NC,36.057898,-80.236433,37067,SingleFamily,2018,1957,7405,874,1.0,2,31240,South Park,neighborhood
6844065396000,1147 Waughtown St,27107,Winston Salem,NC,36.069389,-80.216107,37067,SingleFamily,2018,1905,20037,2535,2.5,5,,Forest Park,neighborhood
6816351572000,3291 Whitaker Ct,27106,Winston Salem,NC,36.121072,-80.309762,37067,SingleFamily,2018,1991,17859,1379,2.5,4,154844,Mount Tabor,neighborhood
6824194420000,2372 Walker Ave,27103,Winston Salem,NC,36.077099,-80.281142,37067,SingleFamily,2018,1938,7405,2099,2.0,3,256441,Ardmore,neighborhood
6836157060000,34 Dorgan Dr,27105,Winston Salem,NC,36.120308,-80.246823,37067,SingleFamily,2018,1996,10018,1144,2.0,3,82598,Greenway,neighborhood
6826834184000,1609 Thurmond St,27105,Winston Salem,NC,36.115082,-80.257786,37067,SingleFamily,2018,1947,6098,910,1.0,2,33008,Boston Thurmon,neighborhood
6854181511000,2962 Sprague Ct,27107,Winston Salem,NC,36.075666,-80.180603,37067,SingleFamily,2018,1939,10018,964,1.0,3,,Parkview,neighborhood
6825335168000,338 Miller St,27103,Winston Salem,NC,36.087555,-80.274019,37067,SingleFamily,2018,1940,7840,988,1.0,2,164633,Ardmore,neighborhood
6824184965000,1141 Collingwood St,27103,Winston Salem,NC,36.075886,-80.280937,37067,SingleFamily,2018,2000,6534,1327,2.0,3,209422,Ardmore,neighborhood
6836279155000,2839 NE Bon Air Ave,27105,Winston Salem,NC,36.12624,-80.242837,37067,SingleFamily,2018,1930,11325,2903,2.0,4,,Greenway,neighborhood
6844992150000,2725 Reid St,27107,Winston Salem,NC,36.07722,-80.186911,37067,SingleFamily,2018,1935,10018,1260,1.0,3,43692,Parkview,neighborhood
6834177784000,334 Cascade Ave,27127,Winston Salem,NC,36.072972,-80.246044,37067,SingleFamily,2018,1926,8712,1632,2.0,3,237311,Washington Park,neighborhood
6825411327000,669 Irving St,27103,Winston Salem,NC,36.082614,-80.272077,37067,SingleFamily,2018,1926,4791,1937,1.5,4,262978,Ardmore,neighborhood
6844051469000,1015 E Devonshire St,27107,Winston Salem,NC,36.066991,-80.21752,37067,SingleFamily,2018,1990,7405,1008,1.0,3,,Waughtown,neighborhood
6816747050000,3521 Buena Vista Rd,27106,Winston Salem,NC,36.11704,-80.294133,37067,SingleFamily,2018,1976,25264,3055,4.0,4,515131,Merrimont,neighborhood
6844062824000,2024 Milford St,27107,Winston Salem,NC,36.070738,-80.217363,37067,SingleFamily,2018,1920,6969,1117,1.0,2,31297,Forest Park,neighborhood
6825623678000,1716 Grace St,27103,Winston Salem,NC,36.086287,-80.264476,37067,SingleFamily,2018,1928,7405,1350,1.0,3,209422,Ardmore,neighborhood
6826901196000,821 Haywood St,27105,Winston Salem,NC,36.10695,-80.255244,37067,SingleFamily,2018,1953,6969,884,1.0,2,,Boston Thurmon,neighborhood
6844241032000,2713 Dudley St,27107,Winston Salem,NC,36.063034,-80.210805,37067,SingleFamily,2018,1955,7405,700,1.0,2,29920,Waughtown,neighborhood
6833393084000,3427 Anderson Dr,27127,Winston Salem,NC,36.049047,-80.240182,37067,SingleFamily,2018,1953,12632,1601,2.0,3,140261,Konnoak,neighborhood
6834069171000,700 W Devonshire St,27127,Winston Salem,NC,36.068491,-80.248676,37067,SingleFamily,2018,1966,4791,768,1.0,2,49262,Washington Park,neighborhood
6825198497000,2310 Buena Vista Rd,27104,Winston Salem,NC,36.10477,-80.279954,37067,SingleFamily,2018,1952,16117,3498,3.5,4,722695,Buena Vista,neighborhood
6834206956000,3141 Konnoak Dr,27127,Winston Salem,NC,36.054325,-80.242729,37067,SingleFamily,2018,1939,6969,1767,2.5,3,185317,Konnoak,neighborhood
6834206956000,3141 Konnoak Dr,27127,Winston Salem,NC,36.054325,-80.242729,37067,SingleFamily,2018,1939,7405,1008,2.5,3,185317,Konnoak,neighborhood
6833566460000,320 Oakdale St,27107,Winston Salem,NC,36.041889,-80.232364,37067,SingleFamily,2018,2004,6098,1066,2.0,3,89212,Weston,neighborhood
6835996326000,826 Ferrell Ave,27101,Winston Salem,NC,36.105089,-80.219873,37067,SingleFamily,2018,1951,7405,912,1.0,2,32250,Reynoldstown,neighborhood
6846062714000,2709 Manchester St,27105,Winston Salem,NC,36.125366,-80.218242,37067,SingleFamily,2018,1954,7405,714,1.0,3,,Bowen Park,neighborhood
6825919774000,714 Granville Dr,27101,Winston Salem,NC,36.083855,-80.252166,37067,SingleFamily,2018,1919,7405,2268,2.0,4,184440,West Salem,neighborhood
6825502190000,916 Madison Ave,27103,Winston Salem,NC,36.079148,-80.268041,37067,SingleFamily,2018,1950,10454,1513,2.0,3,206770,Ardmore,neighborhood
6845376780000,2850 Old Greensboro Rd,27101,Winston Salem,NC,36.100647,-80.206119,37067,SingleFamily,2018,1938,10018,1238,1.5,3,24310,City View,neighborhood
6835663433000,117 N Cleveland Ave,27101,Winston Salem,NC,36.096917,-80.230957,37067,SingleFamily,2018,1939,6534,882,1.0,2,31756,East Winston,neighborhood
6825634361000,1701 Queen St,27103,Winston Salem,NC,36.088015,-80.264225,37067,SingleFamily,2018,1951,91911,2250,2.0,5,293296,Ardmore,neighborhood
6835977350000,1973 Maryland Ave,27101,Winston Salem,NC,36.099452,-80.219425,37067,SingleFamily,2018,1962,10018,991,1.0,3,30721,Skyland,neighborhood
6837134376000,221 Forest Hill Ave,27105,Winston Salem,NC,36.143254,-80.248119,37067,SingleFamily,2018,1950,8712,1036,1.0,3,40907,Forest Hills,neighborhood
6825586818000,436 N Hawthorne Rd,27104,Winston Salem,NC,36.103305,-80.267325,37067,SingleFamily,2018,1955,11325,1742,2.0,3,285736,West Highlands,neighborhood
6825116133000,2411 Fairway Dr,27103,Winston Salem,NC,36.081847,-80.280445,37067,SingleFamily,2018,1955,16988,1356,2.0,4,255641,Ardmore,neighborhood
6844453613000,1613 Vogler St,27107,Winston Salem,NC,36.067545,-80.203486,37067,SingleFamily,2018,1955,8712,962,1.0,2,41103,Waughtown,neighborhood
6837435375000,530 Mccreary St,27105,Winston Salem,NC,36.143325,-80.237749,37067,SingleFamily,2018,1939,23522,1130,2.0,3,53140,Ogburn Station,neighborhood
6836842054000,1602 NE Ashley School Cir,27105,Winston Salem,NC,36.117922,-80.224778,37067,SingleFamily,2018,1978,8276,1008,1.0,3,30651,North East Winston,neighborhood
6834084090000,362 Park Blvd,27127,Winston Salem,NC,36.073588,-80.250347,37067,SingleFamily,2018,1949,16117,1380,2.0,2,221765,Washington Park,neighborhood
6834921404000,796 Crowder St,27107,Winston Salem,NC,36.058596,-80.221026,37067,SingleFamily,2018,1969,10018,1002,1.0,2,33660,Easton,neighborhood
6815027351000,239 S Gordon Dr,27104,Winston Salem,NC,36.084713,-80.31733,37067,SingleFamily,2018,1954,20037,1078,1.0,2,123145,South Fork,neighborhood
6837630955000,4140 Tise Ave,27105,Winston Salem,NC,36.145033,-80.232639,37067,Mobile,2018,1999,14810,1150,2.0,3,63740,Ogburn Station,neighborhood
6834459892000,2428 Lomond St,27127,Winston Salem,NC,36.067743,-80.235032,37067,SingleFamily,2018,1910,7405,623,1.0,2,53922,Sunnyside,neighborhood
6833563399000,300 Oakdale St,27107,Winston Salem,NC,36.041865,-80.233274,37067,SingleFamily,2018,2005,10454,1066,2.0,3,89106,Weston,neighborhood
6815787011000,2848 Reynolds Dr,27104,Winston Salem,NC,36.100589,-80.294045,37067,SingleFamily,2018,1955,20037,2325,2.5,3,553526,Country Club,neighborhood
6824595235000,1031 Madison Ave,27103,Winston Salem,NC,36.076845,-80.267187,37067,SingleFamily,2018,1952,11325,1572,2.0,3,183192,Ardmore,neighborhood
6816366896000,1241 Millerwood Dr,27106,Winston Salem,NC,36.12479,-80.308027,37067,SingleFamily,2018,1980,43560,1380,2.0,3,156533,West Polo Road,neighborhood
6825107715000,2411 Maplewood Ave,27103,Winston Salem,NC,36.080815,-80.280114,37067,MultiFamily2To4,2018,1927,10454,1438,1.5,2,246018,Ardmore,neighborhood
6834465418000,120 E Sprague St,27127,Winston Salem,NC,36.069522,-80.236684,37067,SingleFamily,2018,1921,7405,1416,1.0,3,148797,Sunnyside,neighborhood
6844144111000,2636 Peachtree St,27107,Winston Salem,NC,36.06327,-80.213235,37067,SingleFamily,2018,2007,7405,1126,2.0,3,84160,Waughtown,neighborhood
6825010180000,815 Knollwood St,27103,Winston Salem,NC,36.081749,-80.285719,37067,SingleFamily,2018,1942,9147,1772,1.5,3,236458,Ardmore,neighborhood
6836341803000,2354 N Patterson Ave,27105,Winston Salem,NC,36.119939,-80.242303,37067,SingleFamily,2018,1930,8712,1155,1.0,2,,Greenway,neighborhood
6834207889000,203 Haverhill St,27127,Winston Salem,NC,36.054104,-80.242283,37067,SingleFamily,2018,1939,15246,1060,1.0,2,96559,Konnoak,neighborhood
6834274654000,215 W Banner Ave,27127,Winston Salem,NC,36.072652,-80.243705,37067,SingleFamily,2018,1920,8792,1880,2.0,3,250834,Washington Park,neighborhood
6834808709000,828 Barney Ave,27107,Winston Salem,NC,36.054048,-80.221897,37067,SingleFamily,2018,1945,7405,840,1.0,2,25485,Easton,neighborhood
6836811126000,1229 N Jackson Ave,27101,Winston Salem,NC,36.109982,-80.225089,37067,SingleFamily,2018,1950,17424,1252,1.0,3,30934,East Winston,neighborhood
6825234039000,2335 Westfield Ave,27103,Winston Salem,NC,36.087279,-80.277833,37067,SingleFamily,2018,1934,10454,2640,2.0,3,346638,Ardmore,neighborhood
6824288894000,2252 Sherwood Dr,27103,Winston Salem,NC,36.07561,-80.276085,37067,SingleFamily,2018,1938,9583,2081,2.0,3,269811,Ardmore,neighborhood
6825119447000,2379 Parkway Dr,27103,Winston Salem,NC,36.082828,-80.27943,37067,SingleFamily,2018,1952,9147,1140,1.0,2,148265,Ardmore,neighborhood
6844195620000,1428 Argonne Blvd,27107,Winston Salem,NC,36.078375,-80.213083,37067,SingleFamily,2018,1961,6534,798,1.0,2,30591,Morningside Manor,neighborhood
6826419118000,1896 Meadowbrook Dr,27104,Winston Salem,NC,36.109629,-80.269883,37067,SingleFamily,2018,1935,22215,3096,5.0,4,634490,Buena Vista,neighborhood
6834209785000,3201 Luther St,27127,Winston Salem,NC,36.053749,-80.241613,37067,SingleFamily,2018,1960,8712,1284,2.0,2,118954,Konnoak,neighborhood
6834570507000,1836 SE Center St,27127,Winston Salem,NC,36.072552,-80.235074,37067,SingleFamily,2018,1910,4791,1320,1.5,3,92226,North Carolina School of the Arts,neighborhood
6824390930000,1042 Melrose St,27103,Winston Salem,NC,36.078545,-80.275678,37067,SingleFamily,2018,1938,10454,1360,1.0,3,161976,Ardmore,neighborhood
6834161615000,515 W Sprague St,27127,Winston Salem,NC,36.069899,-80.248198,37067,MultiFamily2To4,2018,1952,7405,1024,1.0,3,61910,Washington Park,neighborhood
6837791301000,840 Essex Rd,27105,Winston Salem,NC,36.159731,-80.229275,37067,SingleFamily,2018,2002,9583,1267,2.0,3,101719,Mineral Springs,neighborhood
6826803871000,1001 Row St,27105,Winston Salem,NC,36.108682,-80.258046,37067,SingleFamily,2018,1930,8712,982,1.0,3,34746,Boston Thurmon,neighborhood
6836900263000,1016 Rich Ave,27101,Winston Salem,NC,36.107453,-80.22187,37067,SingleFamily,2018,1945,10890,1457,2.5,3,123316,Reynoldstown,neighborhood
6836900263000,1016 Rich Ave,27101,Winston Salem,NC,36.107453,-80.22187,37067,SingleFamily,2018,1945,5662,1457,2.5,3,123316,Reynoldstown,neighborhood
6835990049000,824 Rich Ave,27101,Winston Salem,NC,36.104356,-80.221852,37067,SingleFamily,2018,1940,5227,600,1.0,2,21683,Reynoldstown,neighborhood
6826103255000,507 Westover Ave,27104,Winston Salem,NC,36.106922,-80.281788,37067,Triplex,2018,1937,14810,3468,2.5,4,628998,Buena Vista,neighborhood
6844640136000,1914 Oregon St,27107,Winston Salem,NC,36.063554,-80.197696,37067,SingleFamily,2018,1952,16988,1168,2.0,2,,Waughtown,neighborhood
6824296962000,1018 Martin St,27103,Winston Salem,NC,36.078526,-80.276868,37067,SingleFamily,2018,1938,6969,1635,2.0,4,268560,Ardmore,neighborhood
6825614388000,652 Brent St,27103,Winston Salem,NC,36.082723,-80.264052,37067,SingleFamily,2018,1947,9147,1928,2.0,3,255647,Ardmore,neighborhood
6834801328000,723 Ferndale Ave,27107,Winston Salem,NC,36.052908,-80.224178,37067,SingleFamily,2018,1932,5227,912,1.0,3,40325,Easton,neighborhood
6833798374000,3648 Old Lexington Rd,27107,Winston Salem,NC,36.050055,-80.225034,37067,SingleFamily,2018,1925,15246,952,1.0,3,30158,Weston,neighborhood
6836935437000,2013 E 18th St,27105,Winston Salem,NC,36.116367,-80.220382,37067,SingleFamily,2018,1954,7405,750,1.0,2,26312,North East Winston,neighborhood
6834239190000,2784 Edwards St,27127,Winston Salem,NC,36.060187,-80.241706,37067,SingleFamily,2018,1950,17859,768,1.0,2,45775,South Park,neighborhood
6825223885000,2340 Westfield Ave,27103,Winston Salem,NC,36.08661,-80.278012,37067,SingleFamily,2018,1940,10018,1784,2.0,4,271819,Ardmore,neighborhood
6826213809000,785 Arbor Rd,27104,Winston Salem,NC,36.111443,-80.278652,37067,SingleFamily,2018,1948,15682,3254,3.0,4,557688,Buena Vista,neighborhood
6834567974000,334 Junia Ave,27127,Winston Salem,NC,36.070846,-80.232488,37067,SingleFamily,2018,1910,50,1000,1.0,3,36626,Sunnyside,neighborhood
6844352185000,2270 Pleasant St,27107,Winston Salem,NC,36.066171,-80.206956,37067,SingleFamily,2018,1982,12196,892,2.0,2,52566,Waughtown,neighborhood
