REID,street,zipcode,city,state,latitude,longitude,FIPScounty,useCode,taxAssessmentYear,yearBuilt,lotSizeSqFt,finishedSqFt,bathrooms,bedrooms,zestimate,name,type
6846390638000,3526 Carver School Rd,27105,Winston Salem,NC,36.133557,-80.208803,37067,SingleFamily,2018,2003,13503,1360,2.0,3,134749,Prospect Park,neighborhood
6807632365000,3779 Burbank Ln,27106,Winston Salem,NC,36.14231,-80.333437,37067,SingleFamily,2018,2004,27878,5188,6.0,6,759859,Forsyth Forest,neighborhood
6854767604000,464 Robbins Rd,27107,Winston Salem,NC,36.070736,-80.158175,37067,SingleFamily,2018,1964,23958,1155,1.5,3,116757,Winston-Salem,city
6816294072000,209 Hadley Ct,27106,Winston Salem,NC,36.130666,-80.312226,37067,SingleFamily,2018,1994,23522,7056,6.0,6,692304,Ridgemere,neighborhood
6805872720000,430 Gloucestershire Rd,27104,Winston Salem,NC,36.099456,-80.326191,37067,SingleFamily,2018,1976,26136,3395,5.0,5,456751,Peace Haven,neighborhood
6828433835000,144 Oak Summit Rd,27105,Winston Salem,NC,36.171798,-80.272723,37067,SingleFamily,2018,1959,32234,1400,2.0,2,123438,Hunter Hills,neighborhood
6805170695000,115 Surrey Path Ct,27104,Winston Salem,NC,36.099066,-80.350264,37067,SingleFamily,2018,1998,21780,4003,4.5,4,578697,Cedar View,neighborhood
6826541880000,1235 Arbor Place Dr,27104,Winston Salem,NC,36.11956,-80.269021,37067,SingleFamily,2018,2015,9147,2736,3.0,3,594861,Winston-Salem,city
6822690297000,1770 Greencedar Ln,27127,Winston Salem,NC,36.021956,-80.264401,37067,SingleFamily,2018,1987,13068,1640,2.5,3,156784,Twin Cedars Laurel Park,neighborhood
6847346083000,5081 Bismark St,27105,Winston Salem,NC,36.145506,-80.206785,37067,SingleFamily,2018,1965,23086,2094,1.5,4,141456,Old Carver,neighborhood
6806808930000,1123 Strathmore Cir,27104,Winston Salem,NC,36.108307,-80.32422,37067,SingleFamily,2018,1955,24829,1606,2.0,3,200882,Forestdale,neighborhood
6817726478000,2640 Greencrest Dr,27106,Winston Salem,NC,36.140406,-80.294816,37067,SingleFamily,2018,1963,16988,1648,2.0,3,165021,Winston-Salem,city
6843598232000,357 Stickney Rd,27107,Winston Salem,NC,36.049934,-80.198303,37067,SingleFamily,2018,1956,31363,878,1.0,2,32717,Winston-Salem,city
6864972534000,513 Adams Gate Rd,27107,Winston Salem,NC,36.073591,-80.119223,37067,SingleFamily,2018,1992,20473,1904,2.5,3,201335,Winston-Salem,city
6837056506000,4216 Cody Dr,27105,Winston Salem,NC,36.149261,-80.251158,37067,SingleFamily,2018,1972,7405,1092,1.5,3,87232,North Hills,neighborhood
6855807250000,110 Meadowsweet Ct,27107,Winston Salem,NC,36.08058,-80.154778,37067,SingleFamily,2018,2010,6969,3064,2.5,5,226601,Winston-Salem,city
6819945325000,5820 Nylon Dr,27105,Winston Salem,NC,36.200529,-80.289483,37067,SingleFamily,2018,1964,20037,1318,1.0,3,127118,Summer Trace,neighborhood
5895470872000,335 Beauchamp Rd,27106,Winston Salem,NC,36.099199,-80.374022,37067,SingleFamily,2018,1953,32234,984,1.0,2,89563,Lewisville,city
6823245956000,1724 Carriage Cove Ln,27127,Winston Salem,NC,36.037482,-80.276644,37067,SingleFamily,2018,1993,10018,1261,2.0,3,131494,Carriage Cove,neighborhood
6805551361000,500 Lynhaven Ct,27104,Winston Salem,NC,36.092726,-80.336472,37067,SingleFamily,2018,1994,33976,2099,2.5,3,282495,Peace Haven,neighborhood
6807364648000,4028 Ivy Bluff Trl,27106,Winston Salem,NC,36.151426,-80.343191,37067,SingleFamily,2018,2005,11325,4894,4.1,5,393849,Chadwyck,neighborhood
6818521470000,4571 Greenmanor Dr,27106,Winston Salem,NC,36.167546,-80.303705,37067,SingleFamily,2018,2009,6534,2582,2.5,4,188778,Poman Acres,neighborhood
6823224327000,1647 W Clemmonsville Rd,27127,Winston Salem,NC,36.030319,-80.276973,37067,SingleFamily,2018,1931,34412,1239,1.0,3,121729,Caroline Village,neighborhood
6847028237000,3861 Barkwood Dr,27105,Winston Salem,NC,36.140571,-80.216381,37067,SingleFamily,2018,1967,16117,1105,2.0,4,99361,Northwoods Estate,neighborhood
6848038189000,4769 Carlton Dr,27105,Winston Salem,NC,36.170595,-80.216671,37067,SingleFamily,2018,1954,16117,824,1.0,2,49918,Winston-Salem,city
6807382670000,4100 Tolley Ridge Ln,27106,Tobaccoville,NC,36.156673,-80.343824,37067,SingleFamily,2018,1997,14800,2328,3.0,3,247801,Baycreek,neighborhood
6809217935000,3728 Crestbrook Ln,27040,Pfafftown,NC,36.193286,-80.346318,37067,SingleFamily,2018,1975,33105,1704,3.0,3,,Winston-Salem,city
6809217935000,3728 Crestbrook Ln,27040,Pfafftown,NC,36.193286,-80.346318,37067,SingleFamily,2018,1975,23958,1704,3.0,3,,Winston-Salem,city
6842034485000,5150 Beeson Farm Rd,27107,Winston Salem,NC,36.006517,-80.215493,37067,Mobile,2018,2005,59677,2052,2.0,3,175438,Winston-Salem,city
6816725012000,2858 Robinhood Rd,27106,Winston Salem,NC,36.11157,-80.294863,37067,SingleFamily,2018,1969,26136,2356,3.5,4,360750,Buena Vista,neighborhood
6826749781000,2058 Cannon Ave,27105,Winston Salem,NC,36.119369,-80.25955,37067,SingleFamily,2018,1959,8712,1036,1.0,2,,Boston Thurmon,neighborhood
6829823263000,512 Old Hollow Rd,27105,Winston Salem,NC,36.194965,-80.259469,37067,SingleFamily,2018,1956,20473,1180,1.0,3,87443,Plantation Homes,neighborhood
6824696861000,1772 Hausman Dr,27103,Winston Salem,NC,36.078396,-80.263356,37067,SingleFamily,2018,1966,12632,1300,1.0,3,143466,Ardmore,neighborhood
6819022784000,1675 Bethania Rural Hall Rd,27106,Winston Salem,NC,36.195639,-80.320652,37067,SingleFamily,2018,1958,43560,1873,1.0,3,126724,Winston-Salem,city
6856199692000,2835 Alvarado St,27101,Winston Salem,NC,36.133667,-80.178451,37067,Mobile,2018,1970,36590,1104,2.0,2,59157,Winston-Salem,city
6828922849000,5487 Northridge Dr,27105,Winston Salem,NC,36.169371,-80.256074,37067,SingleFamily,2018,2012,5662,1588,3.0,3,140875,Winston-Salem,city
6816939256000,939 Kearns Ave,27106,Winston Salem,NC,36.115114,-80.28668,37067,SingleFamily,2018,1948,11325,1272,2.0,4,260076,Reynolda,neighborhood
6824204731000,1607 Park Terrace Ln,27127,Winston Salem,NC,36.053296,-80.27729,37067,SingleFamily,2018,1999,11107,1248,2.0,3,149768,Winston-Salem,city
6865362689000,400 E 27th St,27105,Winston Salem,NC,36.123075,-80.240474,37067,SingleFamily,2018,1922,6969,2115,1.0,3,,North Winston,neighborhood
6865362689000,400 E 15th St,27105,Winston Salem,NC,36.11323,-80.240551,37067,Duplex,2018,1920,8276,1424,2.0,2,,North Winston,neighborhood
6865362689000,400 E 25th St,27105,Winston Salem,NC,36.121785,-80.240467,37067,SingleFamily,2018,1925,6969,1234,1.0,3,,North Winston,neighborhood
6808729467000,4357 Morningside Dr,27106,Winston Salem,NC,36.16749,-80.328148,37067,SingleFamily,2018,1968,21780,1425,2.0,3,137311,Georgetown,neighborhood
6836712494000,1205 Cornelius Ct,27101,Winston Salem,NC,36.110712,-80.227904,37067,SingleFamily,2018,1991,15681,1154,2.0,3,108691,East Winston,neighborhood
6816480471000,144 Linbrook Dr,27106,Winston Salem,NC,36.129086,-80.306829,37067,SingleFamily,2018,1962,19602,1225,1.5,3,139377,West Polo Road,neighborhood
6822897105000,1461 Norwich Rd,27127,Winston Salem,NC,36.021746,-80.255611,37067,SingleFamily,2018,1966,20037,1617,2.0,3,161471,Wilshire Estates,neighborhood
6823471721000,2045 Ardmore Village Ln,27127,Winston Salem,NC,36.045059,-80.271453,37067,SingleFamily,2018,1996,9147,1646,2.0,3,156455,Ardmore Village,neighborhood
6814925725000,2716 Cardiff Ct,27103,Winston Salem,NC,36.058733,-80.287221,37067,SingleFamily,2018,1967,20908,1775,3.0,4,172605,British Woods,neighborhood
6807302362000,4115 Shattalon Dr,27106,Winston Salem,NC,36.132724,-80.339611,37067,SingleFamily,2018,1965,139827,4466,6.0,5,887404,Winston-Salem,city
6807302362000,4115 Shattalon Dr,27106,Winston Salem,NC,36.132724,-80.339611,37067,SingleFamily,2018,1965,2425856,4466,6.0,5,887404,Winston-Salem,city
6845647266000,115 Tall Pines Ct,27107,Winston Salem,NC,36.091344,-80.195566,37067,MultiFamily2To4,2018,1999,10454,1280,2.0,3,118158,Shalimar,neighborhood
6803149778000,2689 Ninfield Dr,27103,Winston Salem,NC,36.036232,-80.346237,37067,SingleFamily,2018,2005,8840,2150,2.5,4,188017,Edgewood Farms,neighborhood
6837652236000,4309 Tise Ave,27105,Winston Salem,NC,36.148665,-80.232055,37067,SingleFamily,2018,1935,5227,952,1.0,2,33348,Ogburn Station,neighborhood
6832720565000,230 Mount Olivet Dr,27107,Winston Salem,NC,36.003892,-80.227044,37067,SingleFamily,2018,2015,9147,1600,2.5,3,149898,Winston-Salem,city
6847827386000,3875 New Walkertown Rd,27105,Winston Salem,NC,36.141078,-80.18958,37067,SingleFamily,2018,1927,137649,1720,1.0,3,121570,Winston-Salem,city
6817214629000,113 Powers Rd,27106,Winston Salem,NC,36.138007,-80.312526,37067,SingleFamily,2018,2007,16117,1978,3.0,4,157571,Winston-Salem,city
6864765315000,4375 Glenn Hi Rd,27107,Winston Salem,NC,36.070245,-80.125027,37067,SingleFamily,2018,1962,20037,1733,2.0,3,135814,Winston-Salem,city
6855917805000,3877 Field Sedge Dr,27107,Winston Salem,NC,36.085114,-80.151675,37067,SingleFamily,2018,2013,7405,2060,2.5,4,188924,Winston-Salem,city
6819345640000,1308 Tonya Dr,27105,Winston Salem,NC,36.200953,-80.309779,37067,SingleFamily,2018,1985,29185,2200,2.5,4,210593,Swink Acres,neighborhood
6816674184000,66 Glenwood St,27106,Winston Salem,NC,36.125677,-80.298594,37067,SingleFamily,2018,1953,13068,988,1.0,2,117603,Hope Valley,neighborhood
6848302913000,4708 White Rock Rd,27105,Winston Salem,NC,36.16446,-80.208644,37067,SingleFamily,2018,1963,12632,840,1.0,4,46006,Winston-Salem,city
6827430139000,931 Yellowstone Ln,27106,Winston Salem,NC,36.142554,-80.273516,37067,SingleFamily,2018,1950,19166,1188,1.0,2,127036,Brookwood,neighborhood
6838935139000,4773 Baux Mountain Rd,27105,Winston Salem,NC,36.170517,-80.221238,37067,SingleFamily,2018,1958,46609,1250,1.0,3,106188,Winston-Salem,city
6837146038000,3950 Waddill St,27105,Winston Salem,NC,36.145221,-80.247659,37067,SingleFamily,2018,1970,10018,1088,2.0,3,90490,North Hills,neighborhood
6844069063000,1178 Waughtown St,27107,Winston Salem,NC,36.068526,-80.214846,37067,SingleFamily,2018,1911,18730,1815,1.0,5,55999,Waughtown,neighborhood
6808024969000,4620 Duffer Ct,27040,Pfafftown,NC,36.16864,-80.353553,37067,SingleFamily,2018,1971,23086,2805,2.0,4,239246,Winston-Salem,city
6807443424000,4310 Wheatland Ln,27106,Winston Salem,NC,36.145303,-80.340098,37067,SingleFamily,2018,1965,28314,1506,3.0,3,164480,Shattalon Lake Estates,neighborhood
6815126807000,3817 Fritz St,27104,Winston Salem,NC,36.086259,-80.31449,37067,SingleFamily,2018,1947,21344,852,1.0,4,112463,South Fork,neighborhood
6803567811000,1725 Briar Lake Rd,27103,Winston Salem,NC,36.041959,-80.333681,37067,SingleFamily,2018,1989,18295,3845,3.0,4,337829,Huntington Woods,neighborhood
6804228401000,1175 Jonestown Rd,27103,Winston Salem,NC,36.057235,-80.343745,37067,SingleFamily,2018,1975,11761,1603,2.0,3,147814,Salem Woods,neighborhood
6816151833000,1023 Willowlake Rd,27106,Winston Salem,NC,36.121878,-80.316653,37067,SingleFamily,2018,1971,14810,2340,2.5,4,246516,Foxhall,neighborhood
6828914618000,5334 Northridge Dr,27105,Winston Salem,NC,36.167299,-80.256624,37067,SingleFamily,2018,2017,6534,2072,2.5,4,166802,Winston-Salem,city
6803838190000,2460 W Clemmonsville Rd,27127,Winston Salem,NC,36.031863,-80.322783,37067,SingleFamily,2018,1949,31798,1218,1.0,2,116017,Winston-Salem,city
6838297174000,820 Northchester Ln,27105,Winston Salem,NC,36.186701,-80.244376,37067,SingleFamily,2018,1994,25700,1369,2.5,3,142583,Winston-Salem,city
6845740912000,893 Shalimar Dr,27107,Winston Salem,NC,36.093119,-80.194739,37067,SingleFamily,2018,1999,13939,1927,2.5,3,156545,Shalimar,neighborhood
6813176975000,251 Everidge Rd,27103,Winston Salem,NC,36.045296,-80.31358,37067,SingleFamily,2018,2009,10018,3062,3.5,4,243425,Winston-Salem,city
5894795703000,5248 Old Plantation Cir,27104,Winston Salem,NC,36.077155,-80.362046,37067,SingleFamily,2018,1999,7405,2053,3.0,3,269059,Breckingridge,neighborhood
6806674387000,4090 Carriage Manor Cv,27106,Winston Salem,NC,36.125819,-80.332399,37067,SingleFamily,2018,2017,15681,3360,4.0,4,757290,Winston-Salem,city
6805872447000,410 Gloucestershire Rd,27104,Winston Salem,NC,36.098797,-80.326073,37067,SingleFamily,2018,1976,22651,2687,3.0,3,312897,Peace Haven,neighborhood
6822498603000,1525 Heather Trace Ln,27127,Winston Salem,NC,36.022937,-80.268822,37067,SingleFamily,2018,2005,9583,1186,2.0,3,148702,Winston-Salem,city
6814374880000,1405 Hannaford Rd,27103,Winston Salem,NC,36.072417,-80.307892,37067,SingleFamily,2018,1960,2178,1803,2.0,4,,Stratford Manor,neighborhood
6814374880000,1405 Hannaford Rd,27103,Winston Salem,NC,36.072417,-80.307892,37067,SingleFamily,2018,1960,20473,1803,2.0,4,,Stratford Manor,neighborhood
6805991216000,3811 Derbyshire Rd,27104,Winston Salem,NC,36.103765,-80.323228,37067,SingleFamily,2018,1968,24829,3041,2.5,4,360723,Old Sherwood Forest,neighborhood
6833572014000,3635 Cornell Blvd,27107,Winston Salem,NC,36.04363,-80.233931,37067,SingleFamily,2018,1948,12196,912,1.0,3,49600,Weston,neighborhood
6832999966000,4189 Field Crossing Dr,27107,Winston Salem,NC,36.02436,-80.217547,37067,SingleFamily,2018,2014,7405,1745,3.0,3,160245,Winston-Salem,city
6846004473000,2307 Slater Ave,27101,Winston Salem,NC,36.108042,-80.21711,37067,SingleFamily,2018,1954,9147,1067,2.0,3,56966,Slater Park,neighborhood
6805773747000,4811 Winchelsea Rd,27104,Winston Salem,NC,36.099614,-80.329128,37067,SingleFamily,2018,1964,30056,1885,3.5,3,238319,Colony West,neighborhood
6818503406000,4946 Pinewood Dr,27106,Winston Salem,NC,36.162209,-80.303173,37067,SingleFamily,2018,1960,23522,1050,1.0,3,88266,Poman Acres,neighborhood
5895428632000,5639 Bassford Ct,27104,Winston Salem,NC,36.084953,-80.37123,37067,SingleFamily,2018,1980,21780,1848,2.5,4,207505,Winston-Salem,city
6807080343000,3957 Highland Creek Ct,27040,Pfafftown,NC,36.155809,-80.354797,37067,SingleFamily,2018,2016,10018,2672,2.5,4,242759,Winston-Salem,city
6814517301000,2529 Amesbury Rd,27103,Winston Salem,NC,36.054678,-80.300091,37067,SingleFamily,2018,1964,16988,2228,2.0,3,165795,Mountain Brook,neighborhood
6834228564000,2917 Borg Rd,27127,Winston Salem,NC,36.058655,-80.242084,37067,SingleFamily,2018,1990,9583,2017,2.0,3,157096,Konnoak,neighborhood
6815247355000,122 Harper St,27104,Winston Salem,NC,36.090365,-80.310665,37067,SingleFamily,2018,1938,21344,1340,1.5,3,131850,South Fork,neighborhood
6813718769000,4173 Ebert Rd,27127,Winston Salem,NC,36.028603,-80.292381,37067,SingleFamily,2018,1956,27878,1346,2.0,2,139135,Janita Lakes Estates,neighborhood
6807210263000,4284 Saddlewood Forest Dr,27106,Winston Salem,NC,36.136358,-80.347592,37067,SingleFamily,2018,1996,21344,3167,3.5,5,374998,Brownstone,neighborhood
6818412577000,5041 Hutchins St,27106,Winston Salem,NC,36.165201,-80.306736,37067,SingleFamily,2018,1985,10890,1630,2.5,3,150310,Poman Acres,neighborhood
6816285440000,1441 Mount Tabor Ct,27106,Winston Salem,NC,36.128988,-80.312005,37067,SingleFamily,2018,2004,15246,2705,3.5,4,368029,Ridgemere,neighborhood
6803280649000,1050 Still Point Dr,27103,Winston Salem,NC,36.046989,-80.346181,37067,SingleFamily,2018,1995,10454,1854,2.5,3,158418,Winston-Salem,city
6822643157000,3047 Canterbury Park Dr,27127,Winston Salem,NC,36.00798,-80.263284,37067,SingleFamily,2018,2005,10018,1496,2.5,3,149753,Winston-Salem,city
6806514165000,1017 Greenhurst Rd,27104,Winston Salem,NC,36.108755,-80.335625,37067,SingleFamily,2018,1985,15681,2879,3.0,4,354731,New Sherwood Forest,neighborhood
6822901088000,397 Essick Ln,27127,Winston Salem,NC,35.997459,-80.255184,37067,SingleFamily,2018,1957,756201,1334,1.5,3,231690,Winston-Salem,city
6812832311000,1812 Denise Ln,27127,Winston Salem,NC,36.005298,-80.290819,37067,SingleFamily,2018,2008,20908,1700,3.0,3,186291,Winston-Salem,city
6827238703000,3816 Wake Place Ct,27106,Winston Salem,NC,36.143995,-80.277429,37067,SingleFamily,2018,2011,12632,1664,2.5,4,147777,Brookwood,neighborhood
6806709143000,1021 N Peace Haven Rd,27104,Winston Salem,NC,36.106111,-80.327213,37067,SingleFamily,2018,1953,20037,1353,1.5,3,181765,Old Sherwood Forest,neighborhood
6863287078000,4351 Compton Dr,27107,Winston Salem,NC,36.047368,-80.140732,37067,Mobile,2018,1991,20908,1404,2.0,3,114101,Winston-Salem,city
6854083340000,2849 E Sprague St,27107,Winston Salem,NC,36.075056,-80.1832,37067,SingleFamily,2018,2011,10890,1060,2.0,3,104800,Parkview,neighborhood
6823835805000,3008 Twin Knolls Dr,27127,Winston Salem,NC,36.034656,-80.256499,37067,SingleFamily,2018,1991,30492,2050,2.5,3,197574,Kingstree,neighborhood
6827474258000,4630 Grove Garden Dr,27106,Winston Salem,NC,36.153787,-80.27207,37067,SingleFamily,2018,1959,16552,1221,2.0,2,67893,Winston-Salem,city
6823188119000,1943 Shillington Dr,27127,Winston-Salem,NC,36.046344,-80.279282,,SingleFamily,2018,2007,7405,1768,2.5,3,153030,Winston-Salem,city
6823188119000,1943 Shillington Dr,27127,Winston Salem,NC,36.046344,-80.279282,37067,SingleFamily,2018,2007,7405,1936,2.5,3,153030,Winston-Salem,city
6847599158000,4722 Perry St,27105,Winston Salem,NC,36.159753,-80.199173,37067,SingleFamily,2018,1954,52707,2009,2.0,3,114127,Winston-Salem,city
6829507907000,5435 Angel Oaks Dr,27105,Winston Salem,NC,36.19143,-80.268409,37067,SingleFamily,2018,2000,11761,1661,3.0,3,163234,Angel Oaks,neighborhood
6823488084000,1655 Stoneshire Ct,27127,Winston Salem,NC,36.046016,-80.268839,37067,SingleFamily,2018,2010,15246,1230,2.0,3,147856,Winston-Salem,city
6817199468000,3931 Beacon Dr,27106,Winston Salem,NC,36.159379,-80.314412,37067,SingleFamily,2018,1961,24393,1448,2.0,3,132262,Beacon Hill,neighborhood
6805583922000,4150 Chatham Hill Dr,27104,Winston Salem,NC,36.102451,-80.335983,37067,SingleFamily,2018,1989,16552,2606,2.5,4,335412,Winston-Salem,city
6823086350000,1920 Cedar Ridge Ln,27127,Winston Salem,NC,36.046588,-80.283221,37067,SingleFamily,2018,1997,6969,1315,2.0,3,142501,Cross Winds,neighborhood
6847547330000,4202 Orchid Pl,27105,Winston Salem,NC,36.146261,-80.199839,37067,SingleFamily,2018,1971,20473,1560,2.0,4,110335,Jefferson Gardens,neighborhood
6847312208000,3655 Kinghill Dr,27105,Winston Salem,NC,36.137958,-80.208297,37067,SingleFamily,2018,1982,24829,1816,2.0,3,131301,Monticello Park,neighborhood
6823735711000,3295 Peters Creek Pkwy,27127,Winston Salem,NC,36.033886,-80.259716,37067,SingleFamily,2018,1977,13939,1478,2.0,3,150587,Winston-Salem,city
6823735711000,3295 Peters Creek Pkwy,27127,Winston Salem,NC,36.033886,-80.259716,37067,SingleFamily,2018,1977,19602,1478,2.0,3,150587,Winston-Salem,city
6847035450000,2963 Bainbridge Dr,27105,Winston Salem,NC,36.143682,-80.217381,37067,SingleFamily,2018,1971,12196,1277,2.0,3,70246,Northwoods Estate,neighborhood
6854177181000,3024 Corry Cir,27107,Winston Salem,NC,36.071846,-80.178293,37067,SingleFamily,2018,1970,10454,1080,1.5,3,80480,Broadbay Heights,neighborhood
6807760157000,3826 Sandalwood Ln,27106,Winston Salem,NC,36.150098,-80.330922,37067,SingleFamily,2018,1950,83199,1389,2.0,2,142328,Winston-Salem,city
6815301975000,3521 Chelsea Village Ln,27103,Winston Salem,NC,36.081083,-80.309054,37067,SingleFamily,2018,2003,7840,1210,2.0,3,143198,Old Vineyard,neighborhood
5894795656000,5244 Old Plantation Cir,27104,Winston Salem,NC,36.076911,-80.361956,37067,SingleFamily,2018,1999,10018,2800,3.0,5,254204,Breckingridge,neighborhood
6844986268000,2226 Cole Rd,27107,Winston Salem,NC,36.074972,-80.185619,37067,SingleFamily,2018,1922,17859,960,1.0,2,36694,Parkview,neighborhood
6847007489000,3537 Fieldstone Dr,27105,Winston Salem,NC,36.135674,-80.216466,37067,SingleFamily,2018,1970,12632,1796,1.5,3,124732,Northwoods Estate,neighborhood
6813650240000,4109 Primrose Path,27127,Winston Salem,NC,36.037854,-80.298704,37067,SingleFamily,2018,1992,10454,1456,2.5,3,145303,Briar Glen,neighborhood
6808477101000,5524 Main St,27040,Pfafftown,NC,36.180064,-80.339407,37067,SingleFamily,2018,1805,27878,2176,2.0,4,212976,Bethania,city
6864558819000,4275 Witwould Ln,27107,Winston Salem,NC,36.068944,-80.130777,37067,SingleFamily,2018,2011,26136,1738,2.0,3,196078,Winston-Salem,city
6833448948000,4101 Eisenhower Rd,27107,Winston Salem,NC,36.038,-80.235087,37067,SingleFamily,2018,1959,12632,720,1.0,2,47641,Weston,neighborhood
6824835627000,1219 Cloister Dr,27127,Winston Salem,NC,36.061607,-80.25684,37067,SingleFamily,2018,1957,23958,1144,1.5,3,95112,Konnoak,neighborhood
