REID,street,zipcode,city,state,latitude,longitude,FIPScounty,useCode,taxAssessmentYear,yearBuilt,lotSizeSqFt,finishedSqFt,bathrooms,bedrooms,zestimate,name,type
6846776613000,3435 Parrish Rd,27105,Winston Salem,NC,36.128058,-80.193205,37067,SingleFamily,2018,1998,23522,2886,2.0,4,293278,Spanish Pines,neighborhood
6864556186000,4226 Vicar Ln,27107,Winston Salem,NC,36.066906,-80.131184,37067,SingleFamily,2018,1967,20473,1318,2.0,3,135106,Winston-Salem,city
6824402890000,1767 Gyro Dr,27127,Winston Salem,NC,36.053517,-80.271002,37067,SingleFamily,2018,1920,99752,2123,1.0,4,183825,Winston-Salem,city
6865132741000,113 Townsend Dr,27107,Winston Salem,NC,36.090266,-80.14651,37067,SingleFamily,2018,1973,20473,1508,2.0,3,144365,Winston-Salem,city
6803579839000,145 Sloan Dr,27103,Winston Salem,NC,36.0449,-80.333006,37067,SingleFamily,2018,1967,63162,1682,2.0,3,193861,Hillcrest,neighborhood
6823086386000,1930 Cedar Ridge Ln,27127,Winston Salem,NC,36.046751,-80.28313,37067,SingleFamily,2018,1997,6969,1209,2.0,3,126504,Cross Winds,neighborhood
6834910996000,3110 Rosie St,27107,Winston Salem,NC,36.057312,-80.221085,37067,SingleFamily,2018,1970,8712,1130,2.0,3,72439,Easton,neighborhood
6833966575000,607 Hillhaven Dr,27107,Winston Salem,NC,36.042416,-80.218813,37067,SingleFamily,2018,2006,16117,1198,2.0,4,112924,Winston-Salem,city
6863491180000,3212 Meadow Ln,27107,Winston Salem,NC,36.050247,-80.135984,37067,SingleFamily,2018,1984,20473,1000,1.5,2,120232,Winston-Salem,city
6819602856000,893 Oakhaven Forest Dr,27105,Winston Salem,NC,36.190812,-80.300424,37067,SingleFamily,2018,1989,24829,2913,2.5,4,231884,Swink Acres,neighborhood
6805666622000,371 Dover Dr,27104,Winston Salem,NC,36.096418,-80.331511,37067,SingleFamily,2018,1970,23958,2979,3.0,3,325325,Peace Haven,neighborhood
5897605709000,2240 Chipwood Ln,27106,Winston Salem,NC,36.134959,-80.366385,37067,SingleFamily,2018,1979,20037,1300,2.0,3,144933,Winston-Salem,city
6864677646000,4429 Ansley Dr,27107,Winston Salem,NC,36.073818,-80.127702,37067,SingleFamily,2018,1989,10890,1200,2.0,3,138238,Winston-Salem,city
6806240883000,4488 Cheyenne Ct,27106,Winston Salem,NC,36.118788,-80.347237,37067,SingleFamily,2018,2017,13503,2647,4.0,5,408549,Bent Tree Farm,neighborhood
6816194633000,1473 Ridgemere Ln,27106,Winston Salem,NC,36.132278,-80.315755,37067,SingleFamily,2018,1994,28749,2206,3.0,4,371685,Ridgemere,neighborhood
6816682314000,135 Miller Pointe Dr,27106,Winston Salem,NC,36.12892,-80.299568,37067,Townhouse,2018,1999,2178,1427,2.0,3,166226,West Polo Road,neighborhood
6876943518000,612 Newton St,27105,Winston Salem,NC,36.147428,-80.235953,37067,SingleFamily,2018,1937,57063,1015,1.0,2,37623,Ogburn Station,neighborhood
6876943518000,612 E 28th St,27105,Winston Salem,NC,36.124598,-80.23739,37067,SingleFamily,2018,1945,6969,900,1.0,2,37623,Ogburn Station,neighborhood
6876943518000,612 W 25th St,27105,Winston Salem,NC,36.121118,-80.258074,37067,SingleFamily,2018,1966,5227,1054,1.0,3,37623,Ogburn Station,neighborhood
6876943518000,612 Motor Rd,27105,Winston Salem,NC,36.157497,-80.245703,37067,SingleFamily,2018,1927,38332,904,1.0,2,37623,Ogburn Station,neighborhood
6876943518000,612 Oak Summit Rd,27105,Winston Salem,NC,36.165503,-80.243537,37067,SingleFamily,2018,1947,54014,1020,1.0,3,37623,Ogburn Station,neighborhood
6876943518000,612 Mccreary St,27105,Winston Salem,NC,36.143331,-80.23566,37067,SingleFamily,2018,1920,23522,798,1.0,3,37623,Ogburn Station,neighborhood
6876943518000,612 W 26th St,27105,Winston Salem,NC,36.122307,-80.258458,37067,SingleFamily,2018,1951,5227,744,1.0,2,37623,Ogburn Station,neighborhood
6876943518000,612 W 23rd St,27105,Winston Salem,NC,36.119284,-80.256444,37067,SingleFamily,2018,1957,7840,1519,1.0,3,37623,Ogburn Station,neighborhood
6808728463000,4359 Morningside Dr,27106,Winston Salem,NC,36.167371,-80.328453,37067,SingleFamily,2018,1962,21780,1184,2.0,4,99202,Georgetown,neighborhood
6856154944000,130 Glasmere Ct,27101,Winston Salem,NC,36.12353,-80.180168,37067,SingleFamily,2018,2008,6534,1750,2.0,3,184493,Winston-Salem,city
6833591075000,3419 Harmon Rd,27107,Winston Salem,NC,36.049144,-80.234127,37067,SingleFamily,2018,1954,10890,1572,1.0,3,100655,Winston-Salem,city
6832710946000,162 Mount Olivet Dr,27107,Winston Salem,NC,36.002253,-80.227104,37067,SingleFamily,2018,2015,10454,1850,3.0,3,157612,Winston-Salem,city
6815336309000,344 Keating Dr,27104,Winston Salem,NC,36.087781,-80.307711,37067,SingleFamily,2018,1946,30491,1975,2.0,3,196415,Country Club,neighborhood
6829773060000,6511 Canberra Ave,27045,Winston Salem,NC,36.208046,-80.263306,37067,SingleFamily,2018,2004,195148,2054,2.5,4,219060,Rural Hall,city
6805366471000,5045 Mountain View Rd,27104,Winston Salem,NC,36.095655,-80.341496,37067,SingleFamily,2018,1960,55321,1934,3.0,3,251898,Knob View,neighborhood
6827147373000,1111 Cypress Cir,27106,Winston Salem,NC,36.145594,-80.281013,37067,SingleFamily,2018,1961,20908,1694,2.0,3,177800,Winston-Salem,city
6847458222000,4442 Oak Ridge Dr,27105,Winston Salem,NC,36.148872,-80.202962,37067,SingleFamily,2018,1992,12196,1169,2.0,3,118001,Northampton,neighborhood
6817460074000,3201 Midkiff Rd,27106,Winston Salem,NC,36.150037,-80.307098,37067,SingleFamily,2018,1958,20908,1512,3.0,3,157277,Windsor Estates,neighborhood
6817460074000,3201 Midkiff Rd,27106,Winston Salem,NC,36.150037,-80.307098,37067,SingleFamily,2018,1958,22215,1512,3.0,3,157277,Windsor Estates,neighborhood
6845396369000,655 Sumner Pl,27101,Winston Salem,NC,36.105349,-80.206242,37067,SingleFamily,2018,1970,10018,1040,1.5,3,69924,City View,neighborhood
6805540109000,394 Lynhaven Dr,27104,Winston Salem,NC,36.089667,-80.336864,37067,SingleFamily,2018,1970,25700,2144,2.5,4,268088,Peace Haven,neighborhood
6827887966000,4911 Trent Hill Dr,27105,Winston Salem,NC,36.158545,-80.257528,37067,SingleFamily,2018,2007,8712,1190,2.0,3,125590,Retnuh Hills,neighborhood
6834309221000,3256 Stockton St,27127,Winston Salem,NC,36.052298,-80.238387,37067,SingleFamily,2018,1999,14810,1164,2.0,3,118083,Konnoak,neighborhood
6827660906000,4614 Tobacco St,27106,Winston Salem,NC,36.15292,-80.266766,37067,SingleFamily,2018,1940,18730,717,1.0,2,28233,Winston-Salem,city
6805630492000,331 Flyntvalley Ct,27104,Winston Salem,NC,36.087595,-80.333165,37067,SingleFamily,2018,1970,17424,1798,3.0,4,244355,Peace Haven,neighborhood
6834213918000,3022 Konnoak Dr,27127,Winston Salem,NC,36.057099,-80.243958,37067,SingleFamily,2018,1951,25,1400,2.0,3,120478,Konnoak,neighborhood
6825704539000,821 S Sunset Dr,27103,Winston Salem,NC,36.080592,-80.260772,37067,SingleFamily,2018,1947,9147,1293,1.0,2,134236,Ardmore,neighborhood
6807757675000,125 Rosedown Ct,27106,Winston Salem,NC,36.148703,-80.328475,37067,SingleFamily,2018,1998,20908,4729,5.0,6,538799,Greenbrier Farms,neighborhood
6827944740000,126 Marvin Blvd,27105,Winston Salem,NC,36.146847,-80.255074,37067,SingleFamily,2018,1942,9583,972,1.0,3,33091,Forest Hills,neighborhood
6825050477000,2545 Greenwich Rd,27104,Winston Salem,NC,36.093718,-80.28592,37067,SingleFamily,2018,2003,15681,2468,3.0,3,404253,Country Club,neighborhood
6826054245000,909 Marguerite Dr,27106,Winston Salem,NC,36.120571,-80.285122,37067,SingleFamily,2018,2004,27442,3094,3.5,4,567995,Reynolda,neighborhood
6828459298000,5528 Dogwood Dr,27105,Winston Salem,NC,36.175775,-80.270596,37067,SingleFamily,2018,1955,20037,1280,1.0,4,113272,Winston-Salem,city
6805755002000,120 Aftonshire Ct,27104,Winston Salem,NC,36.092037,-80.328485,37067,SingleFamily,2018,1974,17859,2153,3.0,5,342996,Peace Haven,neighborhood
6854791326000,3611 Evanston Way,27107,Winston Salem,NC,36.078291,-80.160295,37067,SingleFamily,2018,2001,17424,1528,2.0,3,148369,Winston-Salem,city
6836712884000,1316 Locust Ave,27101,Winston Salem,NC,36.111818,-80.227969,37067,SingleFamily,2018,1992,11761,1156,2.0,3,90390,East Winston,neighborhood
6848836336000,3434 N Glenn Ave,27105,Winston Salem,NC,36.134533,-80.238252,37067,SingleFamily,2018,1940,14810,1148,1.0,2,,Montview,neighborhood
6846954892000,3683 Signet Dr,27101,Winston Salem,NC,36.123169,-80.186767,37067,SingleFamily,2018,1996,13939,1434,2.0,3,149270,Winston-Salem,city
6849551885000,5705 Baux Mountain Rd,27105,Winston Salem,NC,36.190775,-80.219026,37067,SingleFamily,2018,1927,17424,1556,2.0,3,,Walkertown,city
6813691853000,2671 Glen Forest Dr,27103,Winston Salem,NC,36.05062,-80.298456,37067,SingleFamily,2018,1965,20908,1304,2.0,3,146980,Mountain Brook,neighborhood
6864464663000,520 New Garden Rd,27107,Winston Salem,NC,36.070911,-80.135313,37067,SingleFamily,2018,1963,39639,2330,1.5,3,208899,Winston-Salem,city
6805957813000,4114 Alonzo Dr,27104,Winston Salem,NC,36.094324,-80.321021,37067,SingleFamily,2018,1959,20473,1415,2.0,3,173537,South Fork,neighborhood
6808423847000,4289 Talcott Ave,27106,Winston Salem,NC,36.168399,-80.340441,37067,SingleFamily,2018,1962,31363,1655,2.0,4,153276,Cedar Forest,neighborhood
6847660567000,4537 Kimball Ln,27105,Winston Salem,NC,36.152599,-80.198864,37067,SingleFamily,2018,1953,22651,1176,1.0,2,67776,Jefferson Gardens,neighborhood
6804529769000,2981 Burlwood Dr,27103,Winston Salem,NC,36.058358,-80.333069,37067,SingleFamily,2018,1998,72309,1736,3.0,3,207008,Atwood Acres,neighborhood
6805799546000,920 Huntingdon Rd,27104,Winston Salem,NC,36.104535,-80.327151,37067,SingleFamily,2018,1954,30927,1792,2.5,3,238270,Old Sherwood Forest,neighborhood
6823204467000,1717 Pine Cove Ct,27127,Winston Salem,NC,36.025144,-80.276775,37067,SingleFamily,2018,2009,9583,2892,2.5,4,217743,Winston-Salem,city
5883444053000,1460 Willow Woods Way,27104,Winston Salem,NC,36.109511,-80.339585,37067,SingleFamily,2018,2000,37461,3557,4.5,5,742589,New Sherwood Forest,neighborhood
5893274554000,2940 Hopewood Ln,27103,Winston Salem,NC,36.043476,-80.378571,37067,SingleFamily,2018,1978,43560,2200,3.0,3,199582,Clemmons,city
6807109154000,4233 Saddlewood Forest Dr,27106,Winston Salem,NC,36.133383,-80.347932,37067,SingleFamily,2018,1997,15246,2695,3.5,5,371726,Brownstone,neighborhood
6815538786000,448 Lawndale Dr,27104,Winston Salem,NC,36.088886,-80.300023,37067,SingleFamily,2018,1960,13939,2113,2.0,3,263117,Country Club,neighborhood
5894771797000,170 Exeter Ct,27103,Winston Salem,NC,36.071754,-80.363012,37067,SingleFamily,2018,2000,6534,1248,2.0,2,160877,Winston-Salem,city
6813764419000,3028 Asheton Grove Ct,27127,Winston Salem,NC,36.041467,-80.294092,37067,SingleFamily,2018,2005,9583,2500,2.5,4,194711,Winston-Salem,city
6814841099000,2961 Woodworth Dr,27103,Winston Salem,NC,36.062248,-80.291783,37067,SingleFamily,2018,1969,40075,1817,4.0,3,190618,British Woods,neighborhood
6808598287000,2340 Meredith Rd,27040,Pfafftown,NC,36.186006,-80.335703,37067,SingleFamily,2018,1958,46173,2081,2.0,3,176074,Bethania,city
6824572805000,1925 Deborah Ln,27103,Winston Salem,NC,36.07294,-80.268249,37067,SingleFamily,2018,1967,11325,969,1.0,3,140423,Ardmore,neighborhood
6805671560000,620 N Peace Haven Rd,27104,Winston Salem,NC,36.098862,-80.333148,37067,SingleFamily,2018,1925,37461,1305,2.0,2,118146,Winston-Salem,city
6847145959000,4910 Carver Glen Ln,27105,Winston Salem,NC,36.148066,-80.214032,37067,SingleFamily,2018,1997,12632,1150,2.0,3,121977,Old Carver,neighborhood
6812979659000,2182 Bethany Trace Ln,27127,Winston Salem,NC,36.017452,-80.28513,37067,SingleFamily,2018,2015,6534,1885,3.0,3,171357,Winston-Salem,city
6818418437000,5026 Selena St,27106,Winston Salem,NC,36.164955,-80.30486,37067,SingleFamily,2018,1962,22215,1388,1.5,3,129373,Poman Acres,neighborhood
6837153830000,515 Shamel Ct,27105,Winston Salem,NC,36.149978,-80.248692,37067,SingleFamily,2018,1971,8276,1257,1.5,3,94328,North Hills,neighborhood
6816880548000,3131 Prytania Rd,27106,Winston Salem,NC,36.12971,-80.293331,37067,SingleFamily,2018,1967,15246,1816,3.0,4,223021,Ashlet Forest,neighborhood
5895227119000,845 Ellington Dr,27104,Winston Salem,NC,36.08375,-80.37834,37067,SingleFamily,2018,1972,27007,1690,2.0,3,194546,Winston-Salem,city
6816762961000,2940 Ormond Dr,27106,Winston Salem,NC,36.125055,-80.295957,37067,SingleFamily,2018,1966,14810,1914,2.0,3,227440,Hope Valley,neighborhood
6805119129000,5000 Ryandale Rd,27104,Winston Salem,NC,36.081313,-80.347133,37067,SingleFamily,2018,1959,20037,1525,1.5,3,140442,South Peace Haven,neighborhood
6806512827000,125 Hillstone Ct,27106,Winston Salem,NC,36.110747,-80.336502,37067,SingleFamily,2018,1994,30056,3302,3.5,4,382729,New Sherwood Forest,neighborhood
6855499792000,3528 New Delhi Dr,27101,Winston Salem,NC,36.106598,-80.167925,37067,SingleFamily,2018,2001,27007,1324,2.0,3,128005,Wheeling Village,neighborhood
6846354439000,2500 Atlee St,27105,Winston Salem,NC,36.122073,-80.207301,37067,SingleFamily,2018,1959,12632,950,1.0,3,40556,Castle Heights,neighborhood
6838803329000,4654 Northview St,27105,Winston Salem,NC,36.162795,-80.225188,37067,SingleFamily,2018,1978,24393,1050,2.0,3,90408,Northview,neighborhood
6804313795000,1200 Cedarline Ln,27103,Winston Salem,NC,36.055443,-80.341729,37067,SingleFamily,2018,1973,14374,1400,2.0,3,146671,Salem Woods,neighborhood
6832105079000,479 Mallard View Ln,27127,Winston Salem,NC,35.996911,-80.245496,37067,SingleFamily,2018,2006,15681,1864,3.0,4,175497,Winston-Salem,city
6864797151000,2304 Pebble Creek Rd,27107,Winston Salem,NC,36.077846,-80.124324,37067,SingleFamily,2018,1980,20037,1488,2.0,3,154911,Pebbel Creek Estates,neighborhood
6835891565000,844 N Graham Ave,27101,Winston Salem,NC,36.105561,-80.224879,37067,SingleFamily,2018,1944,7840,896,2.0,3,63583,East Winston,neighborhood
5897670926000,5515 Kane Dr,27040,Pfafftown,NC,36.154618,-80.368368,37067,SingleFamily,2018,1960,22215,1518,1.0,3,133319,Winston-Salem,city
6823954992000,2519 Fiddlers Glenn Dr,27127,Winston Salem,NC,36.040385,-80.253171,37067,SingleFamily,2018,2007,6098,1765,3.0,4,191039,Winston-Salem,city
6847155058000,4920 Carver Glen Ln,27105,Winston Salem,NC,36.148351,-80.214034,37067,SingleFamily,2018,1997,11325,1163,2.5,3,135143,Old Carver,neighborhood
6827611265000,460 Howell St,27106,Winston Salem,NC,36.137248,-80.266014,37067,SingleFamily,2018,2015,10018,1820,4.0,4,191820,Brookwood,neighborhood
6812601734000,3307 Mar Joe Dr,27127,Winston Salem,NC,35.998168,-80.297438,37067,SingleFamily,2018,1985,108028,1860,3.0,3,199035,Winston-Salem,city
6823371760000,1842 Ralee Dr,27127,Winston Salem,NC,36.045006,-80.27471,37067,SingleFamily,2018,1999,11761,1603,2.0,3,183452,Ardmore Village,neighborhood
6805419824000,136 Queensbury Rd,27104,Winston Salem,NC,36.083222,-80.337072,37067,SingleFamily,2018,1960,24829,1377,2.0,3,148349,South Fork,neighborhood
6817103710000,805 Lynn Dee Dr,27106,Winston Salem,NC,36.135236,-80.316256,37067,SingleFamily,2018,1964,20037,1256,3.0,3,162510,Winston-Salem,city
6807245474000,4250 Sewanee Dr,27106,Winston Salem,NC,36.145213,-80.345959,37067,SingleFamily,2018,1964,20908,1675,2.5,3,204054,Shattalon Lake Estates,neighborhood
6812989198000,2128 Bethany Trace Ln,27127,Winston Salem,NC,36.018808,-80.285025,37067,SingleFamily,2018,2008,6534,1512,2.5,3,151510,Winston-Salem,city
6863888366000,4288 High Point Rd,27107,Winston Salem,NC,36.048264,-80.120095,37067,SingleFamily,2018,1949,18295,1204,2.0,3,118373,Winston-Salem,city
5894826406000,168 Red Fox Trl,27103,Winston Salem,NC,36.057264,-80.357984,37067,SingleFamily,2018,1979,20908,2719,2.0,3,227333,Hunters Ridge,neighborhood
6807428149000,4135 Stonehenge Ln,27106,Winston Salem,NC,36.139089,-80.338229,37067,SingleFamily,2018,2003,12196,2539,3.0,3,368493,Winston-Salem,city
6910557572000,644 Bethania Rural Hall Rd,27045,Winston salem,NC,36.23103,-80.302702,37067,SingleFamily,2018,1937,22215,1456,1.0,2,89368,Rural Hall,city
6815226368000,407 S Cliffdale Dr,27104,Winston Salem,NC,36.084985,-80.310887,37067,SingleFamily,2018,1963,12196,1126,2.0,3,142477,South Fork,neighborhood
6838614729000,5301 Pineview Dr,27105,Winston Salem,NC,36.16658,-80.231715,37067,Mobile,2018,2000,9147,1104,2.0,3,57801,Mineral Springs,neighborhood
6864962809000,537 Adams Gate Rd,27107,Winston Salem,NC,36.071799,-80.119297,37067,SingleFamily,2018,1991,20037,1447,2.0,3,167289,Winston-Salem,city
6806645881000,121 Coravan Ct,27106,Winston Salem,NC,36.118876,-80.332023,37067,SingleFamily,2018,2001,9147,1500,2.0,3,189963,Robinhood Park,neighborhood
6803228874000,2452 Mid Salem Dr,27103,Winston Salem,NC,36.030974,-80.343121,37067,SingleFamily,2018,2004,6969,1212,2.0,3,139336,Winston-Salem,city
6847377466000,4601 Erin St,27105,Winston Salem,NC,36.154958,-80.206679,37067,SingleFamily,2018,1928,7405,1106,1.0,3,44060,Old Carver,neighborhood
6822694735000,1905 Graywood Ct,27127,Winston Salem,NC,36.02331,-80.263308,37067,SingleFamily,2018,1991,13068,1400,2.0,3,146935,Twin Cedars Laurel Park,neighborhood
6812178352000,3930 Woodlake Rd,27127,Winston Salem,NC,36.016103,-80.312507,37067,Mobile,2018,1991,48787,1863,2.0,3,179982,Winston-Salem,city
6805560811000,609 Shadylawn Ct,27104,Winston Salem,NC,36.096817,-80.336964,37067,SingleFamily,2018,1995,10890,2369,3.0,3,243521,Winston-Salem,city
6812509341000,2352 Friedberg Church Rd,27127,Winston Salem,NC,35.997003,-80.29843,37067,SingleFamily,2018,1928,57499,943,1.0,3,101518,Winston-Salem,city
6827397946000,144 Blaze St,27105,Winston Salem,NC,36.161177,-80.274601,37067,SingleFamily,2018,1971,10018,1477,1.5,3,91050,Cherryview,neighborhood
6805418485000,120 Queensbury Rd,27104,Winston Salem,NC,36.082129,-80.337223,37067,SingleFamily,2018,1970,24829,1740,2.0,3,173514,South Fork,neighborhood
6819348522000,1355 Bunny Trl,27105,Winston Salem,NC,36.200768,-80.308821,37067,SingleFamily,2018,1978,23958,1740,2.0,3,172794,Swink Acres,neighborhood
6812634677000,1966 Denise Ln,27127,Winston Salem,NC,36.00626,-80.296772,37067,SingleFamily,2018,2003,26136,1365,2.0,3,172051,Winston-Salem,city
6824179400000,1419 Eldorada Rd,27103,Winston Salem,NC,36.071632,-80.279381,37067,SingleFamily,2018,1960,11325,1320,1.5,3,150094,Ardmore,neighborhood
6855590777000,3538 New Delhi Dr,27101,Winston Salem,NC,36.106745,-80.16764,37067,SingleFamily,2018,2000,29000,1713,3.0,3,164758,Wheeling Village,neighborhood
5896699506000,5306 Dust Devil Dr,27106,Winston Salem,NC,36.131585,-80.365005,37067,SingleFamily,2018,1975,20473,1471,2.0,3,188394,Winston-Salem,city
6806442257000,5001 Mayberry Ln,27106,Winston Salem,NC,36.117284,-80.339902,37067,SingleFamily,2018,1999,23086,2373,2.5,4,299911,Winston-Salem,city
6843192514000,3519 Tyler St,27107,Winston Salem,NC,36.050681,-80.213754,37067,SingleFamily,2018,1961,20908,1340,1.5,3,87077,Easton,neighborhood
6806422079000,1405 Willow Woods Way,27104,Winston Salem,NC,36.111353,-80.33968,37067,SingleFamily,2018,2002,50094,6352,5.5,5,757110,New Sherwood Forest,neighborhood
6845187781000,617 Kinard Dr,27101,Winston Salem,NC,36.103403,-80.212609,37067,SingleFamily,2018,1958,12632,980,1.0,3,51159,Skyland,neighborhood
6822436680000,3098 Old Salisbury Rd,27127,Winston Salem,NC,36.006359,-80.268936,37067,SingleFamily,2018,1963,120225,2534,2.0,4,252938,Winston-Salem,city
6815255709000,127 N Cliffdale Dr,27104,Winston Salem,NC,36.094318,-80.311581,37067,SingleFamily,2018,1928,21344,884,1.0,2,112081,South Fork,neighborhood
6846267963000,2708 Rosemary Dr,27105,Winston Salem,NC,36.126007,-80.20962,37067,SingleFamily,2018,1959,10890,950,1.0,3,32508,Castle Heights,neighborhood
5895255743000,6029 Lura Rd,27104,Winston Salem,NC,36.093423,-80.379121,37067,SingleFamily,2018,1986,19602,1514,2.0,2,131022,Winston-Salem,city
5895958209000,524 Sun Creek Dr,27104,Winston Salem,NC,36.092472,-80.354534,37067,SingleFamily,2018,1993,18295,2434,2.5,4,288530,Rollinghills,neighborhood
6855812533000,201 Brooks Edge Dr,27107,Winston Salem,NC,36.084205,-80.156623,37067,SingleFamily,2018,2002,10018,1248,2.0,4,166140,Winston-Salem,city
5898708498000,3545 Transou Rd,27040,Pfafftown,NC,36.161615,-80.36208,37067,SingleFamily,2018,2006,20473,1442,2.0,3,171822,Lochhurst,neighborhood
6817536857000,107 Radford St,27106,Winston Salem,NC,36.144116,-80.301722,37067,SingleFamily,2018,1953,20908,1146,1.0,3,97350,Town and Country Estates,neighborhood
6806235773000,4440 Robinhood Rd,27106,Winston Salem,NC,36.115836,-80.34552,37067,SingleFamily,2018,1953,264409,1170,1.0,3,215893,Winston-Salem,city
6816614403000,832 Wellington Rd,27106,Winston Salem,NC,36.109954,-80.298654,37067,SingleFamily,2018,1955,30492,3964,3.0,4,532302,Buena Vista,neighborhood
6808136004000,4171 Wedge Dr,27040,Pfafftown,NC,36.168802,-80.349754,37067,SingleFamily,2018,1968,35719,2856,3.0,3,230037,Winston-Salem,city
6803015148000,3078 Old Sides Mill Rd,27103,Winston Salem,NC,36.02636,-80.350806,37067,SingleFamily,2018,1980,77972,1760,2.5,3,191834,Winston-Salem,city
6824577228000,1338 Tredwell Dr,27103,Winston Salem,NC,36.07144,-80.266443,37067,SingleFamily,2018,1967,6839,1028,2.0,3,141734,Ardmore,neighborhood
6807320448000,3930 Philpark Dr,27106,Winston Salem,NC,36.139829,-80.34431,37067,SingleFamily,2018,1964,49000,1860,1.5,3,195804,Winsor Place,neighborhood
6829533185000,5688 Harrington Village Dr,27105,Winston Salem,NC,36.197398,-80.269586,37067,SingleFamily,2018,2008,10454,1659,2.5,3,150887,Angel Oaks,neighborhood
5895910490000,213 Heathcliff Pl,27104,Winston Salem,NC,36.08179,-80.356713,37067,SingleFamily,2018,1979,20473,2500,5.0,4,346586,Huntcliff,neighborhood
6846378121000,3169 Carver School Rd,27105,Winston Salem,NC,36.126514,-80.20602,37067,SingleFamily,2018,1959,20473,1277,1.0,3,94780,Cardinal Acres,neighborhood
6864497535000,372 Oak Grove Church Rd,27107,Winston Salem,NC,36.078955,-80.134491,37067,SingleFamily,2018,1952,27442,1432,2.0,3,149832,Winston-Salem,city
6804833134000,2735 Atwood Rd,27103,Winston Salem,NC,36.05942,-80.32513,37067,SingleFamily,2018,1996,14374,2127,2.0,4,238612,Atwood Acres,neighborhood
6806803279000,1044 Huntingdon Rd,27104,Winston Salem,NC,36.106556,-80.325738,37067,SingleFamily,2018,1954,21344,1428,1.5,3,180523,Old Sherwood Forest,neighborhood
6824539229000,1343 Bancroft St,27127,Winston Salem,NC,36.06042,-80.26559,37067,SingleFamily,2018,1802,38768,1749,1.0,3,,Hootstown,neighborhood
6856170936000,3853 Forest Valley Dr,27105,Winston Salem,NC,36.12915,-80.181658,37067,SingleFamily,2018,1960,20037,1540,1.5,3,,Winston-Salem,city
6856170936000,3853 Forest Valley Dr,27105,Winston Salem,NC,36.12915,-80.181658,37067,SingleFamily,2018,1960,20037,1540,1.5,3,,Winston-Salem,city
5895739967000,118 Westmont Dr,27104,Winston Salem,NC,36.088798,-80.360695,37067,SingleFamily,2018,1997,3920,1080,2.0,3,135074,Stonebridge,neighborhood
6807082935000,3291 Grandview Club Rd,27040,Winston Salem,NC,36.157497,-80.354156,37067,SingleFamily,2018,2016,10454,2835,3.5,4,234055,Winston-Salem,city
6827490349000,136 Cherryview Ln,27105,Winston Salem,NC,36.159573,-80.273528,37067,SingleFamily,2018,1971,11325,1075,2.0,3,49394,Cherryview,neighborhood
5895588862000,5443 Hundley Rd,27106,Winston Salem,NC,36.102037,-80.368033,37067,SingleFamily,2018,1998,10018,1290,2.5,3,197985,Winston-Salem,city
6864875104000,540 Covington Ridge Rd,27107,Winston Salem,NC,36.072443,-80.121745,37067,SingleFamily,2018,1993,13503,2016,2.5,3,179818,Winston-Salem,city
6816111316000,798 Hertford Rd,27104,Winston Salem,NC,36.109581,-80.316543,37067,SingleFamily,2018,1955,20037,1927,3.0,3,269301,Old Sherwood Forest,neighborhood
6817820311000,2611 Greencrest Dr,27106,Winston Salem,NC,36.139915,-80.293626,37067,SingleFamily,2018,1962,23522,1716,2.0,3,178036,Winston-Salem,city
6818539647000,5414 Shattalon Dr,27106,Winston Salem,NC,36.171028,-80.301168,37067,SingleFamily,2018,1947,39204,1164,1.0,2,94658,Winston-Salem,city
5896694866000,5331 Dust Devil Dr,27106,Winston Salem,NC,36.132414,-80.366561,37067,SingleFamily,2018,1975,24829,1991,3.0,3,198913,Winston-Salem,city
6808922039000,3755 Cheshire Woods Dr,27106,Winston Salem,NC,36.166446,-80.323757,37067,SingleFamily,2018,2005,26571,1048,2.0,3,119538,Winston-Salem,city
6817101794000,901 Panola Rd,27106,Winston Salem,NC,36.135457,-80.316623,37067,SingleFamily,2018,1978,30927,1670,2.0,3,175324,Woodside,neighborhood
5896839561000,4985 Shady Maple Ln,27106,Winston Salem,NC,36.11502,-80.357746,37067,SingleFamily,2018,1997,22651,3699,4.0,3,362337,Winston-Salem,city
6808327333000,4936 Leinbach Dr,27106,Winston Salem,NC,36.166913,-80.342409,37067,SingleFamily,2018,1958,28314,1468,2.0,3,132655,Cedar Forest,neighborhood
6836705321000,1450 E 11th St,27101,Winston Salem,NC,36.107659,-80.227098,37067,SingleFamily,2018,1975,15681,1062,2.0,3,97647,East Winston,neighborhood
5893452309000,4676 Greendale Way,27103,Winston Salem,NC,36.03763,-80.372543,37067,SingleFamily,2018,1972,20909,2058,2.5,3,197195,Clemmons,city
6818749253000,4321 Becks Park Ln,27106,Winston Salem,NC,36.172645,-80.294351,37067,SingleFamily,2018,2003,19602,1272,2.0,3,145332,Winston-Salem,city
6838157859000,225 Meadow Club Ct,27105,Winston Salem,NC,36.177757,-80.247763,37067,SingleFamily,2018,2006,23958,2010,2.5,3,167557,Pinebrook Country Club,neighborhood
6813628587000,2028 Claxton Dr,27127,Winston Salem,NC,36.030698,-80.295693,37067,SingleFamily,2018,1983,22651,1305,2.0,3,146439,Briar Glen,neighborhood
6815196713000,664 Hertford Rd,27104,Winston Salem,NC,36.105104,-80.314732,37067,SingleFamily,2018,1971,28749,2753,3.0,4,394619,Old Sherwood Forest,neighborhood
6847120236000,3866 Draper St,27105,Winston Salem,NC,36.140571,-80.215685,37067,SingleFamily,2018,1972,16988,1750,2.0,3,128527,Northwoods Estate,neighborhood
6854885535000,354 Robbins Rd,27107,Winston Salem,NC,36.076168,-80.155723,37067,Mobile,2018,1977,165963,1536,2.0,3,152949,Winston-Salem,city
6805456010000,420 Lynhaven Dr,27104,Winston Salem,NC,36.091871,-80.338207,37067,SingleFamily,2018,1956,21780,1107,1.5,3,128274,Peace Haven,neighborhood
6856193047000,3819 Dayton St,27105,Winston Salem,NC,36.132159,-80.180699,37067,SingleFamily,2018,1998,22215,2064,2.0,4,171424,Winston-Salem,city
6804459049000,948 Benjamins Way,27103,Winston Salem,NC,36.064646,-80.336599,37067,SingleFamily,2018,2006,9583,1252,2.0,3,149559,Salem Woods,neighborhood
6838219730000,608 Oak Summit Rd,27105,Winston Salem,NC,36.165207,-80.244285,37067,SingleFamily,2018,1947,165528,1442,1.0,3,,Mineral Springs,neighborhood
6838219730000,608 Oak Summit Rd,27105,Winston Salem,NC,36.165207,-80.244285,37067,SingleFamily,2018,1947,25264,1442,1.0,3,,Mineral Springs,neighborhood
6817341452000,3305 Briarcliffe Rd,27106,Winston Salem,NC,36.145504,-80.310193,37067,SingleFamily,2018,1977,30492,2134,2.5,3,200145,Town and Country Estates,neighborhood
6805684680000,809 Arbor Oaks Dr,27104,Winston Salem,NC,36.101823,-80.332023,37067,SingleFamily,2018,1990,17031,3149,3.5,4,360108,Winston-Salem,city
5896366167000,5520 Robinhood Rd,27106,Winston Salem,NC,36.122138,-80.375826,37067,SingleFamily,2018,1950,16552,1125,1.0,3,103481,Winston-Salem,city
6856175160000,3966 Creekmoore Dr,27101,Winston Salem,NC,36.126752,-80.179831,37067,SingleFamily,2018,2011,6098,1276,2.0,3,146302,Winston-Salem,city
6823939290000,4420 Eagles Nest Dr,27127,Winston Salem,NC,36.032907,-80.2514,37067,SingleFamily,2018,1988,19602,2386,4.0,3,193373,Kingstree,neighborhood
6807220284000,4235 Birch Creek Trl,27106,Winston Salem,NC,36.139118,-80.347603,37067,SingleFamily,2018,2004,24393,3686,4.5,5,546974,Winsor Place,neighborhood
6864975970000,600 Nottinghill Dr,27107,Winston Salem,NC,36.074589,-80.118088,37067,SingleFamily,2018,1995,29185,2792,3.0,4,278223,Winston-Salem,city
6855818234000,233 Sedge Meadow Dr,27107,Winston Salem,NC,36.083429,-80.154575,37067,SingleFamily,2018,2008,11761,1646,2.0,3,172693,Winston-Salem,city
6864239822000,6064 Yeaton Glen Dr,27107,Winston Salem,NC,36.063172,-80.140423,37067,SingleFamily,2018,1994,12632,1736,3.0,3,192650,Winston-Salem,city
6806707484000,4105 Gladstonbury Rd,27104,Winston Salem,NC,36.106942,-80.327719,37067,SingleFamily,2018,1980,16552,2777,3.0,4,316070,New Sherwood Forest,neighborhood
6808727480000,4365 Morningside Dr,27106,Winston Salem,NC,36.167252,-80.328764,37067,SingleFamily,2018,1962,22651,1000,2.0,3,109126,Georgetown,neighborhood
6855905388000,228 Robbins Rd,27107,Winston Salem,NC,36.081065,-80.15203,37067,SingleFamily,2018,1951,116305,1788,1.0,2,203520,Winston-Salem,city
6825529189000,1823 W Academy St,27103,Winston Salem,NC,36.084904,-80.265792,37067,SingleFamily,2018,1949,13068,1000,1.0,2,143212,Ardmore,neighborhood
6818167001000,4785 Miller Rd,27106,Winston Salem,NC,36.177306,-80.315623,37067,Mobile,2018,1998,23958,2128,3.0,3,143993,Winston-Salem,city
6807837850000,172 Mallard Glen Cir,27106,Winston Salem,NC,36.143668,-80.325077,37067,SingleFamily,2018,2003,13068,2312,3.0,3,367376,Greenbrier Farms,neighborhood
6805040929000,513 Sun Creek Dr,27104,Winston Salem,NC,36.091685,-80.353808,37067,SingleFamily,2018,1988,15246,2308,2.5,3,288680,Rollinghills,neighborhood
6804692101000,409 Kettle Ct,27104,Winston Salem,NC,36.075806,-80.33258,37067,SingleFamily,2018,1993,13559,1300,2.5,4,145894,Winston-Salem,city
6803137340000,2573 Mid Salem Dr,27103,Winston Salem,NC,36.032099,-80.347048,37067,SingleFamily,2018,2005,7405,1370,2.0,3,155507,Winston-Salem,city
6837687557000,1104 Motor Rd,27105,Winston Salem,NC,36.15775,-80.23045,37067,SingleFamily,2018,1928,20473,1254,1.0,3,24853,Mineral Springs,neighborhood
6816459715000,1394 Turkey Hill Rd,27106,Winston Salem,NC,36.121821,-80.303869,37067,SingleFamily,2018,1983,13939,3277,3.0,4,318105,Merrimont Hills,neighborhood
6806510018000,1040 Glousman Rd,27104,Winston Salem,NC,36.108606,-80.337135,37067,SingleFamily,2018,1984,14810,3393,2.5,4,377373,New Sherwood Forest,neighborhood
6854271191000,3044 Corry Cir,27107,Winston Salem,NC,36.071827,-80.176881,37067,SingleFamily,2018,1972,15681,1226,1.5,3,92332,Broadbay Heights,neighborhood
6808829179000,3750 Cheshire Woods Dr,27106,Winston Salem,NC,36.166699,-80.324705,37067,SingleFamily,2018,2007,1300,1221,2.0,3,119292,Winston-Salem,city
6837037770000,235 Parkwood Ct,27105,Winston Salem,NC,36.144179,-80.250482,37067,SingleFamily,2018,1971,8712,1112,1.5,3,81450,Forest Hills,neighborhood
6805758119000,260 Staffordshire Rd,27104,Winston Salem,NC,36.092524,-80.327392,37067,SingleFamily,2018,1974,14810,3124,3.0,3,325440,Peace Haven,neighborhood
6803572502000,1815 Lake Point Dr,27103,Winston Salem,NC,36.0439,-80.335436,37067,SingleFamily,2018,2004,12196,2424,3.0,3,335874,Huntington Woods,neighborhood
6813787061000,3715 Poplar Valley Ln,27127,Winston Salem,NC,36.04568,-80.293013,37067,SingleFamily,2018,2000,6969,1180,2.0,3,145000,Winston-Salem,city
6845395241000,650 Sumner Pl,27101,Winston Salem,NC,36.104797,-80.206671,37067,SingleFamily,2018,1971,12196,975,1.5,3,58978,City View,neighborhood
6804534412000,142 Flintfield Dr,27103,Winston Salem,NC,36.060084,-80.334991,37067,SingleFamily,2018,1967,13939,1222,1.5,3,120757,Salem Woods,neighborhood
6838058219000,5550 Frances Ct,27105,Winston Salem,NC,36.176009,-80.250857,37067,SingleFamily,2018,2005,27,2200,2.5,4,185688,Pinebrook Country Club,neighborhood
6803130118000,2620 Stratford Lake Rd,27103,Winston Salem,NC,36.031711,-80.349168,37067,SingleFamily,2018,2002,26136,1202,2.0,3,126633,Winston-Salem,city
6843043582000,110 Marta Rd,27107,Winston Salem,NC,36.03691,-80.216356,37067,SingleFamily,2018,1958,20037,1150,1.5,3,,Kimball Acres,neighborhood
6843043582000,110 Marta Rd,27107,Winston Salem,NC,36.03691,-80.216356,37067,SingleFamily,2018,1958,20037,1150,1.5,3,,Kimball Acres,neighborhood
6805238470000,143 N Peace Haven Rd,27104,Winston Salem,NC,36.087446,-80.344029,37067,SingleFamily,2018,1966,18730,1928,2.0,3,184178,Club Haven Estates,neighborhood
6827981033000,325 Retnuh Dr,27105,Winston Salem,NC,36.156061,-80.256244,37067,SingleFamily,2018,1976,11325,1112,1.5,3,89799,Retnuh Hills,neighborhood
6813584188000,91 Luzelle Dr,27103,Winston Salem,NC,36.046068,-80.300683,37067,SingleFamily,2018,2005,8276,2599,2.5,4,235719,Winston-Salem,city
6805829753000,4300 Country Club Rd,27104,Winston Salem,NC,36.085789,-80.323423,37067,SingleFamily,2018,1947,22651,1742,2.0,3,174638,South Fork,neighborhood
6806449056000,3727 Milhaven Rd,27106,Winston Salem,NC,36.11723,-80.337398,37067,SingleFamily,2018,1936,40946,4483,4.5,4,546409,Winston-Salem,city
6806449056000,3727 Milhaven Rd,27106,Winston Salem,NC,36.11723,-80.337398,37067,SingleFamily,2018,1936,676486,4483,4.5,4,546409,Winston-Salem,city
5893653938000,270 Coghill Dr,27103,Winston Salem,NC,36.039329,-80.365325,37067,SingleFamily,2018,2001,12196,1643,2.0,3,180000,Clemmons,city
6910839167000,310 N Broad St,27101,Winston Salem,NC,36.096503,-80.253733,37067,MultiFamily5Plus,2018,2007,32234,1323,2.0,2,,Westend,neighborhood
6910839167000,511 N Cherry St APT 310,27101,Winston Salem,NC,36.099961,-80.247165,,MultiFamily5Plus,2018,2007,32234,648,2.0,2,,Westend,neighborhood
6837150040000,3945 Shamel St,27105,Winston Salem,NC,36.147754,-80.249644,37067,SingleFamily,2018,1972,9583,1025,1.0,3,77286,Forest Hills,neighborhood
6854365327000,3263 Ridge Hollow Dr,27107,Winston Salem,NC,36.069886,-80.172364,37067,SingleFamily,2018,2006,9147,1146,2.0,3,126744,Winston-Salem,city
6809320015000,3733 Crestbrook Ln,27040,Pfafftown,NC,36.193608,-80.345365,37067,SingleFamily,2018,1975,20908,1500,2.0,3,173154,Winston-Salem,city
6828923933000,416 Camden Ridge Dr,27105,Winston Salem,NC,36.169506,-80.255749,37067,SingleFamily,2018,2002,12196,1468,2.0,3,137841,Winston-Salem,city
6815926195000,725 Ashview Dr,27103,Winston Salem,NC,36.084603,-80.287071,37067,SingleFamily,2018,1958,11325,1327,1.5,3,162541,Knollwood Manor,neighborhood
6838033063000,150 Northoaks Dr,27105,Winston Salem,NC,36.169788,-80.252281,37067,SingleFamily,2018,2000,13503,1211,2.0,3,136812,Winston-Salem,city
6823848574000,1000 Kings Meadow Dr,27127,Winston Salem,NC,36.036571,-80.255255,37067,SingleFamily,2018,2000,17424,1567,3.0,3,167311,Kingstree,neighborhood
6813872479000,2844 Brookhill Dr,27127,Winston Salem,NC,36.044289,-80.291233,37067,SingleFamily,2018,1963,20037,1353,2.0,3,143669,Winston-Salem,city
6805939212000,134 Hedgecock Ave,27104,Winston Salem,NC,36.087169,-80.320236,37067,SingleFamily,2018,1951,32670,1351,1.5,4,146989,South Fork,neighborhood
6834211967000,3021 Marmion St,27127,Winston Salem,NC,36.057058,-80.244467,37067,SingleFamily,2018,1951,11325,1616,2.0,4,130526,Konnoak,neighborhood
6805693107000,828 Arbor Oaks Dr,27104,Winston Salem,NC,36.103376,-80.332689,37067,SingleFamily,2018,1995,14374,2915,3.0,4,349866,Winston-Salem,city
6819301416000,2011 Walker Rd,27106,Winston Salem,NC,36.189586,-80.311046,37067,SingleFamily,2018,1986,27007,1604,2.0,3,163640,Winston-Salem,city
6804446726000,910 Hazelwood Dr,27103,Winston Salem,NC,36.063728,-80.337735,37067,SingleFamily,2018,1985,13939,1200,2.0,2,125200,Salem Woods,neighborhood
6817783697000,5015 Brian Center Ln,27106,Winston Salem,NC,36.157344,-80.296031,37067,SingleFamily,2018,2009,6098,1993,2.0,3,,Winston-Salem,city
6846306886000,2561 Dilworth St,27101,Winston Salem,NC,36.109351,-80.206284,37067,SingleFamily,2018,1968,20473,1350,1.5,3,130716,Winston Lake Estates,neighborhood
6805547767000,600 Brentwood Ct,27104,Winston Salem,NC,36.091299,-80.334309,37067,SingleFamily,2018,1962,38332,950,3.5,6,352556,Peace Haven,neighborhood
6818373052000,2223 Nettlebrook Dr,27106,Winston Salem,NC,36.180156,-80.310108,37067,SingleFamily,2018,2002,10454,1740,2.0,3,165471,Moravian Forest,neighborhood
6834026775000,613 Beth Ave,27127,Winston Salem,NC,36.059144,-80.249581,37067,SingleFamily,2018,1947,9147,915,1.0,3,74116,Konnoak,neighborhood
6833063247000,854 Orchestra Dr,27127,Winston Salem,NC,36.04138,-80.250349,37067,SingleFamily,2018,2011,6969,2227,2.5,3,211161,Union Ridge,neighborhood
6816949902000,820 Marguerite Dr,27106,Winston Salem,NC,36.119666,-80.286931,37067,SingleFamily,2018,1951,21344,1562,2.0,3,278513,Reynolda,neighborhood
6806707222000,4100 Gladstonbury Rd,27104,Winston Salem,NC,36.106349,-80.327933,37067,SingleFamily,2018,1979,14810,2354,3.0,4,306978,New Sherwood Forest,neighborhood
5897311500000,2430 Lake Forest Dr,27106,Winston Salem,NC,36.13673,-80.377957,37067,SingleFamily,2018,1969,30492,1583,2.0,3,178387,Winston-Salem,city
6826427353000,1020 Wendover Cir,27104,Winston Salem,NC,36.112753,-80.270383,37067,SingleFamily,2018,1954,12632,1360,2.5,3,254447,Reynolda Park,neighborhood
6807982893000,4609 Andrews Dr,27106,Winston Salem,NC,36.157517,-80.323451,37067,SingleFamily,2018,1957,20037,1306,1.5,3,124818,Old Town Heights,neighborhood
6809100847000,5630 Greenhill Dr,27040,Pfafftown,NC,36.190277,-80.351942,37067,SingleFamily,2018,1962,40510,2276,2.0,4,195278,Winston-Salem,city
6807267793000,4079 Ivy Bluff Trl,27106,Winston Salem,NC,36.15149,-80.345374,37067,SingleFamily,2018,2005,13503,3521,3.5,4,369286,Chadwyck,neighborhood
