REID,street,zipcode,city,state,latitude,longitude,FIPScounty,useCode,taxAssessmentYear,yearBuilt,lotSizeSqFt,finishedSqFt,bathrooms,bedrooms,zestimate,name,type
6844499361000,1907 Bedford St,27107,Winston Salem,NC,36.077654,-80.20143,37067,SingleFamily,2018,1930,8276,944,1.0,3,38136,Flat Rock,neighborhood
6816727436000,2830 Calumet St,27106,Winston Salem,NC,36.112841,-80.294156,37067,SingleFamily,2018,1993,20908,3541,3.5,3,597567,Merrimont,neighborhood
6825220000000,2370 Rosewood Ave,27103,Winston Salem,NC,36.084322,-80.279236,37067,SingleFamily,2018,1951,11761,1768,2.0,3,250724,Ardmore,neighborhood
6836924651000,2005 Dellabrook Rd,27105,Winston Salem,NC,36.113904,-80.220642,37067,SingleFamily,2018,1939,13068,1197,2.0,3,33231,Slater Park,neighborhood
6837520435000,3829 Ogburn Ave,27105,Winston Salem,NC,36.140891,-80.236009,37067,SingleFamily,2018,1946,10454,1018,1.0,2,75685,Ogburn Station,neighborhood
6834424233000,2917 Stockton St,27127,Winston Salem,NC,36.057894,-80.236777,37067,SingleFamily,2018,1953,7405,800,1.5,2,48781,South Park,neighborhood
6844114690000,1115 Charles St,27107,Winston Salem,NC,36.056359,-80.212869,37067,SingleFamily,2018,2015,15246,2432,2.5,4,135739,Easton,neighborhood
6816479398000,2507 Polo Rd,27106,Winston Salem,NC,36.126278,-80.303677,37067,SingleFamily,2018,1955,19166,1346,1.5,3,133449,West Polo Road,neighborhood
6826851975000,2602 Thurmond St,27105,Winston Salem,NC,36.122771,-80.258976,37067,SingleFamily,2018,1950,6969,1108,1.0,3,36132,Boston Thurmon,neighborhood
6833662668000,3917 Southdale Ave,27107,Winston Salem,NC,36.042687,-80.230346,37067,SingleFamily,2018,1958,7405,832,1.0,2,44860,Weston,neighborhood
6837595540000,5007 Voss St,27105,Winston Salem,NC,36.16018,-80.234595,37067,SingleFamily,2018,1960,20037,988,1.0,3,41524,Mineral Springs,neighborhood
6835867937000,1810 E 3rd St,27101,Winston Salem,NC,36.098462,-80.222854,37067,SingleFamily,2018,1953,7405,1052,1.0,2,31221,Skyland,neighborhood
6834923597000,813 Crowder St,27107,Winston Salem,NC,36.058955,-80.220087,37067,SingleFamily,2018,1920,10018,990,1.0,3,27929,Easton,neighborhood
6845261220000,2309 E 1st St,27101,Winston Salem,NC,36.096462,-80.211363,37067,SingleFamily,2018,1962,16117,1886,2.0,3,104362,Winston-Salem,city
6836460463000,2725 Ivy Ave,27105,Winston Salem,NC,36.124303,-80.239053,37067,SingleFamily,2018,1947,8276,1361,1.0,3,56815,Glenn Avenue,neighborhood
6815906615000,2715 Maplewood Ave,27103,Winston Salem,NC,36.080462,-80.287349,37067,SingleFamily,2018,1954,17424,1260,2.0,3,221101,Knollwood Manor,neighborhood
6834867818000,2049 Bloomfield Dr,27107,Winston Salem,NC,36.070735,-80.222475,37067,SingleFamily,2018,1954,4791,800,1.0,2,30208,Forest Park,neighborhood
6824298960000,1019 Martin St,27103,Winston Salem,NC,36.078543,-80.276253,37067,SingleFamily,2018,1936,10018,1161,2.0,3,231087,Ardmore,neighborhood
6834296136000,1519 S Broad St,27127,Winston Salem,NC,36.076823,-80.243137,37067,SingleFamily,2018,1920,12632,958,1.0,1,,Washington Park,neighborhood
6826843811000,2300 Thurmond St,27105,Winston Salem,NC,36.119691,-80.258439,37067,SingleFamily,2018,1937,9583,824,1.0,4,26924,Boston Thurmon,neighborhood
6845159728000,2224 E 1st St,27101,Winston Salem,NC,36.095342,-80.212018,37067,SingleFamily,2018,1963,7405,783,1.0,2,32325,Winston-Salem,city
6834301827000,3170 Anderson Dr,27127,Winston Salem,NC,36.05408,-80.24114,37067,SingleFamily,2018,1952,8712,1769,2.0,3,141084,Konnoak,neighborhood
6835994061000,819 Camel Ave,27101,Winston Salem,NC,36.104135,-80.220467,37067,SingleFamily,2018,1940,5662,1429,1.0,3,37139,Reynoldstown,neighborhood
6815978889000,2601 Country Club Rd,27104,Winston Salem,NC,36.100346,-80.286698,37067,SingleFamily,2018,1950,59241,3704,3.5,4,788675,Buena Vista,neighborhood
6844543891000,2199 Willard Rd,27107,Winston Salem,NC,36.065314,-80.199791,37067,SingleFamily,2018,1955,14810,1670,1.5,4,70712,Waughtown,neighborhood
6834066345000,713 W Sprague St,27127,Winston Salem,NC,36.06906,-80.24975,37067,SingleFamily,2018,1925,7405,894,1.0,2,49180,Washington Park,neighborhood
6845573844000,370 Nash Ave,27101,Winston Salem,NC,36.101098,-80.200506,37067,SingleFamily,2018,1969,10018,960,1.0,3,32935,City View,neighborhood
6834808254000,828 Ferndale Ave,27107,Winston Salem,NC,36.052539,-80.221783,37067,SingleFamily,2018,1939,6229,1030,1.0,2,28754,Easton,neighborhood
6806951860000,855 Rockaway Ln,27106,Winston Salem,NC,36.121818,-80.323471,37067,SingleFamily,2018,1935,20473,1482,1.0,3,139658,Winston-Salem,city
6834441249000,2636 Stockton St,27127,Winston Salem,NC,36.063505,-80.237809,37067,SingleFamily,2018,1950,8276,1313,1.0,2,66976,South Park,neighborhood
6837540251000,4219 Ogburn Ave,27105,Winston Salem,NC,36.145733,-80.236027,37067,Duplex,2018,1987,10454,1650,2.0,4,86062,Ogburn Station,neighborhood
6825432525000,2075 Queen St,27103,Winston Salem,NC,36.088579,-80.271758,37067,SingleFamily,2018,1939,7840,1542,1.0,3,201899,Ardmore,neighborhood
6815984929000,2645 Forest Dr,27104,Winston Salem,NC,36.103356,-80.288346,37067,SingleFamily,2018,1950,14374,2772,2.0,4,512222,Buena Vista,neighborhood
6834433052000,2825 Stockton St,27127,Winston Salem,NC,36.060015,-80.237086,37067,SingleFamily,2018,1947,14810,1275,1.5,3,93744,South Park,neighborhood
6844354487000,2239 Pleasant St,27107,Winston Salem,NC,36.067079,-80.206303,37067,SingleFamily,2018,1937,9147,768,1.0,2,15170,Waughtown,neighborhood
6835757877000,136 S Jackson Ave,27101,Winston Salem,NC,36.095454,-80.22608,37067,SingleFamily,2018,1940,5662,1020,1.0,3,32301,East Winston,neighborhood
6834977120000,2007 Francis St,27107,Winston Salem,NC,36.07142,-80.219072,37067,SingleFamily,2018,1950,6969,750,2.0,4,31083,Forest Park,neighborhood
6836811329000,1239 N Jackson Ave,27101,Winston Salem,NC,36.110603,-80.225097,37067,SingleFamily,2018,1915,8712,672,1.0,1,23447,East Winston,neighborhood
6834065792000,707 Salisbury Ridge Rd,27127,Winston Salem,NC,36.07002,-80.24994,37067,SingleFamily,2018,1957,5662,768,1.0,2,50525,Washington Park,neighborhood
6834959639000,930 E Sprague St,27107,Winston salem,NC,36.067517,-80.21839,37067,SingleFamily,2016,1950,4356,1490,1.5,3,,Waughtown,neighborhood
6834959639000,930 E Sprague St,27107,Winston salem,NC,36.067517,-80.21839,37067,SingleFamily,2016,1950,10454,1490,1.5,3,,Waughtown,neighborhood
6844374261000,1801 Pleasant St,27107,Winston Salem,NC,36.071878,-80.206608,37067,SingleFamily,2018,1950,9147,720,1.0,2,25894,Forest Park,neighborhood
6844134288000,2734 Ludwig St,27107,Winston Salem,NC,36.060993,-80.212949,37067,SingleFamily,2018,1945,7405,950,1.0,3,,Waughtown,neighborhood
6845262809000,2249 Lula St,27101,Winston Salem,NC,36.098384,-80.211092,37067,SingleFamily,2018,1928,5227,1288,1.0,3,35358,Skyland,neighborhood
6824191283000,2411 Jefferson Ave,27103,Winston Salem,NC,36.076622,-80.281845,37067,SingleFamily,2018,1949,7405,916,1.0,2,136829,Ardmore,neighborhood
6836356395000,2421 N Glenn Ave,27105,Winston Salem,NC,36.121358,-80.240294,37067,SingleFamily,2018,1930,7405,1736,2.0,4,51154,North Winston,neighborhood
6834973695000,1851 S Martin Luther King Jr Dr,27107,Winston Salem,NC,36.072927,-80.220194,37067,SingleFamily,2018,1934,4791,696,1.0,2,27394,Forest Park,neighborhood
6834301735000,3200 Anderson Dr,27127,Winston Salem,NC,36.053775,-80.241116,37067,SingleFamily,2018,1940,13068,1113,2.0,3,96097,Konnoak,neighborhood
6835882057000,533 N Graham Ave,27101,Winston Salem,NC,36.101516,-80.224515,37067,SingleFamily,2018,1910,50,800,1.0,2,,East Winston,neighborhood
6835771652000,1412 E 5th St,27101,Winston Salem,NC,36.100244,-80.22821,37067,SingleFamily,2018,1916,4791,1269,1.0,3,30836,East Winston,neighborhood
6836978271000,2813 Ansonia St,27105,Winston Salem,NC,36.126642,-80.219414,37067,SingleFamily,2018,1952,7405,1020,1.0,2,28290,Bowen Park,neighborhood
6835877296000,1818 E 4th St,27101,Winston Salem,NC,36.099305,-80.22267,37067,SingleFamily,2018,1956,6534,864,1.0,2,31348,Skyland,neighborhood
6844160419000,2101 Hoover St,27107,Winston Salem,NC,36.069812,-80.21467,37067,SingleFamily,2018,1949,6969,768,1.0,2,27513,Forest Park,neighborhood
6844529886000,1825 Mansfield St,27107,Winston Salem,NC,36.059921,-80.19772,37067,SingleFamily,2018,1925,37026,1413,1.0,3,,Waughtown,neighborhood
6815918473000,718 Knollwood St,27103,Winston Salem,NC,36.082617,-80.286447,37067,SingleFamily,2018,1940,13503,2165,2.5,3,252172,Knollwood Manor,neighborhood
6826739528000,906 Roosevelt St,27105,Winston Salem,NC,36.116256,-80.259701,37067,SingleFamily,2018,1939,7405,1645,2.0,3,92899,Boston Thurmon,neighborhood
6826901943000,871 W 11th St,27105,Winston Salem,NC,36.109069,-80.255463,37067,SingleFamily,2018,1959,7840,876,1.0,3,31833,Boston Thurmon,neighborhood
6835022045000,630 Hunter Ave,27101,Winston Salem,NC,36.084719,-80.251369,37067,SingleFamily,2018,1922,7405,1871,2.0,4,178826,West Salem,neighborhood
6834977135000,2001 Francis St,27107,Winston Salem,NC,36.071557,-80.219072,37067,SingleFamily,2018,1935,6969,832,2.0,2,29191,Forest Park,neighborhood
6844522702000,2636 Woodville St,27107,Winston Salem,NC,36.059583,-80.20035,37067,SingleFamily,2018,1946,9147,912,1.0,2,,Waughtown,neighborhood
6825101487000,2458 Maplewood Ave,27103,Winston Salem,NC,36.080029,-80.281954,37067,SingleFamily,2018,1940,15681,2918,3.0,3,422644,Ardmore,neighborhood
6833995539000,1228 Hart St,27107,Winston Salem,NC,36.050771,-80.219399,37067,SingleFamily,2018,1952,14374,728,1.0,2,21175,Easton,neighborhood
6844243422000,2655 Carlyle St,27107,Winston Salem,NC,36.064143,-80.2102,37067,SingleFamily,2018,1966,7405,768,1.0,2,26655,Waughtown,neighborhood
6834906231000,942 Ferndale Ave,27107,Winston Salem,NC,36.052486,-80.219101,37067,SingleFamily,2018,1934,12196,816,1.0,3,25097,Easton,neighborhood
6835966599000,1928 Kentucky Ave,27101,Winston Salem,NC,36.097485,-80.219577,37067,SingleFamily,2018,1956,6098,864,1.0,3,30750,Skyland,neighborhood
6825366865000,1952 Runnymede Rd,27104,Winston Salem,NC,36.097627,-80.273845,37067,SingleFamily,2018,1952,23958,2416,2.0,2,501844,West Highlands,neighborhood
6835967950000,1955 Kentucky Ave,27101,Winston Salem,NC,36.098348,-80.219366,37067,SingleFamily,2018,1951,6098,768,1.0,2,26702,Skyland,neighborhood
6836341608000,2340 N Patterson Ave,27105,Winston Salem,NC,36.119491,-80.242227,37067,SingleFamily,2018,1930,6969,1340,1.0,3,53391,Greenway,neighborhood
6834380235000,106 Gloria Ave,27127,Winston Salem,NC,36.074353,-80.241768,37067,SingleFamily,2018,1910,10454,1078,1.0,2,181340,Washington Park,neighborhood
6844337634000,1526 Granite St,27107,Winston Salem,NC,36.062049,-80.205379,37067,SingleFamily,2018,1953,10018,1072,2.0,3,38963,Waughtown,neighborhood
6834209970000,137 Haverhill St,27127,Winston Salem,NC,36.054136,-80.241644,37067,SingleFamily,2018,1942,17424,2044,2.0,3,130594,Konnoak,neighborhood
6834489032000,1806 Chapel St,27127,Winston Salem,NC,36.073783,-80.235333,37067,SingleFamily,2018,1949,10018,1184,1.0,2,,North Carolina School of the Arts,neighborhood
6844354387000,2251 Pleasant St,27107,Winston Salem,NC,36.066791,-80.206297,37067,SingleFamily,2018,1935,9147,828,1.0,2,36327,Waughtown,neighborhood
6836811629000,1317 N Jackson Ave,27101,Winston Salem,NC,36.11143,-80.225107,37067,SingleFamily,2018,1970,8712,1008,1.0,3,31226,East Winston,neighborhood
6834433753000,2735 Stockton St,27127,Winston Salem,NC,36.061937,-80.237113,37067,SingleFamily,2018,1930,14810,1282,1.5,3,93660,South Park,neighborhood
6825270735000,2300 Georgia Ave,27104,Winston Salem,NC,36.100088,-80.27938,37067,SingleFamily,2018,1929,40946,4130,4.0,5,694319,Buena Vista,neighborhood
6834382288000,24 Gloria Ave,27127,Winston Salem,NC,36.074425,-80.241141,37067,SingleFamily,2018,1941,9583,1900,2.0,4,,Washington Park,neighborhood
6834382288000,24 Gloria Ave,27127,Winston Salem,NC,36.074425,-80.241141,37067,SingleFamily,2018,1941,9147,1900,2.0,4,,Washington Park,neighborhood
6834934367000,916 Moravia St,27107,Winston Salem,NC,36.061147,-80.219815,37067,SingleFamily,2018,1979,100,1000,1.5,4,,Belview,neighborhood
6834972764000,1838 S Martin Luther King Jr Dr,27107,Winston Salem,NC,36.073187,-80.220661,37067,SingleFamily,2018,1946,7405,898,1.0,2,37418,Forest Park,neighborhood
6826225117000,808 Oaklawn Ave,27104,Winston Salem,NC,36.112162,-80.277951,37067,SingleFamily,2018,1927,15682,3169,3.0,4,687699,Buena Vista,neighborhood
6825611986000,1800 W Academy St,27103,Winston Salem,NC,36.084306,-80.265115,37067,SingleFamily,2018,1927,8276,2433,2.0,3,329175,Ardmore,neighborhood
6836820623000,1604 N Jackson Ave,27105,Winston Salem,NC,36.114,-80.225459,37067,SingleFamily,2018,1967,5227,815,1.0,3,15780,North East Winston,neighborhood
6846124070000,1405 Douglas St,27105,Winston Salem,NC,36.11242,-80.213761,37067,SingleFamily,2018,1930,7405,1152,1.0,4,33759,Dreamland,neighborhood
6835968778000,1954 Kentucky Ave,27101,Winston Salem,NC,36.098023,-80.218987,37067,SingleFamily,2018,1952,5227,816,1.0,2,28088,Skyland,neighborhood
6826753592000,2529 Kirkwood St,27105,Winston Salem,NC,36.121593,-80.261579,37067,SingleFamily,2018,1946,4791,1660,2.0,4,,Boston Thurmon,neighborhood
6825558896000,160 N Hawthorne Rd,27104,Winston Salem,NC,36.095027,-80.266255,37067,SingleFamily,2018,1920,13068,2095,2.0,4,301118,West Highlands,neighborhood
6844037356000,2905 Thomasville Rd,27107,Winston Salem,NC,36.061189,-80.215479,37067,SingleFamily,2018,1918,19602,1404,2.0,2,35121,Waughtown,neighborhood
6834804647000,3313 Kirby St,27107,Winston Salem,NC,36.05374,-80.223133,37067,SingleFamily,2018,1955,4356,762,1.0,2,21589,Easton,neighborhood
6844422509000,1606 Mansfield St,27107,Winston Salem,NC,36.059159,-80.20383,37067,SingleFamily,2018,1956,10454,900,1.0,3,39381,Waughtown,neighborhood
6844163757000,1206 Verdun St,27107,Winston Salem,NC,36.070577,-80.213566,37067,SingleFamily,2018,1945,7405,888,1.5,3,39839,Forest Park,neighborhood
6826822883000,1444 Thurmond St,27105,Winston Salem,NC,36.114212,-80.258396,37067,SingleFamily,2018,1939,6969,892,1.0,2,39273,Boston Thurmon,neighborhood
6834944331000,2627 Burgandy St,27107,Winston Salem,NC,36.063751,-80.219947,37067,SingleFamily,2018,1954,12632,1160,1.0,3,,Belview,neighborhood
6837440052000,4136 Mineral Ave,27105,Winston Salem,NC,36.145158,-80.239422,37067,SingleFamily,2018,1940,21780,1300,1.0,2,57518,Winston-Salem,city
6834856683000,741 E Devonshire St,27107,Winston Salem,NC,36.067359,-80.222557,37067,SingleFamily,2018,1920,7405,878,1.0,1,30968,Belview,neighborhood
6834552828000,2423 Lomond St,27127,Winston Salem,NC,36.067909,-80.234276,37067,SingleFamily,2018,1920,6534,1750,1.0,3,105175,Sunnyside,neighborhood
6844262718000,1314 Verdun St,27107,Winston Salem,NC,36.070623,-80.210623,37067,SingleFamily,2018,1937,7405,1140,1.0,3,32424,Forest Park,neighborhood
6815986011000,2615 Country Club Rd,27104,Winston Salem,NC,36.100648,-80.287643,37067,SingleFamily,2018,1926,52272,4993,5.0,5,881077,Buena Vista,neighborhood
6844059430000,2323 Sink St,27107,Winston Salem,NC,36.066742,-80.214928,37067,SingleFamily,2018,1930,11761,915,1.0,2,37932,Waughtown,neighborhood
6815667901000,3010 Country Club Rd,27104,Winston Salem,NC,36.09758,-80.297393,37067,SingleFamily,2018,1950,24829,2199,2.0,3,385413,Country Club,neighborhood
6817913134000,145 Crepe Myrtle Cir,27106,Winston Salem,NC,36.136743,-80.28914,37067,SingleFamily,2018,1965,36590,2205,3.0,4,233400,Woodberry Forest,neighborhood
6833279809000,3651 Konnoak Dr,27127,Winston Salem,NC,36.045905,-80.241758,37067,SingleFamily,2018,1940,20037,882,1.0,2,40447,Union Ridge,neighborhood
6825613434000,719 Gales Ave,27103,Winston Salem,NC,36.08288,-80.264566,37067,SingleFamily,2018,1935,9147,1404,2.0,3,206325,Ardmore,neighborhood
6837447483000,4224 Ogburn Ave,27105,Winston Salem,NC,36.146299,-80.237212,37067,SingleFamily,2018,1925,14810,768,1.0,1,28999,Ogburn Station,neighborhood
6837036288000,189 Clayton St,27105,Winston Salem,NC,36.143045,-80.250782,37067,SingleFamily,2018,1954,9147,1081,1.0,3,85880,Forest Hills,neighborhood
6836936288000,2024 E 18th St,27105,Winston Salem,NC,36.115864,-80.219882,37067,SingleFamily,2018,1956,6969,1020,1.0,3,30463,North East Winston,neighborhood
6824591927000,929 Watson Ave,27103,Winston Salem,NC,36.078797,-80.268613,37067,SingleFamily,2018,1950,10454,1611,2.0,3,195973,Ardmore,neighborhood
6836966991000,2720 Ansonia St,27105,Winston Salem,NC,36.125807,-80.219985,37067,SingleFamily,2018,1924,5662,672,1.0,2,23666,Bowen Park,neighborhood
6825610860000,1809 Brantley St,27103,Winston Salem,NC,36.083865,-80.265482,37067,SingleFamily,2018,1925,9583,1714,2.0,3,253244,Ardmore,neighborhood
6834478810000,1828 Chapel St,27127,Winston Salem,NC,36.073188,-80.235753,37067,SingleFamily,2018,1904,10018,1316,1.0,2,94051,North Carolina School of the Arts,neighborhood
6835872943000,519 N Graham Ave,27101,Winston Salem,NC,36.101111,-80.224525,37067,SingleFamily,2018,1915,5227,1334,1.0,3,,East Winston,neighborhood
6837428343000,3824 Ogburn Ave,27105,Winston Salem,NC,36.140546,-80.236639,37067,SingleFamily,2018,1937,7405,1152,1.0,4,42226,Ogburn Station,neighborhood
6846131055000,2330 Dunbar St,27105,Winston Salem,NC,36.115253,-80.214907,37067,SingleFamily,2018,1940,8276,930,1.0,2,,Dreamland,neighborhood
6845497151000,533 Chandler St,27101,Winston Salem,NC,36.104572,-80.202536,37067,SingleFamily,2018,1936,18295,1000,1.0,2,44160,City View,neighborhood
6834973375000,1919 S Martin Luther King Jr Dr,27107,Winston Salem,NC,36.072104,-80.220278,37067,SingleFamily,2018,1937,7405,822,1.0,2,51970,Forest Park,neighborhood
6844047625000,2450 Sink St,27107,Winston Salem,NC,36.064724,-80.215611,37067,SingleFamily,2018,1935,10580,1567,2.0,4,75350,Waughtown,neighborhood
6835772454000,1417 E 4th St,27101,Winston Salem,NC,36.099739,-80.227875,37067,SingleFamily,2018,1940,7405,1424,1.0,2,35046,East Winston,neighborhood
6824092967000,2604 Lyndhurst Ave,27103,Winston Salem,NC,36.078698,-80.285043,37067,SingleFamily,2018,1946,9583,600,1.0,2,114179,Ardmore,neighborhood
6844772553000,2323 E Sprague St,27107,Winston Salem,NC,36.072802,-80.193725,37067,SingleFamily,2018,1951,17859,1924,3.0,3,123008,Parkview,neighborhood
6835899249000,841 N Cameron Ave,27101,Winston Salem,NC,36.104904,-80.222243,37067,SingleFamily,2018,1939,5227,897,1.0,2,36235,Reynoldstown,neighborhood
6834069039000,704 W Devonshire St,27127,Winston Salem,NC,36.068285,-80.248704,37067,SingleFamily,2018,1920,10890,847,1.0,2,54224,Washington Park,neighborhood
6844052418000,1017 E Devonshire St,27107,Winston Salem,NC,36.066981,-80.217353,37067,SingleFamily,2018,1990,7405,1008,1.0,3,40592,Waughtown,neighborhood
6836837289000,1800 E 18th St,27105,Winston Salem,NC,36.115891,-80.222916,37067,SingleFamily,2018,1940,6969,1001,2.0,3,28484,North East Winston,neighborhood
6836837289000,1800 E 18th St,27105,Winston Salem,NC,36.115991,-80.222962,,SingleFamily,2018,1940,6970,1001,2.0,3,28484,North East Winston,neighborhood
6836363012000,2529 N Patterson Ave,27105,Winston Salem,NC,36.123196,-80.241587,37067,SingleFamily,2018,1925,7840,1202,1.0,3,41099,North Winston,neighborhood
6836241174000,2316 Greenway Ave,27105,Winston Salem,NC,36.117929,-80.245572,37067,SingleFamily,2018,1928,19166,1256,2.0,3,96213,Greenway,neighborhood
6825224617000,2335 Elizabeth Ave,27103,Winston Salem,NC,36.086133,-80.277888,37067,SingleFamily,2018,1930,10890,1799,2.0,3,322601,Ardmore,neighborhood
6824591921000,933 Watson Ave,27103,Winston Salem,NC,36.078625,-80.268609,37067,SingleFamily,2018,1950,10454,1321,1.0,3,211850,Ardmore,neighborhood
6846026782000,602 Eldora St,27105,Winston Salem,NC,36.114376,-80.216491,37067,SingleFamily,2018,1922,6011,850,1.0,2,34102,Dreamland,neighborhood
6834064093000,802 W Sprague St,27127,Winston Salem,NC,36.068179,-80.250252,37067,SingleFamily,2018,1920,7405,792,1.0,2,49454,Washington Park,neighborhood
6825635054000,1700 Queen St,27103,Winston Salem,NC,36.087266,-80.2639,37067,SingleFamily,2018,1950,7405,1731,2.0,3,241432,Ardmore,neighborhood
6844520960000,2605 Waterbury St,27107,Winston Salem,NC,36.060063,-80.200847,37067,SingleFamily,2018,1950,8712,744,1.0,2,22792,Waughtown,neighborhood
6837134676000,231 Forest Hill Ave,27105,Winston Salem,NC,36.144072,-80.248133,37067,SingleFamily,2018,1948,8712,1072,1.0,4,,Forest Hills,neighborhood
6836363718000,2809 N Patterson Ave,27105,Winston Salem,NC,36.125257,-80.24161,37067,SingleFamily,2018,1935,7840,2473,5.0,5,,Greenway,neighborhood
6816369390000,31 Carter Cir,27106,Winston Salem,NC,36.123274,-80.307009,37067,SingleFamily,2018,1964,27878,1400,1.5,2,152067,Mount Tabor,neighborhood
6836854239000,2418 Newark St,27105,Winston Salem,NC,36.121337,-80.224229,37067,SingleFamily,2018,1958,9148,800,1.0,2,26724,North East Winston,neighborhood
6835004678000,854 Granville Dr,27101,Winston Salem,NC,36.080925,-80.25053,37067,SingleFamily,2018,1955,11761,1497,1.5,3,158659,West Salem,neighborhood
6834286538000,1701 S Broad St,27127,Winston Salem,NC,36.075239,-80.243114,37067,SingleFamily,2018,1947,10454,1218,1.0,2,101800,Washington Park,neighborhood
6837437158000,545 Efird St,27105,Winston Salem,NC,36.142875,-80.236983,37067,SingleFamily,2018,1922,13068,2410,1.0,2,,Ogburn Station,neighborhood
6835982809000,809 Rich Ave,27101,Winston Salem,NC,36.103772,-80.22134,37067,SingleFamily,2018,1940,5662,909,1.0,3,33845,Reynoldstown,neighborhood
6834758830000,633 E Devonshire St,27107,Winston Salem,NC,36.067765,-80.225393,37067,SingleFamily,2018,1946,11325,1176,1.0,2,59347,Belview,neighborhood
6825618536000,632 S Sunset Dr,27103,Winston Salem,NC,36.083236,-80.262879,37067,SingleFamily,2018,1930,9147,1370,1.0,3,181322,Ardmore,neighborhood
6825613946000,1720 W Academy St,27103,Winston Salem,NC,36.084347,-80.264552,37067,SingleFamily,2018,1950,9147,1200,1.0,3,166416,Ardmore,neighborhood
6824387968000,1151 Miller St,27103,Winston Salem,NC,36.076041,-80.27317,37067,SingleFamily,2018,1960,13939,1209,2.5,3,199571,Ardmore,neighborhood
6825138017000,2401 Westfield Ave,27103,Winston Salem,NC,36.087197,-80.279873,37067,SingleFamily,2018,1947,10890,912,1.0,2,166453,Ardmore,neighborhood
6825111690000,2516 Westover Dr,27103,Winston Salem,NC,36.083159,-80.281959,37067,SingleFamily,2018,1948,10890,950,1.0,2,161486,Ardmore,neighborhood
6834266866000,2200 S Broad St,27127,Winston Salem,NC,36.070527,-80.242933,37067,SingleFamily,2018,1929,6534,1352,1.0,3,110631,Washington Park,neighborhood
6826424981000,1053 Van Hoy Ave,27104,Winston Salem,NC,36.11435,-80.271327,37067,SingleFamily,2018,1951,37897,3200,3.0,5,418635,Reynolda Park,neighborhood
6833391876000,3300 Anderson Dr,27127,Winston Salem,NC,36.051298,-80.240926,37067,SingleFamily,2018,1953,15681,1780,2.0,2,153766,Konnoak,neighborhood
6826739809000,908 W 20th St,27105,Winston Salem,NC,36.117123,-80.259777,37067,SingleFamily,2018,1950,6969,1131,1.0,2,15920,Boston Thurmon,neighborhood
6834467113000,134 E Devonshire St,27127,Winston Salem,NC,36.068608,-80.235989,37067,SingleFamily,2018,1915,10454,2190,2.0,3,188534,Sunnyside,neighborhood
6844428877000,2606 Waterbury St,27107,Winston Salem,NC,36.059979,-80.201494,37067,SingleFamily,2018,1950,7405,744,1.0,2,21617,Waughtown,neighborhood
6833370503000,3703 Konnoak Dr,27127,Winston Salem,NC,36.044898,-80.241396,37067,SingleFamily,2018,1937,24393,1227,2.0,4,96181,Union Ridge,neighborhood
6825507600000,860 Lockland Ave,27103,Winston Salem,NC,36.08055,-80.266671,37067,SingleFamily,2018,1947,11326,1711,2.0,4,259131,Ardmore,neighborhood
6834560154000,2400 Lomond St,27127,Winston Salem,NC,36.068619,-80.234839,37067,SingleFamily,2018,1910,14810,2087,1.0,5,104554,Sunnyside,neighborhood
6834280132000,310 Gloria Ave,27127,Winston Salem,NC,36.07398,-80.245138,37067,SingleFamily,2018,1915,7405,1305,1.5,2,178580,Washington Park,neighborhood
6835799807000,920 N Jackson Ave,27101,Winston Salem,NC,36.106438,-80.225754,37067,SingleFamily,2018,1920,5662,879,1.0,2,,East Winston,neighborhood
6826109574000,622 Arbor Rd,27104,Winston Salem,NC,36.107659,-80.279724,37067,SingleFamily,2018,1985,15681,3429,4.0,4,765239,Buena Vista,neighborhood
6834807359000,823 Ferndale Ave,27107,Winston Salem,NC,36.052933,-80.222043,37067,SingleFamily,2018,1940,5227,768,1.0,2,20856,Easton,neighborhood
6834570834000,1817 Chapel St,27127,Winston Salem,NC,36.073282,-80.234947,37067,SingleFamily,2018,1935,5227,1064,1.0,2,54162,North Carolina School of the Arts,neighborhood
6826841662000,2049 Cannon Ave,27105,Winston Salem,NC,36.119156,-80.258931,37067,SingleFamily,2018,1950,6969,720,1.0,2,23112,Boston Thurmon,neighborhood
6825205971000,2324 Fairway Dr,27103,Winston Salem,NC,36.081315,-80.277289,37067,SingleFamily,2018,1936,7840,1481,2.0,3,230466,Ardmore,neighborhood
6825315873000,624 Miller St,27103,Winston Salem,NC,36.083855,-80.273912,37067,SingleFamily,2018,1925,12197,2610,3.0,4,333426,Ardmore,neighborhood
6835026661000,603 S Green St,27101,Winston Salem,NC,36.086236,-80.249978,37067,SingleFamily,2018,1920,5000,2062,3.0,3,183876,West Salem,neighborhood
6824193795000,1171 S Hawthorne Rd,27103,Winston Salem,NC,36.078053,-80.281269,37067,SingleFamily,2018,1935,7405,1893,2.0,3,238837,Ardmore,neighborhood
6834551219000,2509 Lomond St,27127,Winston Salem,NC,36.06629,-80.234637,37067,SingleFamily,2018,1915,7405,884,1.0,2,30895,Sunnyside,neighborhood
6835998460000,829 Ferrell Ave,27101,Winston Salem,NC,36.105194,-80.219078,37067,SingleFamily,2018,1952,10018,1380,2.0,3,40685,Reynoldstown,neighborhood
6835117729000,727 S Broad St,27101,Winston Salem,NC,36.084268,-80.246382,37067,SingleFamily,2018,1916,16988,1684,3.0,3,193632,South Marshall,neighborhood
6836353315000,2423 N Patterson Ave,27105,Winston Salem,NC,36.121356,-80.241566,37067,SingleFamily,2018,1926,7840,1470,1.0,4,60896,North Winston,neighborhood
6826815617000,1311 Thurmond St,27105,Winston Salem,NC,36.111061,-80.257643,37067,SingleFamily,2018,1942,6534,1378,1.0,3,48281,Boston Thurmon,neighborhood
6846055350000,2415 Machine St,27105,Winston Salem,NC,36.121408,-80.217022,37067,SingleFamily,2018,1964,7840,1089,1.0,3,30859,Bowen Park,neighborhood
6827101934000,131 Rosedale Cir,27106,Winston Salem,NC,36.136224,-80.282961,37067,SingleFamily,2018,1939,25264,2092,2.0,3,117679,Woodberry Forest,neighborhood
6844584248000,1920 Flatrock Ct,27107,Winston Salem,NC,36.074838,-80.199755,37067,SingleFamily,2018,1996,11325,1161,2.0,3,88685,Flat Rock,neighborhood
6815349304000,3441 Gladstone St,27104,Winston Salem,NC,36.090393,-80.306767,37067,SingleFamily,2018,1930,20908,980,1.0,3,,Country Club,neighborhood
6815349304000,3441 Gladstone St,27104,Winston Salem,NC,36.090393,-80.306767,37067,SingleFamily,2018,1930,18295,556,1.0,3,,Country Club,neighborhood
6834833916000,744 Aureole St,27107,Winston Salem,NC,36.062754,-80.223734,37067,SingleFamily,2018,1915,7405,672,1.0,2,28166,Belview,neighborhood
6844267756000,1424 Verdun St,27107,Winston Salem,NC,36.070575,-80.208822,37067,SingleFamily,2018,1953,10018,1129,1.5,3,35968,Forest Park,neighborhood
6824175395000,1427 Kenwood St,27103,Winston Salem,NC,36.071515,-80.280438,37067,SingleFamily,2018,1954,8712,1176,1.0,3,99518,Ardmore,neighborhood
6836353516000,2437 N Patterson Ave,27105,Winston Salem,NC,36.121908,-80.241572,37067,SingleFamily,2018,1941,7840,956,1.5,4,50912,North Winston,neighborhood
6825368556000,1905 W 1st St,27104,Winston Salem,NC,36.096861,-80.273198,37067,SingleFamily,2018,1930,34848,3640,4.0,5,649602,West Highlands,neighborhood
6834972645000,1850 S Martin Luther King Jr Dr,27107,Winston Salem,NC,36.072912,-80.220719,37067,SingleFamily,2018,1930,5227,708,1.0,2,27640,Forest Park,neighborhood
6834423753000,2849 Stockton St,27127,Winston Salem,NC,36.059259,-80.237078,37067,SingleFamily,2018,1953,7405,720,1.0,2,34694,South Park,neighborhood
6834369460000,8 E Sprague St,27127,Winston Salem,NC,36.069307,-80.238524,37067,SingleFamily,2018,1930,7405,1504,1.5,2,150012,Sunnyside,neighborhood
6834300405000,3223 Luther St,27127,Winston Salem,NC,36.052928,-80.241552,37067,SingleFamily,2018,1940,9147,1417,1.5,3,72407,Konnoak,neighborhood
6844176054000,1808 Longview Dr,27107,Winston Salem,NC,36.07131,-80.212543,37067,SingleFamily,2018,1924,5662,943,1.0,3,45644,Forest Park,neighborhood
6816583495000,166 Endsley Ave,27106,Winston Salem,NC,36.129211,-80.302355,37067,SingleFamily,2018,1956,7405,832,1.0,2,66631,West Polo Road,neighborhood
6844548156000,1908 Oregon St,27107,Winston Salem,NC,36.063556,-80.198398,37067,SingleFamily,2018,1925,10018,1827,1.0,2,54684,Waughtown,neighborhood
6844548156000,1908 Oregon St,27107,Winston Salem,NC,36.063556,-80.198398,37067,SingleFamily,2018,1925,10018,1827,1.0,2,54684,Waughtown,neighborhood
6825614682000,634 Brent St,27103,Winston Salem,NC,36.083382,-80.264068,37067,SingleFamily,2018,1925,9147,1064,1.0,2,169572,Ardmore,neighborhood
6825396130000,473 Carolina Cir,27104,Winston Salem,NC,36.103828,-80.274047,37067,SingleFamily,2018,1928,23958,2688,3.5,5,561004,West Highlands,neighborhood
6844469567000,1737 Waughtown St,27107,Winston Salem,NC,36.07016,-80.201346,37067,Triplex,2018,1910,13503,2474,4.0,6,,Flat Rock,neighborhood
6836462433000,2724 Stokes Ave,27105,Winston Salem,NC,36.124304,-80.238491,37067,SingleFamily,2018,1947,7405,900,1.0,2,34114,Glenn Avenue,neighborhood
6844016472000,1012 Leona St,27107,Winston Salem,NC,36.055825,-80.215631,37067,SingleFamily,2018,1950,22651,954,1.0,3,34355,Easton,neighborhood
6844775316000,2338 E Sprague St,27107,Winston Salem,NC,36.072389,-80.192719,37067,SingleFamily,2018,1940,10890,1006,1.5,3,52474,Parkview,neighborhood
6835020244000,615 Granville Dr,27101,Winston Salem,NC,36.085183,-80.25206,37067,SingleFamily,2018,1924,6098,1976,2.5,4,212166,West Salem,neighborhood
6825117133000,2405 Fairway Dr,27103,Winston Salem,NC,36.081864,-80.28014,37067,SingleFamily,2018,1962,7840,1800,3.0,3,243047,Ardmore,neighborhood
6833670016000,3729 Tech Ave,27107,Winston Salem,NC,36.043707,-80.231244,37067,SingleFamily,2018,1979,16988,1665,1.0,2,82823,Weston,neighborhood
6844268538000,1425 Bretton St,27107,Winston Salem,NC,36.07009,-80.208517,37067,SingleFamily,2018,1957,9583,808,1.0,2,30136,Forest Park,neighborhood
6825197411000,441 Roslyn Rd,27104,Winston Salem,NC,36.104605,-80.280589,37067,SingleFamily,2018,1950,14810,1905,2.0,3,390686,Buena Vista,neighborhood
6834754877000,2321 Old Lexington Rd,27107,Winston Salem,NC,36.067948,-80.22665,37067,SingleFamily,2018,1962,5227,1120,1.0,3,34905,Belview,neighborhood
6844272267000,1337 Marne St,27107,Winston Salem,NC,36.071985,-80.210483,37067,SingleFamily,2018,1950,6098,672,1.0,2,27736,Forest Park,neighborhood
6833083539000,3425 Rosemont Ave,27127,Winston Salem,NC,36.047724,-80.250479,37067,SingleFamily,2018,1958,14810,1080,1.0,2,65391,Konnoak,neighborhood
6816482044000,139 Linbrook Dr,27106,Winston Salem,NC,36.128071,-80.306216,37067,SingleFamily,2018,1946,21344,800,1.0,2,100037,West Polo Road,neighborhood
6834443458000,2619 Stockton St,27127,Winston Salem,NC,36.064068,-80.23714,37067,SingleFamily,2018,1928,7405,1162,1.0,3,52739,South Park,neighborhood
6834963960000,2023 S Martin Luther King Jr Dr,27107,Winston Salem,NC,36.070867,-80.220282,37067,SingleFamily,2018,1950,6969,1078,1.0,2,73986,Forest Park,neighborhood
6833896907000,3601 Lambeth St,27107,Winston Salem,NC,36.05176,-80.222569,37067,SingleFamily,2018,1942,14810,775,1.0,2,20822,Easton,neighborhood
6835799915000,926 N Jackson Ave,27101,Winston Salem,NC,36.106629,-80.225754,37067,SingleFamily,2018,1920,9583,943,1.0,2,29256,East Winston,neighborhood
6834563613000,303 E Sprague St,27127,Winston Salem,NC,36.069972,-80.233967,37067,SingleFamily,2018,1920,7405,2000,3.0,4,221189,Sunnyside,neighborhood
6844359476000,2248 Marble St,27107,Winston Salem,NC,36.067038,-80.204537,37067,SingleFamily,2018,1923,17424,1885,2.0,4,63827,Waughtown,neighborhood
6824085697000,1200 Ford St,27103,Winston Salem,NC,36.075083,-80.283855,37067,SingleFamily,2018,1950,7840,900,1.0,2,121779,Ardmore,neighborhood
6825528548000,1825 Elizabeth Ave,27103,Winston Salem,NC,36.085993,-80.266286,37067,SingleFamily,2018,1925,8712,1756,1.0,3,256068,Ardmore,neighborhood
6834061075000,823 W Sprague St,27127,Winston Salem,NC,36.068162,-80.251411,37067,SingleFamily,2018,1925,10454,806,1.0,2,64189,Washington Park,neighborhood
6834851124000,708 Goldfloss St,27107,Winston Salem,NC,36.06599,-80.224401,37067,SingleFamily,2018,1910,7405,881,1.0,2,21635,Belview,neighborhood
6833295015000,3428 Konnoak Dr,27127,Winston Salem,NC,36.049045,-80.243137,37067,SingleFamily,2018,1948,11761,1100,1.0,3,75191,Konnoak,neighborhood
6834289611000,112 Vintage Ave,27127,Winston Salem,NC,36.075347,-80.242177,37067,SingleFamily,2018,1920,7500,1100,1.0,2,139309,Washington Park,neighborhood
6826311153000,731 N Stratford Rd,27104,Winston Salem,NC,36.109368,-80.27576,37067,SingleFamily,2018,1947,12632,2448,3.0,3,413221,Buena Vista,neighborhood
6827014962000,1307 Polo Rd,27106,Winston Salem,NC,36.138901,-80.285357,37067,SingleFamily,2018,1935,33105,2451,2.0,4,219760,Winston-Salem,city
6837433603000,509 Mccreary St,27105,Winston Salem,NC,36.144059,-80.238545,37067,SingleFamily,2018,1987,63162,1300,2.0,3,104002,Ogburn Station,neighborhood
6833380757000,3501 Luther St,27127,Winston Salem,NC,36.048328,-80.241268,37067,SingleFamily,2018,1981,14374,1792,3.0,3,129382,Konnoak,neighborhood
6834445012000,2712 Patria St,27127,Winston Salem,NC,36.062764,-80.236567,37067,SingleFamily,2018,1949,15246,1076,1.0,2,,South Park,neighborhood
6837335493000,4030 Leo St,27105,Winston Salem,NC,36.143516,-80.240922,37067,SingleFamily,2018,1945,9583,912,1.0,3,37805,Montview,neighborhood
6844549156000,1912 Oregon St,27107,Winston Salem,NC,36.063553,-80.198058,37067,SingleFamily,2018,1949,22651,1440,2.0,3,107263,Waughtown,neighborhood
6844549156000,1912 Oregon St,27107,Winston Salem,NC,36.063553,-80.198058,37067,SingleFamily,2018,1949,10018,1440,2.0,3,107263,Waughtown,neighborhood
6825710447000,637 S Sunset Dr,27103,Winston Salem,NC,36.082965,-80.262146,37067,SingleFamily,2018,1941,8276,1417,2.0,3,166974,Ardmore,neighborhood
6837640329000,4222 Tise Ave,27105,Winston Salem,NC,36.146173,-80.23273,37067,SingleFamily,2018,1956,20037,1404,1.0,3,65831,Ogburn Station,neighborhood
6824176003000,1453 Kenwood St,27103,Winston Salem,NC,36.070592,-80.280376,37067,SingleFamily,2018,1955,9147,888,1.0,2,101626,Ardmore,neighborhood
6833798279000,3652 Old Lexington Rd,27107,Winston Salem,NC,36.049902,-80.224963,37067,SingleFamily,2018,1910,13939,1176,2.0,3,,Weston,neighborhood
6827013012000,154 Harmon Ave,27106,Winston Salem,NC,36.136232,-80.285799,37067,SingleFamily,2018,1937,27442,1141,1.0,2,118810,Woodberry Forest,neighborhood
6834339374000,2801 S Main St,27127,Winston Salem,NC,36.060899,-80.238331,37067,SingleFamily,2018,1925,17,1680,2.0,3,63109,South Park,neighborhood
6835769462000,113 N Jackson Ave,27101,Winston Salem,NC,36.096979,-80.225442,37067,SingleFamily,2018,1920,6969,1018,1.0,2,43202,East Winston,neighborhood
6826901993000,867 W 11th St,27105,Winston Salem,NC,36.10906,-80.255295,37067,SingleFamily,2018,1957,7840,864,1.0,2,29852,Boston Thurmon,neighborhood
6826904772000,842 W 11th St,27105,Winston Salem,NC,36.10848,-80.254332,37067,SingleFamily,2018,1955,7405,696,1.0,1,29131,Boston Thurmon,neighborhood
6836728038000,1514 E 14th St,27105,Winston Salem,NC,36.112479,-80.226117,37067,Triplex,2018,1955,10890,1024,2.0,2,,East Winston,neighborhood
6837425390000,533 Mentor St,27105,Winston Salem,NC,36.140461,-80.237488,37067,SingleFamily,2018,1949,9147,855,1.0,2,26927,Ogburn Station,neighborhood
6834978070000,2012 Bertha St,27107,Winston Salem,NC,36.071147,-80.218557,37067,SingleFamily,2018,1950,6969,852,1.0,2,30359,Forest Park,neighborhood
6826708677000,1101 Shrub St,27105,Winston Salem,NC,36.108288,-80.259776,37067,SingleFamily,2018,1910,9583,1228,1.0,3,,Boston Thurmon,neighborhood
6826752552000,2528 Kirkwood St,27105,Winston Salem,NC,36.121597,-80.262053,37067,SingleFamily,2018,1946,3920,1072,1.0,3,31720,Winston-Salem,city
6834286282000,1801 S Broad St,27127,Winston Salem,NC,36.074268,-80.242957,37067,SingleFamily,2018,1966,7840,1008,2.0,3,150411,Washington Park,neighborhood
6825380389000,345 N Stratford Rd,27104,Winston Salem,NC,36.101863,-80.275853,37067,SingleFamily,2018,1928,61419,1290,4.0,5,1523347,West Highlands,neighborhood
6825377835000,1999 Georgia Ave,27104,Winston Salem,NC,36.100355,-80.273664,37067,SingleFamily,2018,1927,43124,4593,3.0,5,996640,West Highlands,neighborhood
6844066018000,1150 Waughtown St,27107,Winston Salem,NC,36.068639,-80.216032,37067,SingleFamily,2018,1935,13068,1237,1.0,2,30933,Waughtown,neighborhood
6837540655000,4233 Ogburn Ave,27105,Winston Salem,NC,36.146932,-80.236025,37067,Duplex,2018,1984,8712,1650,2.0,4,81107,Ogburn Station,neighborhood
6824589863000,1103 Lockland Ave,27103,Winston Salem,NC,36.075694,-80.265684,37067,SingleFamily,2018,1948,33105,1382,1.0,3,150708,Ardmore,neighborhood
6825306400000,1036 Miller St,27103,Winston Salem,NC,36.079908,-80.273817,37067,SingleFamily,2018,1942,9147,1500,2.0,3,236288,Ardmore,neighborhood
6824597602000,956 Lockland Ave,27103,Winston Salem,NC,36.077776,-80.266608,37067,SingleFamily,2018,1952,14374,842,1.0,2,119113,Ardmore,neighborhood
6845271273000,2548 Old Greensboro Rd,27101,Winston Salem,NC,36.099334,-80.211217,37067,SingleFamily,2018,1927,5662,832,1.0,3,38092,Skyland,neighborhood
6825919789000,704 Granville Dr,27101,Winston Salem,NC,36.083984,-80.252225,37067,Duplex,2018,1918,7405,1488,2.0,2,192432,West Salem,neighborhood
6825117929000,2410 Rosewood Ave,27103,Winston Salem,NC,36.08429,-80.280214,37067,SingleFamily,2018,1930,10890,2033,2.0,4,301635,Ardmore,neighborhood
6825388521000,408 Carolina Cir,27104,Winston Salem,NC,36.10219,-80.27335,37067,SingleFamily,2018,1924,17859,2206,3.0,4,484576,West Highlands,neighborhood
6826109252000,600 Arbor Rd,27104,Winston Salem,NC,36.106839,-80.279771,37067,SingleFamily,2018,1928,15681,2184,2.5,3,572899,Buena Vista,neighborhood
6837554281000,643 Newton St,27105,Winston Salem,NC,36.148475,-80.234682,37067,SingleFamily,2018,1946,43560,1440,2.0,3,66265,Ogburn Station,neighborhood
6833081530000,3432 Rosemont Ave,27127,Winston Salem,NC,36.047378,-80.251154,37067,SingleFamily,2018,1935,15246,1210,1.0,1,56403,Konnoak,neighborhood
6835025343000,618 S Green St,27101,Winston Salem,NC,36.085468,-80.250358,37067,SingleFamily,2018,1910,21000,1848,2.0,5,176887,West Salem,neighborhood
6834340708000,136 Edgewood Cir,27127,Winston Salem,NC,36.064793,-80.241682,37067,SingleFamily,2018,1950,18730,768,1.0,2,45224,South Park,neighborhood
6826736528000,918 Roosevelt St,27105,Winston Salem,NC,36.116253,-80.260714,37067,SingleFamily,2018,1940,7405,910,1.0,2,29577,Boston Thurmon,neighborhood
6824282759000,1212 Ebert St,27103,Winston Salem,NC,36.075441,-80.278265,37067,SingleFamily,2018,1949,10450,1380,1.5,3,176254,Ardmore,neighborhood
6834803379000,743 Ferndale Ave,27107,Winston Salem,NC,36.052919,-80.223332,37067,SingleFamily,2018,1957,4791,768,1.0,2,22088,Easton,neighborhood
6846048131000,2207 Bowen Blvd,27105,Winston Salem,NC,36.118169,-80.216042,37067,SingleFamily,2018,1959,10454,1244,1.5,4,,Bowen Park,neighborhood
6824592996000,928 Madison Ave,27103,Winston Salem,NC,36.078829,-80.268037,37067,SingleFamily,2018,1952,10890,1094,1.5,3,179628,Ardmore,neighborhood
6824380723000,1214 Melrose St,27103,Winston Salem,NC,36.075321,-80.275659,37067,SingleFamily,2018,1953,9583,1,1.0,3,172880,Ardmore,neighborhood
6834871199000,2028 Dacian St,27107,Winston Salem,NC,36.071612,-80.224264,37067,SingleFamily,2018,1942,6969,832,1.0,2,,Forest Park,neighborhood
6836925864000,2018 Dellabrook Rd,27105,Winston Salem,NC,36.114619,-80.220236,37067,SingleFamily,2018,1925,6534,1338,1.5,2,33021,North East Winston,neighborhood
6834455778000,2436 Patria St,27127,Winston Salem,NC,36.067637,-80.236479,37067,SingleFamily,2018,1915,11761,1450,3.0,3,171655,Sunnyside,neighborhood
6834282734000,227 Vintage Ave,27127,Winston Salem,NC,36.075669,-80.244499,37067,SingleFamily,2018,1951,7840,1320,2.0,3,131173,Washington Park,neighborhood
6845284848000,668 Tanders St,27101,Winston Salem,NC,36.103922,-80.210551,37067,SingleFamily,2018,1920,11325,623,1.0,2,,Skyland,neighborhood
6845284848000,668 Tanders St,27101,Winston Salem,NC,36.103922,-80.210551,37067,SingleFamily,2018,1920,10454,623,1.0,2,,Skyland,neighborhood
6835986945000,2021 New Walkertown Rd,27101,Winston Salem,NC,36.103852,-80.220198,37067,SingleFamily,2018,1954,40075,3116,3.0,4,341316,Reynoldstown,neighborhood
6825412483000,714 S Hawthorne Rd,27103,Winston Salem,NC,36.082771,-80.271519,37067,SingleFamily,2018,1922,10018,1300,1.0,3,224844,Ardmore,neighborhood
6825555692000,1515 Lynwood Ave,27104,Winston Salem,NC,36.094312,-80.267261,37067,SingleFamily,2018,1952,14810,2750,2.0,3,411554,West Highlands,neighborhood
6826907325000,1101 Rundell St,27105,Winston Salem,NC,36.107448,-80.253471,37067,SingleFamily,2018,1949,20037,780,1.0,2,40125,Boston Thurmon,neighborhood
6835992085000,2010 Temple St,27101,Winston Salem,NC,36.104248,-80.221064,37067,SingleFamily,2018,1941,6969,1000,1.0,3,35263,Reynoldstown,neighborhood
6834868922000,2046 Urban St,27107,Winston Salem,NC,36.070849,-80.222132,37067,SingleFamily,2018,1920,4791,1128,1.0,3,30094,Forest Park,neighborhood
6825218885000,2301 Westover Dr,27103,Winston Salem,NC,36.083925,-80.27624,37067,SingleFamily,2018,1947,10890,1000,1.0,2,197106,Ardmore,neighborhood
6825316100000,818 Miller St,27103,Winston Salem,NC,36.0819,-80.273807,37067,SingleFamily,2018,1922,12196,2491,2.0,4,330474,Ardmore,neighborhood
6836259326000,2425 Gilmer Ave,27105,Winston Salem,NC,36.121339,-80.242884,37067,SingleFamily,2018,1947,7840,1008,1.5,3,49974,Greenway,neighborhood
6838435525000,5613 Ruth Ave,27105,Winston Salem,NC,36.171347,-80.238197,37067,SingleFamily,2018,1940,11761,1002,1.0,2,34995,Winston-Salem,city
6846028904000,2301 Booker St,27105,Winston Salem,NC,36.114948,-80.216112,37067,SingleFamily,2018,1924,5662,1216,1.0,2,32242,Dreamland,neighborhood
6826423536000,1027 Van Hoy Ave,27104,Winston Salem,NC,36.113342,-80.271826,37067,SingleFamily,2018,1957,10890,1416,1.0,3,230296,Reynolda Park,neighborhood
6824395008000,1136 Miller St,27103,Winston Salem,NC,36.076299,-80.274055,37067,SingleFamily,2018,1934,22651,1365,1.0,3,194372,Ardmore,neighborhood
6834461016000,14 E Devonshire St,27127,Winston Salem,NC,36.068352,-80.238026,37067,SingleFamily,2018,1923,7405,1800,3.0,3,301590,Sunnyside,neighborhood
6846040808000,2310 Manchester St,27105,Winston Salem,NC,36.120258,-80.218864,37067,SingleFamily,2018,1966,11761,1466,1.0,3,36669,Bowen Park,neighborhood
6815918078000,820 Knollwood St,27103,Winston Salem,NC,36.081682,-80.286423,37067,SingleFamily,2018,1942,8276,1144,1.0,2,180886,Knollwood Manor,neighborhood
6844578202000,2031 Art St,27107,Winston Salem,NC,36.071994,-80.198553,37067,SingleFamily,2018,1895,18295,1056,2.0,2,,Flat Rock,neighborhood
6834854855000,728 E Sprague St,27107,Winston Salem,NC,36.067927,-80.223293,37067,SingleFamily,2018,1950,11325,1403,2.0,3,64896,Belview,neighborhood
6825558793000,148 N Hawthorne Rd,27104,Winston Salem,NC,36.09466,-80.266244,37067,SingleFamily,2018,1920,10018,3094,2.0,4,499531,West Highlands,neighborhood
6815981790000,221 N Westview Dr,27104,Winston Salem,NC,36.102561,-80.289056,37067,SingleFamily,2018,1972,16988,4688,4.0,4,652063,Buena Vista,neighborhood
6825511008000,819 Watson Ave,27103,Winston Salem,NC,36.081846,-80.268738,37067,SingleFamily,2018,1928,11761,1284,1.0,3,195721,Ardmore,neighborhood
6845698018000,411 Byerly Rd,27101,Winston Salem,NC,36.104576,-80.195573,37067,SingleFamily,2018,1956,13503,1260,1.0,3,38307,City View,neighborhood
6836925311000,2021 E 14th St,27105,Winston Salem,NC,36.113276,-80.220399,37067,Quadruplex,2018,1920,16988,2760,4.0,4,,Slater Park,neighborhood
6834455224000,2526 Patria St,27127,Winston Salem,NC,36.066125,-80.236605,37067,SingleFamily,2018,1948,22215,1146,1.0,3,75465,Sunnyside,neighborhood
6834045148000,631 Cloister Dr,27127,Winston Salem,NC,36.063089,-80.250498,37067,SingleFamily,2018,1920,180774,816,1.0,3,121076,Konnoak,neighborhood
6845589327000,310 Buick St,27101,Winston Salem,NC,36.102579,-80.198543,37067,SingleFamily,2018,1939,38332,780,1.0,2,28185,City View,neighborhood
6845374944000,2836 Rowell St,27101,Winston Salem,NC,36.101345,-80.206916,37067,Mobile,2018,2001,23086,1456,2.0,3,110202,City View,neighborhood
6816583995000,210 Endsley Ave,27106,Winston Salem,NC,36.130584,-80.302367,37067,SingleFamily,2018,1955,7405,832,1.0,2,72654,West Polo Road,neighborhood
6835899746000,913 N Cameron Ave,27101,Winston Salem,NC,36.106149,-80.222239,37067,SingleFamily,2018,1920,5662,932,1.0,2,30564,Reynoldstown,neighborhood
6825337503000,2127 Queen St,27103,Winston Salem,NC,36.088509,-80.273545,37067,SingleFamily,2018,1924,13503,1518,1.0,2,257431,Ardmore,neighborhood
6834873494000,2011 Dacian St,27107,Winston Salem,NC,36.072304,-80.223583,37067,SingleFamily,2018,1924,7405,752,1.0,2,,Forest Park,neighborhood
6837144076000,307 Forest Hill Ave,27105,Winston Salem,NC,36.145181,-80.248146,37067,SingleFamily,2018,1979,8712,1108,2.0,2,83712,North Hills,neighborhood
6825097923000,483 N Avalon Rd,27104,Winston Salem,NC,36.106016,-80.284057,37067,SingleFamily,2018,1950,14810,2708,3.0,3,606834,Buena Vista,neighborhood
6844139961000,2710 Dudley St,27107,Winston Salem,NC,36.062747,-80.211381,37067,SingleFamily,2018,1953,7405,1248,2.0,4,31349,Waughtown,neighborhood
6835873962000,516 N Cameron Ave,27101,Winston Salem,NC,36.101101,-80.224128,37067,SingleFamily,2018,1952,5227,1574,1.0,4,36173,East Winston,neighborhood
6834977917000,1811 Francis St,27107,Winston Salem,NC,36.073803,-80.219138,37067,SingleFamily,2018,1995,6534,1140,2.0,3,74163,Forest Park,neighborhood
6833081630000,3428 Rosemont Ave,27127,Winston Salem,NC,36.047652,-80.251156,37067,SingleFamily,2018,1978,14810,1300,2.0,3,124356,Konnoak,neighborhood
6834237791000,2732 Edwards St,27127,Winston Salem,NC,36.061849,-80.242415,37067,SingleFamily,2018,1950,14374,1048,1.0,3,35110,South Park,neighborhood
6835773197000,1431 E 3rd St,27101,Winston Salem,NC,36.098983,-80.227384,37067,SingleFamily,2018,1920,5227,2024,2.0,5,81683,East Winston,neighborhood
6824294376000,1117 Ebert St,27103,Winston Salem,NC,36.076937,-80.277558,37067,SingleFamily,2018,1940,11761,784,1.0,2,117552,Ardmore,neighborhood
6826111580000,730 Sylvan Rd,27104,Winston Salem,NC,36.110273,-80.282453,37067,SingleFamily,2018,1953,15681,2784,3.0,4,455712,Buena Vista,neighborhood
6825618734000,618 S Sunset Dr,27103,Winston Salem,NC,36.083731,-80.262891,37067,SingleFamily,2018,1928,9147,1304,1.0,3,205212,Ardmore,neighborhood
6816473557000,115 Linbrook Dr,27106,Winston Salem,NC,36.126724,-80.305788,37067,SingleFamily,2018,1983,12632,1010,1.0,2,110844,West Polo Road,neighborhood
6834978385000,1918 Bertha St,27107,Winston Salem,NC,36.072109,-80.218557,37067,SingleFamily,2018,1920,6969,816,1.0,2,32983,Forest Park,neighborhood
6836902330000,1021 Rich Ave,27101,Winston Salem,NC,36.107636,-80.221296,37067,SingleFamily,2018,1965,11325,1580,2.0,3,143354,Reynoldstown,neighborhood
6824597014000,1030 Lockland Ave,27103,Winston Salem,NC,36.076242,-80.26655,37067,SingleFamily,2018,1951,12632,1401,2.0,3,176584,Ardmore,neighborhood
6834266357000,2310 S Broad St,27127,Winston Salem,NC,36.069181,-80.242962,37067,SingleFamily,2018,1925,6534,1060,1.0,3,78381,Washington Park,neighborhood
6844271815000,1709 Argonne Blvd,27107,Winston Salem,NC,36.073592,-80.211018,37067,SingleFamily,2018,1955,14810,1542,1.0,4,58918,Forest Park,neighborhood
6834455663000,2444 Patria St,27127,Winston Salem,NC,36.067225,-80.236523,37067,SingleFamily,2018,1920,10454,1148,1.0,2,56736,Sunnyside,neighborhood
6834206199000,3251 Konnoak Dr,27127,Winston Salem,NC,36.052174,-80.242574,37067,SingleFamily,2018,1978,12632,1500,2.0,3,136361,Konnoak,neighborhood
6825198097000,408 Arbor Rd,27104,Winston Salem,NC,36.103668,-80.27994,37067,SingleFamily,2018,1963,15681,2192,2.5,3,443195,Buena Vista,neighborhood
6825287832000,370 N Stratford Rd,27104,Winston Salem,NC,36.102848,-80.277095,37067,SingleFamily,2018,1931,52272,4310,5.0,5,1153674,Buena Vista,neighborhood
6837405551000,3515 Hemlock Dr,27105,Winston Salem,NC,36.135544,-80.237574,37067,SingleFamily,2018,1948,10018,1092,1.0,2,35625,Montview,neighborhood
6844159424000,1254 E Sprague St,27107,Winston Salem,NC,36.0669,-80.211562,37067,SingleFamily,2018,1940,6534,1361,1.0,2,39494,Waughtown,neighborhood
6824181877000,2417 Hoyt St,27103,Winston Salem,NC,36.075635,-80.281926,37067,SingleFamily,2018,1949,10890,1404,3.0,4,220784,Ardmore,neighborhood
6817905926000,150 Crepe Myrtle Cir,27106,Winston Salem,NC,36.136289,-80.288497,37067,SingleFamily,2018,1957,15246,1276,2.0,2,168727,Woodberry Forest,neighborhood
6824097817000,1242 S Hawthorne Rd,27103,Winston Salem,NC,36.078397,-80.283511,37067,SingleFamily,2018,1947,8712,1728,2.0,3,255124,Ardmore,neighborhood
6825294602000,2201 Buena Vista Rd,27104,Winston Salem,NC,36.10519,-80.278204,37067,SingleFamily,2018,1924,21344,3348,4.0,3,761722,Buena Vista,neighborhood
6824093203000,1114 Magnolia St,27103,Winston Salem,NC,36.076598,-80.284907,37067,SingleFamily,2018,1947,8276,988,1.0,2,140173,Ardmore,neighborhood
6827848644000,4243 Indiana Ave,27105,Winston Salem,NC,36.146714,-80.257056,37067,SingleFamily,2018,1930,18730,2088,4.0,5,84897,Winston-Salem,city
6824088853000,2443 Hoyt St,27103,Winston Salem,NC,36.075542,-80.282987,37067,SingleFamily,2018,1951,7840,865,1.0,2,131051,Ardmore,neighborhood
6827130384000,190 Idlewilde Dr,27106,Winston Salem,NC,36.142835,-80.283288,37067,SingleFamily,2018,1973,20037,976,2.0,2,150497,Winston-Salem,city
6846126126000,1420 Emerald St,27105,Winston Salem,NC,36.112835,-80.213306,37067,SingleFamily,2018,1960,6098,1480,1.0,3,50244,Dreamland,neighborhood
6826330185000,1616 Reynolda Rd,27104,Winston Salem,NC,36.114926,-80.276083,37067,SingleFamily,2018,1952,24393,3062,3.0,4,482638,Buena Vista,neighborhood
6816259354000,2101 N Peace Haven Rd,27106,Winston Salem,NC,36.120608,-80.310492,37067,SingleFamily,2018,1984,13068,1512,2.0,3,150409,Mount Tabor,neighborhood
6836250880000,2507 NW Druid Hills Dr,27105,Winston Salem,NC,36.122532,-80.245722,37067,SingleFamily,2018,1939,7405,1341,1.5,4,60378,Greenway,neighborhood
6834808204000,824 Ferndale Ave,27107,Winston Salem,NC,36.052538,-80.221868,37067,SingleFamily,2018,1965,6098,768,1.0,2,25328,Easton,neighborhood
6834059724000,520 W Brookline St,27127,Winston Salem,NC,36.067409,-80.248808,37067,SingleFamily,2018,1957,6969,768,1.0,2,54449,Washington Park,neighborhood
6833280667000,344 Strickland Ave,27127,Winston Salem,NC,36.047994,-80.244608,37067,SingleFamily,2018,1942,9147,756,1.0,2,48352,Konnoak,neighborhood
6834568543000,345 E Sprague St,27127,Winston Salem,NC,36.06972,-80.232222,37067,SingleFamily,2018,1887,4791,1236,2.0,2,,Sunnyside,neighborhood
6826754297000,2508 Amhurst St,27105,Winston Salem,NC,36.12092,-80.261237,37067,SingleFamily,2018,1962,5227,1044,1.0,3,50804,Boston Thurmon,neighborhood
6844016213000,1007 Charles St,27107,Winston Salem,NC,36.055309,-80.215816,37067,SingleFamily,2018,1950,15246,1008,1.0,3,30204,Easton,neighborhood
6825429092000,2000 W Academy St,27103,Winston Salem,NC,36.084429,-80.269139,37067,SingleFamily,2018,1940,9583,1208,2.0,2,238242,Ardmore,neighborhood
6825414993000,623 Fenimore St,27103,Winston Salem,NC,36.084165,-80.270824,37067,SingleFamily,2018,1950,9147,1292,1.0,2,217232,Ardmore,neighborhood
6816475088000,2601 Polo Rd,27106,Winston Salem,NC,36.125425,-80.305032,37067,SingleFamily,2018,1951,16988,1022,1.0,2,120178,West Polo Road,neighborhood
6825570691000,1824 Georgia Ave,27104,Winston Salem,NC,36.099811,-80.269047,37067,SingleFamily,2018,1928,38332,3895,4.0,4,645406,West Highlands,neighborhood
6825194569000,452 Roslyn Rd,27104,Winston Salem,NC,36.105104,-80.281433,37067,SingleFamily,2018,1947,17859,2869,3.5,3,601561,Buena Vista,neighborhood
6836254922000,2529 Greenway Ave,27105,Winston Salem,NC,36.122848,-80.244553,37067,SingleFamily,2018,1943,7840,1320,2.0,3,72048,Greenway,neighborhood
6837520741000,3911 Ogburn Ave,27105,Winston Salem,NC,36.141592,-80.236003,37067,SingleFamily,2018,1947,10454,700,1.0,2,27683,Ogburn Station,neighborhood
6825206488000,2320 Lyndhurst Ave,27103,Winston Salem,NC,36.080084,-80.276907,37067,SingleFamily,2018,1928,9147,1327,1.0,3,243397,Ardmore,neighborhood
6844592370000,1640 Dundee St,27107,Winston Salem,NC,36.077638,-80.200396,37067,SingleFamily,2018,1961,8276,972,1.0,2,38466,Flat Rock,neighborhood
6825296849000,531 Oaklawn Ave,27104,Winston Salem,NC,36.105907,-80.277437,37067,SingleFamily,2018,1930,15681,2620,2.5,3,622683,Buena Vista,neighborhood
6817902873000,165 Crepe Myrtle Cir,27106,Winston Salem,NC,36.135866,-80.289306,37067,SingleFamily,2018,1960,17859,1631,2.0,3,175092,Woodberry Forest,neighborhood
6834282982000,216 Shawnee St,27127,Winston Salem,NC,36.076144,-80.244334,37067,SingleFamily,2018,1920,7405,732,1.0,1,78792,Washington Park,neighborhood
6836248410000,2338 Okalina Ave,27105,Winston Salem,NC,36.118689,-80.243222,37067,SingleFamily,2018,1930,6969,1916,2.0,3,108100,Greenway,neighborhood
6816699009000,1923 Polo Rd,27106,Winston Salem,NC,36.131034,-80.297314,37067,SingleFamily,2018,1932,11761,1204,1.0,3,116989,West Polo Road,neighborhood
6844440419000,2334 Marble St,27107,Winston Salem,NC,36.064385,-80.204459,37067,SingleFamily,2018,1946,8276,1176,1.0,3,36554,Waughtown,neighborhood
6824978408000,447 Park Blvd,27127,Winston Salem,NC,36.072168,-80.252682,37067,SingleFamily,2018,1951,25264,965,1.0,3,151354,Washington Park,neighborhood
6844675896000,1942 Butler St,27107,Winston Salem,NC,36.073682,-80.195859,37067,SingleFamily,2018,1930,8276,1079,1.0,2,42632,Reynolda Forest,neighborhood
6834199295000,238 Bond St,27127,Winston Salem,NC,36.077043,-80.245331,37067,SingleFamily,2018,1962,7405,896,1.0,2,54244,Washington Park,neighborhood
6825632354000,321 Lockland Ave,27103,Winston Salem,NC,36.088088,-80.264955,37067,SingleFamily,2018,1928,8712,1246,2.0,3,212472,Ardmore,neighborhood
6834161802000,530 W Acadia Ave,27127,Winston Salem,NC,36.070398,-80.24821,37067,SingleFamily,2018,1925,7405,952,2.0,4,,Washington Park,neighborhood
6825232059000,2349 Westfield Ave,27103,Winston Salem,NC,36.087259,-80.278445,37067,SingleFamily,2018,1940,10454,2300,2.0,4,313899,Ardmore,neighborhood
6826202008000,545 Arbor Rd,27104,Winston Salem,NC,36.106453,-80.278925,37067,SingleFamily,2018,1927,15681,2681,2.0,4,517881,Buena Vista,neighborhood
6833672387000,3713 Southdale Ave,27107,Winston Salem,NC,36.04459,-80.230289,37067,SingleFamily,2018,1920,7405,588,1.0,2,30630,Weston,neighborhood
6834852781000,713 E Devonshire St,27107,Winston Salem,NC,36.067549,-80.223892,37067,SingleFamily,2018,1920,7405,1267,1.0,1,29351,Belview,neighborhood
6837633176000,817 Efird St,27105,Winston Salem,NC,36.142883,-80.231511,37067,SingleFamily,2018,1931,17424,872,1.0,2,37288,Ogburn Station,neighborhood
6825501524000,853 Watson Ave,27103,Winston Salem,NC,36.080363,-80.268652,37067,SingleFamily,2018,1940,10018,1486,3.0,3,245703,Ardmore,neighborhood
6826910019000,866 W 12th St,27105,Winston Salem,NC,36.109487,-80.255915,37067,SingleFamily,2018,1920,6534,2010,2.0,3,,Boston Thurmon,neighborhood
6826319335000,1915 Robinhood Rd,27104,Winston Salem,NC,36.110004,-80.273144,37067,SingleFamily,2018,1947,20037,2856,2.0,3,435084,Buena Vista,neighborhood
6826800263000,1006 Manly St,27105,Winston Salem,NC,36.107071,-80.259094,37067,SingleFamily,2018,1960,9583,1200,1.0,3,68631,Boston Thurmon,neighborhood
6833380965000,3433 Luther St,27127,Winston Salem,NC,36.048823,-80.241285,37067,SingleFamily,2018,1954,16552,2860,3.0,4,199271,Konnoak,neighborhood
6837553251000,627 Newton St,27105,Winston Salem,NC,36.148509,-80.235062,37067,SingleFamily,2018,1938,27007,980,1.0,2,39864,Ogburn Station,neighborhood
6825010673000,701 Knollwood St,27103,Winston Salem,NC,36.083115,-80.285773,37067,SingleFamily,2018,1947,10454,2488,2.0,4,292672,Ardmore,neighborhood
6825178736000,2320 Georgia Ave,27104,Winston Salem,NC,36.100056,-80.280144,37067,SingleFamily,2018,1951,37897,4490,4.5,5,1116878,Buena Vista,neighborhood
6834801378000,725 Ferndale Ave,27107,Winston Salem,NC,36.05291,-80.224009,37067,SingleFamily,2018,1964,5227,864,1.0,2,29321,Easton,neighborhood
6836371009000,2832 N Patterson Ave,27105,Winston Salem,NC,36.126076,-80.242326,37067,SingleFamily,2018,1927,7405,1056,1.0,3,37819,Greenway,neighborhood
6835990244000,836 Rich Ave,27101,Winston Salem,NC,36.10477,-80.221856,37067,SingleFamily,2018,1920,5227,794,1.0,2,28163,Reynoldstown,neighborhood
6826940501000,2042 Lincoln Ave,27105,Winston Salem,NC,36.118879,-80.25613,37067,SingleFamily,2018,1935,9583,1344,1.0,3,67517,Old Cherry,neighborhood
6825903577000,933 Hutton St,27101,Winston Salem,NC,36.080589,-80.254225,37067,SingleFamily,2018,1925,7405,1240,1.0,3,138787,West Salem,neighborhood
6825613139000,727 Gales Ave,27103,Winston Salem,NC,36.082222,-80.26455,37067,SingleFamily,2018,1928,9147,1816,2.0,4,247526,Ardmore,neighborhood
6825510462000,1935 Gaston St,27103,Winston Salem,NC,36.082758,-80.268878,37067,SingleFamily,2018,1931,10454,1706,2.0,3,265285,Ardmore,neighborhood
6844673443000,2109 Waughtown St,27107,Winston Salem,NC,36.072544,-80.196708,37067,SingleFamily,2018,1939,8276,1501,2.0,3,,Flat Rock,neighborhood
6844673443000,2109 Waughtown St,27107,Winston Salem,NC,36.072544,-80.196708,37067,SingleFamily,2018,1939,14810,1501,2.0,3,,Flat Rock,neighborhood
6824183818000,2407 Hoyt St,27103,Winston Salem,NC,36.075675,-80.281448,37067,SingleFamily,2018,1948,10454,999,1.0,2,140310,Ardmore,neighborhood
6834344764000,49 Edgewood View Ln,27127,Winston Salem,NC,36.064717,-80.240153,37067,SingleFamily,2018,1962,9147,936,1.0,3,59006,South Park,neighborhood
6836245983000,2368 Montrose Ave,27105,Winston Salem,NC,36.120144,-80.244012,37067,SingleFamily,2018,1940,7405,1770,2.0,5,64803,Greenway,neighborhood
6815774885000,2915 Bitting Rd,27104,Winston Salem,NC,36.100161,-80.294769,37067,SingleFamily,2018,1926,16552,3837,4.0,5,674789,Country Club,neighborhood
6824290606000,2325 Walker Ave,27103,Winston Salem,NC,36.077831,-80.279111,37067,SingleFamily,2018,1946,7405,728,1.0,1,125484,Ardmore,neighborhood
6836249676000,2359 Okalina Ave,27105,Winston Salem,NC,36.119406,-80.242647,37067,SingleFamily,2018,1932,13939,1404,1.0,3,62353,Greenway,neighborhood
6815798573000,2648 Club Park Rd,27104,Winston Salem,NC,36.104808,-80.293519,37067,SingleFamily,2018,1949,24393,4391,3.0,3,728252,Buena Vista,neighborhood
6834851316000,705 Goldfloss St,27107,Winston Salem,NC,36.066582,-80.224445,37067,SingleFamily,2018,1930,7405,1601,1.0,2,98448,Belview,neighborhood
6834803275000,740 Ferndale Ave,27107,Winston Salem,NC,36.052535,-80.223369,37067,SingleFamily,2018,1949,10000,1600,2.0,3,56210,Easton,neighborhood
6825209874000,2301 Maplewood Ave,27103,Winston Salem,NC,36.081111,-80.275896,37067,SingleFamily,2018,1941,9583,2073,2.0,4,278375,Ardmore,neighborhood
6846063162000,2532 Machine St,27105,Winston Salem,NC,36.123686,-80.217707,37067,SingleFamily,2018,1936,6969,660,1.0,2,24992,Bowen Park,neighborhood
6825327998000,353 Miller St,27103,Winston Salem,NC,36.087014,-80.273254,37067,SingleFamily,2018,1928,10454,1766,2.0,3,141418,Ardmore,neighborhood
6834870549000,1941 Althea St,27107,Winston Salem,NC,36.072712,-80.224823,37067,SingleFamily,2018,1929,7840,728,1.0,2,75697,Forest Park,neighborhood
6816499046000,2343 Redbud Ln,27106,Winston Salem,NC,36.130878,-80.3039,37067,SingleFamily,2018,1955,7840,896,1.0,2,65569,West Polo Road,neighborhood
6826220690000,840 Arbor Rd,27104,Winston Salem,NC,36.113375,-80.279412,37067,SingleFamily,2018,1925,15681,3554,2.0,4,690898,Buena Vista,neighborhood
6844586142000,1933 Shelby Ln,27107,Winston Salem,NC,36.074406,-80.199162,37067,SingleFamily,2018,1926,9583,1000,1.5,3,38433,Flat Rock,neighborhood
6827017121000,146 Rosedale Cir,27106,Winston Salem,NC,36.136697,-80.284424,37067,SingleFamily,2018,1963,15681,1590,2.5,4,180389,Woodberry Forest,neighborhood
6834287861000,123 Vintage Ave,27127,Winston Salem,NC,36.075867,-80.242717,37067,SingleFamily,2018,1945,7840,1228,2.0,2,148108,Washington Park,neighborhood
6844462034000,1612 Waughtown St,27107,Winston Salem,NC,36.068661,-80.203765,37067,SingleFamily,2018,1941,9800,1032,1.0,3,43289,Waughtown,neighborhood
6836811829000,1331 N Jackson Ave,27101,Winston Salem,NC,36.111981,-80.225114,37067,SingleFamily,2018,1925,8712,1312,1.5,3,39742,East Winston,neighborhood
