REID,street,zipcode,city,state,latitude,longitude,FIPScounty,useCode,taxAssessmentYear,yearBuilt,lotSizeSqFt,finishedSqFt,bathrooms,bedrooms,zestimate,name,type
6817306038000,291 Torrance Dr,27106,Winston Salem,NC,36.133583,-80.308373,37067,SingleFamily,2018,1987,16552,2209,3.0,4,278918,Winston-Salem,city
6822689911000,1605 Bridgton Rd,27127,Winston Salem,NC,36.021016,-80.261643,37067,SingleFamily,2018,1987,11761,1296,2.0,3,137463,Twin Cedars Laurel Park,neighborhood
6819002962000,1815 Mallard Lakes Dr,27106,Winston Salem,NC,36.19074,-80.320749,37067,SingleFamily,2018,1973,23958,2166,3.0,3,195307,Mallard Lakes,neighborhood
6863881343000,4258 High Point Rd,27107,Winston Salem,NC,36.048409,-80.122427,37067,SingleFamily,2018,1938,32670,1870,2.5,3,212510,Winston-Salem,city
6815665457000,175 Pennsylvania Ave,27104,Winston Salem,NC,36.09636,-80.297903,37067,SingleFamily,2018,1951,14810,2228,2.5,2,290020,Country Club,neighborhood
6834915688000,840 Charles Ct,27107,Winston Salem,NC,36.056548,-80.219346,37067,SingleFamily,2018,1969,9147,1416,1.5,3,77234,Easton,neighborhood
6803292241000,1305 Camden Place Ct,27103,Winston Salem,NC,36.048426,-80.345531,37067,SingleFamily,2018,2000,9147,2048,3.0,3,192378,Winston-Salem,city
6803496297000,1391 Somerset Cove Dr,27103,Winston Salem,NC,36.048634,-80.33727,37067,SingleFamily,2018,2007,18295,2908,2.5,3,334546,Hillcrest,neighborhood
6847754472000,4166 Northampton Dr,27105,Winston Salem,NC,36.149455,-80.19401,37067,SingleFamily,2018,1960,24829,1336,1.0,2,111731,Northampton,neighborhood
5897239060000,5505 Ivors Ln,27106,Winston Salem,NC,36.140863,-80.378506,37067,SingleFamily,2018,2006,21780,3000,4.0,4,355113,Winston-Salem,city
6817224039000,920 Ransom Rd,27106,Winston Salem,NC,36.139092,-80.312525,37067,SingleFamily,2018,1972,14374,1193,1.0,3,120738,Winston-Salem,city
6836165118000,2700 Kilkare Ave,27105,Winston Salem,NC,36.12355,-80.2477,37067,SingleFamily,2018,1965,10454,1209,1.5,2,52174,Greenway,neighborhood
6838918084000,1522 Jordan Dr,27105,Winston Salem,NC,36.164632,-80.219951,37067,SingleFamily,2018,1954,25125,1083,1.0,3,66288,Winston-Salem,city
6804154405000,4837 Hawkwood Trl,27103,Winston Salem,NC,36.065565,-80.348668,37067,SingleFamily,2018,1963,22215,3702,3.0,4,236480,Westbrook,neighborhood
6813950261000,2042 Truelove Ln,27127,Winston Salem,NC,36.03801,-80.288476,37067,SingleFamily,2018,1958,21780,1324,2.0,3,142113,Janita Lakes Estates,neighborhood
6843875561000,2859 Chestnut Heights Rd,27107,Winston Salem,NC,36.045374,-80.188772,37067,SingleFamily,2018,2003,20037,1744,2.5,4,149976,Winston-Salem,city
6847202782000,3715 Prospect Dr,27105,Winston Salem,NC,36.136399,-80.211368,37067,SingleFamily,2018,1956,6969,1240,1.5,3,68778,Prospect Park,neighborhood
6838504169000,5244 Cox Blvd,27105,Winston Salem,NC,36.162145,-80.234873,37067,SingleFamily,2018,1941,12632,928,1.0,2,53082,Mineral Springs,neighborhood
6847752435000,4141 Carnation Dr,27105,Winston Salem,NC,36.149528,-80.194825,37067,SingleFamily,2018,1993,23086,1036,2.0,3,111903,Northampton,neighborhood
6838093438000,1255 Twin Oak Dr,27105,Winston Salem,NC,36.187509,-80.25267,37067,SingleFamily,2018,1955,59,2146,2.0,3,134758,Pinebrook Country Club,neighborhood
5894991507000,5133 Old Plantation Cir,27104,Winston Salem,NC,36.076734,-80.356616,37067,SingleFamily,2018,1997,8407,1443,2.0,3,188453,Breckingridge,neighborhood
6815815707000,2840 Deerwood Dr,27103,Winston Salem,NC,36.083526,-80.291117,37067,SingleFamily,2018,1961,12196,1600,2.5,3,180693,Knollwood Manor,neighborhood
6827831855000,230 Craft Dr,27105,Winston Salem,NC,36.144464,-80.259397,37067,SingleFamily,2018,2009,9147,1188,2.0,3,92684,Winston-Salem,city
5896964118000,4956 Fleetwood Cir,27106,Winston Salem,NC,36.122415,-80.356336,37067,SingleFamily,2018,1956,20037,1443,2.0,4,181117,Winston-Salem,city
5896964118000,4956 Fleetwood Cir,27106,Winston Salem,NC,36.122415,-80.356336,37067,SingleFamily,2018,1956,18730,1443,2.0,4,181117,Winston-Salem,city
6844971948000,2707 E Sprague St,27107,Winston Salem,NC,36.074141,-80.187246,37067,SingleFamily,2018,1953,12632,1140,1.0,2,57415,Parkview,neighborhood
6844380480000,1618 Rockford St,27107,Winston Salem,NC,36.075088,-80.207794,37067,SingleFamily,2018,1959,7840,1357,2.0,3,58214,Morningside Manor,neighborhood
6808123582000,4229 Wedge Dr,27040,Pfafftown,NC,36.167329,-80.350395,37067,SingleFamily,2018,2013,16552,3289,2.5,4,272486,Winston-Salem,city
5895910040000,225 Heatherton Way,27104,Winston Salem,NC,36.080668,-80.356878,37067,SingleFamily,2018,1979,19602,3480,2.5,4,371536,Huntcliff,neighborhood
6865413740000,4249 Oaksburg Ct,27107,Winston Salem,NC,36.084873,-80.135911,37067,SingleFamily,2018,2003,28749,1668,2.5,3,154698,Winston-Salem,city
6823009369000,2740 Pine Cove Dr,27127,Winston Salem,NC,36.024873,-80.281821,37067,SingleFamily,2018,2014,9583,2610,3.0,4,217389,Winston-Salem,city
5895698173000,525 Meadowlark Dr,27106,Winston Salem,NC,36.102906,-80.364895,37067,SingleFamily,2018,2009,61855,2446,2.5,3,206129,Winston-Salem,city
6816511145000,3132 Burkeshore Rd,27106,Winston Salem,NC,36.109123,-80.302856,37067,SingleFamily,2018,1957,20908,3132,3.0,4,376506,Buena Vista,neighborhood
5893393924000,797 S Peace Haven Rd,27103,Winston Salem,NC,36.05003,-80.375765,37067,SingleFamily,2018,1963,24829,1150,1.0,2,147123,Clemmons,city
6817018594000,2554 Wood Valley Rd,27106,Winston Salem,NC,36.137584,-80.317691,37067,SingleFamily,2018,1978,11325,1123,2.5,3,151965,Woodside,neighborhood
6813774893000,3711 Heather View Ln,27127,Winston Salem,NC,36.045194,-80.293883,37067,SingleFamily,2018,2001,5564,2045,2.5,4,168111,Winston-Salem,city
6829312435000,240 Coral Dr,27105,Winston Salem,NC,36.192701,-80.2768,37067,SingleFamily,2018,1948,27007,2110,2.0,3,149766,Winston-Salem,city
6846702608000,3650 Old Greensboro Rd,27101,Winston Salem,NC,36.108903,-80.194344,37067,SingleFamily,2018,1965,23522,750,1.0,2,32805,City View,neighborhood
6824288382000,2344 Cherokee Ln,27103,Winston Salem,NC,36.074129,-80.279917,37067,SingleFamily,2018,1955,11761,1310,1.5,3,148304,Ardmore,neighborhood
6806042455000,165 Brooks Landing Dr,27106,Winston Salem,NC,36.1176,-80.35337,37067,SingleFamily,2018,2003,7840,2135,2.0,3,234041,Winston-Salem,city
6804325424000,1135 Castlegate Dr,27103,Winston Salem,NC,36.057341,-80.341357,37067,SingleFamily,2018,1975,13939,1600,2.0,3,148710,Salem Woods,neighborhood
6864660684000,4316 Oak Glen Dr,27107,Winston Salem,NC,36.071005,-80.129846,37067,SingleFamily,2018,1989,11325,1628,3.0,3,166869,Winston-Salem,city
6838415843000,5408 Helen Ave,27105,Winston Salem,NC,36.166617,-80.238078,37067,SingleFamily,2018,1958,15246,880,1.0,2,39080,Mineral Springs,neighborhood
6818021706000,4138 Morningside Dr,27106,Winston Salem,NC,36.168292,-80.320932,37067,SingleFamily,2018,1973,15246,1080,1.5,3,87395,Georgetown,neighborhood
6804691438000,4615 Benathon Ct,27104,Winston Salem,NC,36.076924,-80.332638,37067,SingleFamily,2018,1960,23958,1564,1.5,3,138535,Winston-Salem,city
6806849354000,3711 Herchel Ln,27106,Winston Salem,NC,36.117682,-80.323969,37067,SingleFamily,2018,1966,30492,3054,2.5,4,299063,Robinhood Dellc,neighborhood
6806849354000,3711 Herchel Ln,27106,Winston Salem,NC,36.117682,-80.323969,37067,SingleFamily,2018,1966,21344,3054,2.5,4,299063,Robinhood Dellc,neighborhood
6812747000000,2365 Joshua Ln,27127,Winston Salem,NC,36.007254,-80.292547,37067,SingleFamily,2018,2004,9583,1598,2.0,3,176920,Winston-Salem,city
6843004622000,4281 Salem Springs Ct,27107,Winston Salem,NC,36.02617,-80.216022,37067,SingleFamily,2018,2017,9147,1396,2.5,3,145693,Winston-Salem,city
6818562342000,4966 Murray Rd,27106,Winston Salem,NC,36.178284,-80.303641,37067,SingleFamily,2018,1987,14810,1500,2.5,3,165876,Boywood Forest,neighborhood
6814372738000,1404 Hannaford Rd,27103,Winston Salem,NC,36.072354,-80.308767,37067,SingleFamily,2018,1959,22215,1533,2.0,3,171815,Stratford Manor,neighborhood
5897915652000,2573 Crosland Hill Dr,27106,Winston Salem,NC,36.13734,-80.356092,37067,SingleFamily,2018,2015,13939,3405,2.5,4,247726,Winston-Salem,city
6818369094000,4849 Barkas Dr,27106,Winston Salem,NC,36.177468,-80.307893,37067,SingleFamily,2018,1988,15681,1803,3.0,4,170857,Boywood Forest,neighborhood
6812204493000,3000 Friedberg Church Rd,27127,Winston Salem,NC,35.99715,-80.310019,37067,SingleFamily,2018,1968,33976,1706,1.5,3,159114,Winston-Salem,city
6817240698000,4030 Tangle Ln,27106,Winston Salem,NC,36.146213,-80.313826,37067,SingleFamily,2018,1968,20037,2593,3.0,4,209818,Town and Country Estates,neighborhood
6864344745000,4415 Wood Glen Ct,27107,Winston Salem,NC,36.065708,-80.138753,37067,SingleFamily,2018,1993,16117,1501,2.0,3,155800,Winston-Salem,city
6814812964000,2710 Lansdale Ln,27103,Winston Salem,NC,36.056474,-80.291467,37067,SingleFamily,2018,1972,11761,2393,3.0,3,179670,British Woods,neighborhood
6844381072000,1640 Rockford St,27107,Winston Salem,NC,36.074058,-80.207437,37067,SingleFamily,2018,1959,13503,925,1.0,3,53064,Morningside Manor,neighborhood
6806246351000,4428 Robinhood Rd,27106,Winston Salem,NC,36.117345,-80.345274,37067,SingleFamily,2018,1979,20473,1344,2.0,3,175018,Winston-Salem,city
6804048934000,4711 Chippendale Way,27103,Winston Salem,NC,36.064125,-80.350556,37067,SingleFamily,2018,1969,22651,1811,2.5,3,185326,Westbrook,neighborhood
6823274524000,125 Riley Forest Ct,27127,Winston Salem,NC,36.044562,-80.277205,37067,SingleFamily,2018,1995,12632,1900,2.5,3,190483,Winding Woods,neighborhood
6818610261000,2170 Westminister Ln,27106,Winston Salem,NC,36.164273,-80.300663,37067,SingleFamily,2018,1964,33541,1382,2.5,3,140362,Colonial Estates,neighborhood
6813170815000,689 Snead Rd,27103,Winston Salem,NC,36.04499,-80.315793,37067,SingleFamily,2018,1970,20473,1108,1.0,2,99925,Winston-Salem,city
5889266998000,9115 Reynolda Rd,27040,Pfafftown,NC,36.206323,-80.414448,37067,SingleFamily,2018,1946,34412,2251,1.0,4,141488,Tobaccoville,city
6845638804000,1031 Duchess Ct,27107,Winston Salem,NC,36.090164,-80.195401,37067,SingleFamily,2018,1969,13503,1320,1.5,3,106093,Shalimar,neighborhood
6816273008000,1241 Red Oak Ln,27106,Winston Salem,NC,36.125336,-80.312763,37067,SingleFamily,2018,1967,13939,1653,2.0,3,189235,Foxhall,neighborhood
6804315652000,116 Cheltenham Dr,27103,Winston Salem,NC,36.055113,-80.341184,37067,SingleFamily,2018,1973,12632,1484,2.0,3,148504,Salem Woods,neighborhood
5894827730000,167 Red Fox Trl,27103,Winston Salem,NC,36.057859,-80.357586,37067,SingleFamily,2018,1979,20908,2975,3.5,4,316982,Hunters Ridge,neighborhood
6846269287000,3005 Teresa Ave,27105,Winston Salem,NC,36.124203,-80.208831,37067,SingleFamily,2018,1959,14810,950,1.0,3,35606,Castle Heights,neighborhood
6863786834000,6011 Hickory Creek Rd,27107,Winston Salem,NC,36.049627,-80.124318,37067,SingleFamily,2018,1995,19602,2130,2.5,3,214763,Winston-Salem,city
6854993086000,314 Robbins Rd,27107,Winston Salem,NC,36.07752,-80.152679,37067,SingleFamily,2018,1949,47916,1702,1.0,3,94624,Winston-Salem,city
6806505386000,1004 Glousman Rd,27104,Winston Salem,NC,36.106648,-80.335204,37067,SingleFamily,2018,1986,15681,2975,2.5,4,323598,New Sherwood Forest,neighborhood
6838254125000,5690 Fairway Cove Ct,27105,Winston Salem,NC,36.175686,-80.245376,37067,SingleFamily,2018,2008,16117,2035,2.5,3,164502,Winston-Salem,city
5896761639000,1577 Attanook Rd,27106,Winston Salem,NC,36.123766,-80.36395,37067,SingleFamily,2018,1950,54885,1700,2.0,3,135515,Winston-Salem,city
6838224974000,4348 Oak Pointe Dr,27105,Winston Salem,NC,36.169596,-80.245111,37067,SingleFamily,2018,2015,5227,1700,2.5,4,149490,Winston-Salem,city
6827523701000,810 Delmonte Dr,27106,Winston Salem,NC,36.14128,-80.268964,37067,SingleFamily,2018,1957,27442,1800,2.0,3,142842,Brookwood,neighborhood
6817520493000,1915 Oakland Dr,27106,Winston Salem,NC,36.14012,-80.303511,37067,SingleFamily,2018,1978,60548,1613,2.0,3,196554,Town and Country Estates,neighborhood
6815224816000,238 S Cliffdale Dr,27104,Winston Salem,NC,36.086298,-80.311751,37067,SingleFamily,2018,1953,28749,1810,3.5,3,150234,South Fork,neighborhood
5894791751000,155 Old Plantation Ct,27104,Winston Salem,NC,36.077058,-80.363245,37067,SingleFamily,2018,1999,13068,2488,4.0,2,261284,Breckingridge,neighborhood
6824538691000,2711 Lovedale Ave,27127,Winston Salem,NC,36.061365,-80.26574,37067,SingleFamily,2018,1984,11761,943,1.0,2,72269,Hootstown,neighborhood
6823960478000,2439 Fiddlers Glenn Dr,27127,Winston Salem,NC,36.041875,-80.254651,37067,SingleFamily,2018,2006,6534,2048,3.0,4,202137,Winston-Salem,city
6804546398000,119 Lorelei Ct,27103,Winston Salem,NC,36.062803,-80.334093,37067,SingleFamily,2018,1969,16988,1496,2.0,3,148201,Salem Woods,neighborhood
6807272249000,4450 Greenmeadow Lakes Cir,27106,Winston Salem,NC,36.153031,-80.347295,37067,SingleFamily,2018,1966,35719,3502,4.0,4,337975,Winston-Salem,city
6834109693000,306 Haverhill St,27127,Winston Salem,NC,36.053362,-80.244947,37067,SingleFamily,2018,1961,19166,2745,3.0,3,184229,Konnoak,neighborhood
6823151357000,4016 Village Pl,27127,Winston Salem,NC,36.038544,-80.281399,37067,SingleFamily,2018,1978,11761,1460,2.0,4,136822,Caroline Village,neighborhood
6805885043000,450 Friar Tuck Rd,27104,Winston Salem,NC,36.100356,-80.325128,37067,SingleFamily,2018,1969,37026,2423,3.5,5,369500,Old Sherwood Forest,neighborhood
6813394653000,165 Hampton Rd,27103,Winston Salem,NC,36.049999,-80.307637,37067,SingleFamily,2018,1979,18730,1089,1.0,2,124857,Hampton Sted,neighborhood
6816546115000,1121 Partridge Ln,27106,Winston Salem,NC,36.117419,-80.301456,37067,SingleFamily,2018,1969,17859,3198,4.0,4,261243,Merrimont Hills,neighborhood
6876754320000,821 W 25th St,27105,Winston Salem,NC,36.120821,-80.26081,37067,SingleFamily,2018,1962,4791,1074,1.0,2,50536,Boston Thurmon,neighborhood
6876754320000,821 Haywood St,27105,Winston Salem,NC,36.10695,-80.255244,37067,SingleFamily,2018,1953,6969,884,1.0,2,50536,Boston Thurmon,neighborhood
6876754320000,821 Efird St,27105,Winston Salem,NC,36.142886,-80.231088,37067,SingleFamily,2018,1924,17424,1096,1.0,3,50536,Boston Thurmon,neighborhood
6815904645000,2743 Maplewood Ave,27103,Winston Salem,NC,36.080469,-80.287862,37067,SingleFamily,2018,2007,10454,2564,3.5,4,395700,Knollwood Manor,neighborhood
6865015971000,131 Louella Dr,27107,Winston Salem,NC,36.085285,-80.148732,37067,SingleFamily,2018,1959,25264,1772,1.5,3,137414,Winston-Salem,city
6843777455000,3035 Hunterwood Ln,27107,Winston Salem,NC,36.045183,-80.191511,37067,SingleFamily,2018,1999,13503,1391,2.0,3,145636,Winston-Salem,city
5894793535000,5281 Ivystone Ln,27104,Winston Salem,NC,36.076601,-80.362681,37067,SingleFamily,2018,2004,7840,2888,2.5,4,260869,Breckingridge,neighborhood
6816919067000,731 Austin Ln,27106,Winston Salem,NC,36.109115,-80.286558,37067,SingleFamily,2018,1951,21900,2052,2.0,4,357603,Buena Vista,neighborhood
6805846318000,225 Hollin Way,27104,Winston Salem,NC,36.090344,-80.324626,37067,SingleFamily,2018,2001,17859,3322,4.0,4,586048,South Fork,neighborhood
6817526412000,1821 Oakland Dr,27106,Winston Salem,NC,36.140094,-80.301765,37067,SingleFamily,2018,1967,13939,1255,2.5,4,165506,Town and Country Estates,neighborhood
6829508891000,125 Single Leaf Ct,27105,Winston Salem,NC,36.191022,-80.267749,37067,SingleFamily,2018,2000,13939,1890,3.0,4,174724,Angel Oaks,neighborhood
6834367528000,2216 S Main St,27127,Winston Salem,NC,36.069796,-80.239326,37067,SingleFamily,2018,1924,7405,1829,2.0,3,168139,Washington Park,neighborhood
6804630940000,506 Foxcroft Dr,27103,Winston Salem,NC,36.06143,-80.332854,37067,SingleFamily,2018,1969,12196,1300,1.5,3,123917,Salem Woods,neighborhood
6804504567000,437 Hollinswood Ave,27103,Winston Salem,NC,36.052259,-80.334728,37067,SingleFamily,2018,1990,16117,2986,3.5,4,326443,Ashford,neighborhood
5893737087000,4495 Woodsman Way,27103,Winston Salem,NC,36.031393,-80.360362,37067,SingleFamily,2018,1971,20908,1581,2.0,3,163913,Clemmons,city
5894823939000,186 Wexham Rd,27103,Winston Salem,NC,36.058673,-80.358908,37067,SingleFamily,2018,1996,23086,2373,3.0,3,241653,Hunters Ridge,neighborhood
6839303927000,845 Old Hollow Rd,27105,Winston Salem,NC,36.191658,-80.242581,37067,SingleFamily,2018,1938,16117,1549,1.0,3,59239,Winston-Salem,city
6813741751000,3945 Ebert Village Ct,27127,Winston Salem,NC,36.036638,-80.294872,37067,SingleFamily,2018,1993,15750,1300,2.0,3,148352,Briar Glen,neighborhood
6855809482000,208 Water Lily Cir,27107,Winston Salem,NC,36.081213,-80.154018,37067,SingleFamily,2018,2007,6534,2267,3.0,4,204797,Winston-Salem,city
6805572423000,84 Shadylawn Dr,27104,Winston Salem,NC,36.098551,-80.336279,37067,SingleFamily,2018,1991,10454,2568,3.5,4,280640,Winston-Salem,city
6806515097000,4190 Sulgrave Ct,27104,Winston Salem,NC,36.108564,-80.335205,37067,SingleFamily,2018,1986,15681,2752,2.5,4,327744,New Sherwood Forest,neighborhood
5894602944000,2475 Wynbrook Dr,27103,Winston Salem,NC,36.052959,-80.365886,37067,SingleFamily,2018,2001,12632,1247,2.0,3,171118,Winston-Salem,city
5894711097000,1021 Lavada Dr,27103,Winston Salem,NC,36.053345,-80.362716,37067,SingleFamily,2018,1975,20908,1850,3.0,3,199571,Winston-Salem,city
6804429894000,228 Montpelier Dr,27103,Winston Salem,NC,36.05847,-80.336403,37067,SingleFamily,2018,1965,12197,1612,2.0,3,150843,Salem Woods,neighborhood
6846278763000,2821 Raleigh Ave,27105,Winston Salem,NC,36.128191,-80.209294,37067,SingleFamily,2018,1959,8712,950,1.0,3,38064,Castle Heights,neighborhood
6847563480000,4531 Oak Ridge Dr,27105,Winston Salem,NC,36.152076,-80.201118,37067,SingleFamily,2018,1987,27442,1496,2.0,3,136186,Jefferson Gardens,neighborhood
6807631431000,3773 Burbank Ln,27106,Winston Salem,NC,36.142463,-80.333928,37067,SingleFamily,2018,2004,30927,4289,5.0,5,733383,Forsyth Forest,neighborhood
6805745819000,220 Staffordshire Rd,27104,Winston Salem,NC,36.091647,-80.328396,37067,SingleFamily,2018,1974,14810,2889,3.0,4,285523,Peace Haven,neighborhood
6827339466000,920 Long Dr,27106,Winston Salem,NC,36.143107,-80.273473,37067,SingleFamily,2018,1951,18295,1446,2.0,3,134800,Brookwood,neighborhood
6808611613000,4728 Shattalon Dr,27106,Winston Salem,NC,36.165115,-80.334469,37067,SingleFamily,2018,1957,29185,1896,2.0,3,170405,Cedar Forest,neighborhood
5893289503000,130 Cabot Dr,27103,Winston Salem,NC,36.046194,-80.377077,37067,SingleFamily,2018,2001,13068,2854,3.0,3,272349,Clemmons,city
6813753043000,2267 Briar Glen Rd,27127,Winston Salem,NC,36.037486,-80.294218,37067,SingleFamily,2018,1997,41382,1452,2.0,3,164700,Briar Glen,neighborhood
6836612490000,1181 Cleveland Ct,27101,Winston Salem,NC,36.110604,-80.231284,37067,SingleFamily,2018,1970,9583,1772,1.5,3,105313,East Winston,neighborhood
6813174477000,183 Everidge Rd,27103,Winston Salem,NC,36.043972,-80.314229,37067,SingleFamily,2018,2008,6534,2358,3.0,4,201478,Winston-Salem,city
6886673725000,116 Oak Grove Church Rd,27107,Winston Salem,NC,36.090989,-80.138153,37067,SingleFamily,2018,1965,33105,1798,2.0,3,171391,Garden View,neighborhood
6886673725000,116 Southoak Dr,27107,Winston Salem,NC,36.040477,-80.201043,37067,SingleFamily,2018,1995,10890,1550,2.0,3,171391,Garden View,neighborhood
6816118749000,709 Archer Rd,27106,Winston Salem,NC,36.110818,-80.314037,37067,SingleFamily,2018,1970,19602,2882,2.1,4,315137,Robinhood Trails,neighborhood
6808721907000,4857 Shattalon Dr,27106,Winston Salem,NC,36.168746,-80.331066,37067,SingleFamily,2018,1949,79714,1020,1.0,2,95182,Winston-Salem,city
6864579955000,461 Oak Grove Church Rd,27107,Winston Salem,NC,36.074578,-80.130391,37067,SingleFamily,2018,1989,32234,2098,3.0,5,199678,Winston-Salem,city
6856501241000,3565 New Delhi Dr,27101,Winston Salem,NC,36.107973,-80.16745,37067,Mobile,2018,1999,30056,1328,2.0,3,108789,Wheeling Village,neighborhood
6806001734000,5143 Carnlough Ln,27104,Winston Salem,NC,36.1075,-80.353667,37067,SingleFamily,2018,2007,9583,3338,4.0,3,612335,New Sherwood Forest,neighborhood
6806945115000,3530 Sally Kirk Rd,27106,Winston Salem,NC,36.117192,-80.322049,37067,SingleFamily,2018,2004,20037,2036,2.5,3,268559,Robinhood Dellc,neighborhood
6806661711000,119 Breeze Hill Rd,27106,Winston Salem,NC,36.124035,-80.333636,37067,SingleFamily,2018,1957,43560,1363,1.0,3,142444,Bent Tree Farm,neighborhood
6816157289000,120 Greenvalley Rd,27106,Winston Salem,NC,36.120405,-80.314512,37067,SingleFamily,2018,1955,14374,1050,1.0,3,118062,Mount Tabor,neighborhood
6806797215000,3513 Brookmeade Ct,27106,Winston Salem,NC,36.13117,-80.328334,37067,SingleFamily,2018,1993,17424,3100,4.0,4,360302,Still Meadow,neighborhood
6818728507000,4100 James St,27106,Winston Salem,NC,36.16809,-80.294844,37067,SingleFamily,2018,1961,23522,1223,2.0,3,130530,Winston-Salem,city
6855400120000,3261 Kernersville Rd,27107,Winston Salem,NC,36.080166,-80.170906,37067,SingleFamily,2018,1985,19602,2067,3.0,4,194151,Winston-Salem,city
6807319721000,3875 Ryan Way,27106,Winston Salem,NC,36.13773,-80.341322,37067,SingleFamily,2018,1995,78408,4716,4.5,4,699268,Ryanvaille,neighborhood
6807477224000,4485 Bridalcreek W,27106,Winston Salem,NC,36.152956,-80.33885,37067,SingleFamily,2018,1974,26136,1901,2.5,3,212249,Bridalcreek,neighborhood
6837046792000,5 Marvin Blvd,27105,Winston Salem,NC,36.146954,-80.250814,37067,SingleFamily,2018,1972,9147,1294,2.0,3,91578,Forest Hills,neighborhood
6816495087000,1608 Benbow St,27106,Winston Salem,NC,36.130881,-80.305144,37067,SingleFamily,2018,1976,7840,1050,1.0,3,110228,West Polo Road,neighborhood
6855817475000,230 Sedge Meadow Dr,27107,Winston Salem,NC,36.08399,-80.154819,37067,SingleFamily,2018,2003,9583,1549,3.0,3,168914,Winston-Salem,city
6837898611000,4636 Old Baux Mountain Rd,27105,Winston Salem,NC,36.160776,-80.22354,37067,SingleFamily,2018,1951,33105,1786,3.0,3,91844,Northview,neighborhood
6865010623000,135 Robbins Rd,27107,Winston Salem,NC,36.084555,-80.150596,37067,SingleFamily,2018,1958,23958,1344,1.5,3,126474,Winston-Salem,city
6816815508000,2847 Kensington Rd,27106,Winston Salem,NC,36.110463,-80.291524,37067,SingleFamily,2018,1970,17859,3296,3.0,4,527081,Buena Vista,neighborhood
5897508916000,2346 Woodgreen Rd,27106,Winston Salem,NC,36.135395,-80.368803,37067,SingleFamily,2018,1976,43995,1298,2.0,3,164365,Winston-Salem,city
6819517340000,1058 Pollyanna Dr,27105,Winston Salem,NC,36.191983,-80.302188,37067,SingleFamily,2018,1987,20037,1524,2.0,3,162356,Swink Acres,neighborhood
6822883995000,1490 Norwich Rd,27127,Winston Salem,NC,36.021172,-80.256655,37067,SingleFamily,2018,1966,20037,1624,2.0,3,170976,Wilshire Estates,neighborhood
5897229237000,5405 Williams Place Ct,27106,Winston Salem,NC,36.138907,-80.378515,37067,SingleFamily,2018,2004,20908,3092,3.5,3,412803,Winston-Salem,city
6847263952000,4471 Old Carver School Rd,27105,Winston Salem,NC,36.153396,-80.211411,37067,SingleFamily,2018,1948,14374,1050,1.0,3,38817,Old Carver,neighborhood
6824377328000,1427 Miller St,27103,Winston Salem,NC,36.071635,-80.273245,37067,SingleFamily,2018,1948,10454,949,1.0,2,127978,Ardmore,neighborhood
6854387993000,210 Madi Ct,27107,Winston Salem,NC,36.076935,-80.171462,37067,SingleFamily,2018,2005,6098,1190,2.0,3,116832,Winston-Salem,city
6867054286000,4491 Ramseur Dr,27101,Winston Salem,NC,36.149445,-80.149928,37067,SingleFamily,2018,2011,9147,2671,2.5,4,206997,Walkertown,city
6837059276000,3920 Shamel St,27105,Winston Salem,NC,36.148441,-80.249885,37067,SingleFamily,2018,1972,7405,1002,1.5,3,84630,North Hills,neighborhood
6814975569000,1323 Berwick Rd,27103,Winston Salem,NC,36.072075,-80.287281,37067,SingleFamily,2018,1957,13068,1870,2.0,3,173246,Ardmore,neighborhood
6847654308000,4408 Orchid Dr,27105,Winston Salem,NC,36.149324,-80.197619,37067,SingleFamily,2018,1971,12632,1686,2.0,3,111422,Jefferson Gardens,neighborhood
6822947900000,810 Hopewell Church Rd,27127,Winston Salem,NC,36.010051,-80.252005,37067,SingleFamily,2018,2002,88426,2307,2.5,4,301166,Winston-Salem,city
6839412116000,895 Old Hollow Rd,27105,Winston Salem,NC,36.192306,-80.239549,37067,SingleFamily,2018,1988,27442,1204,1.5,3,138059,Winston-Salem,city
6823844714000,110 Kings Meadow Ct,27127,Winston Salem,NC,36.037095,-80.256808,37067,SingleFamily,2018,2000,9147,1258,2.0,3,164942,Kingstree,neighborhood
6815262240000,3811 Guinevere Ln,27104,Winston Salem,NC,36.095446,-80.312483,37067,SingleFamily,2018,1988,20473,4331,3.5,4,531614,South Fork,neighborhood
6818169566000,5058 Cobblestone Rd,27106,Winston Salem,NC,36.178845,-80.314781,37067,SingleFamily,2018,1994,20908,2316,3.5,4,222086,Moravian Forest,neighborhood
6803235302000,2613 Mid Salem Ct,27103,Winston Salem,NC,36.032257,-80.344417,37067,SingleFamily,2018,2005,10454,1230,2.0,3,142440,Winston-Salem,city
6805718940000,4415 Country Club Rd,27104,Winston Salem,NC,36.08347,-80.327118,37067,SingleFamily,2018,1955,47480,1618,2.0,3,134723,South Fork,neighborhood
6864343101000,4220 Yeaton Glen Cir,27107,Winston Salem,NC,36.063935,-80.139166,37067,SingleFamily,2018,1993,12632,1677,2.0,3,181075,Winston-Salem,city
6824215344000,1985 Hawkcrest Ct,27127,Winston Salem,NC,36.055025,-80.27695,37067,SingleFamily,2018,2002,14374,1376,2.0,3,148106,Winston-Salem,city
6844326745000,2612 Lewis St,27107,Winston Salem,NC,36.059618,-80.205624,37067,SingleFamily,2018,1957,12870,1700,2.0,4,68532,Waughtown,neighborhood
6824949507000,2504 Buchanan St,27127,Winston Salem,NC,36.064147,-80.252199,37067,SingleFamily,2018,1955,11325,1000,1.0,3,73400,Konnoak,neighborhood
6854593194000,3669 Thornaby Cir,27107,Winston Salem,NC,36.077531,-80.166122,37067,SingleFamily,2018,2005,7405,1205,2.0,3,120903,Winston-Salem,city
6807733724000,3610 Rosebriar Cir,27106,Winston Salem,NC,36.143468,-80.329888,37067,SingleFamily,2018,2001,16117,3450,3.5,4,511046,Forsyth Forest,neighborhood
6833067008000,811 Orchestra Dr,27127,Winston Salem,NC,36.040772,-80.249129,37067,SingleFamily,2018,2010,12196,1820,2.5,4,191647,Union Ridge,neighborhood
6855810092000,242 Brooks Edge Dr,27107,Winston Salem,NC,36.082741,-80.157146,37067,SingleFamily,2018,2001,41817,1784,2.5,3,178199,Winston-Salem,city
6823334254000,2392 Old Salisbury Rd,27127,Winston Salem,NC,36.033055,-80.273468,37067,SingleFamily,2018,1951,20037,1080,1.0,2,90567,Winston-Salem,city
6833683308000,3618 Southdale Ave,27107,Winston Salem,NC,36.04736,-80.230283,37067,SingleFamily,2018,1948,8712,912,1.0,3,80991,Weston,neighborhood
6805001409000,100 Savannah Meadows Dr,27104,Winston Salem,NC,36.07934,-80.353285,37067,SingleFamily,2018,2005,11325,1465,2.5,3,186313,South Peace Haven,neighborhood
6824180499000,2423 Cherokee Ln,27103,Winston Salem,NC,36.074614,-80.282206,37067,SingleFamily,2018,1940,7405,1200,1.0,3,147449,Ardmore,neighborhood
6829525575000,5320 Gyddie Dr,27105,Winston Salem,NC,36.1958,-80.268896,37067,SingleFamily,2018,1997,10890,1794,2.5,3,158665,Angel Oaks,neighborhood
6854779985000,3436 Tinley Park Dr,27107,Winston Salem,NC,36.074365,-80.157332,37067,SingleFamily,2018,2004,21,900,2.0,3,115064,Winston-Salem,city
6803180217000,1435 Stonecroft Dr,27103,Winston Salem,NC,36.045784,-80.349651,37067,SingleFamily,2018,2005,10454,2438,3.0,4,331698,Winston-Salem,city
6876956265000,605 N Lake Dr,27127,Winston Salem,NC,35.994714,-80.271301,37057,SingleFamily,2018,2004,2664,1196,2.0,2,166816,Winston-Salem,city
6804544816000,215 Capistrano Dr,27103,Winston Salem,NC,36.064044,-80.33507,37067,SingleFamily,2018,1971,16117,1620,2.0,3,164956,Salem Woods,neighborhood
5895793780000,512 Paigebrook Dr,27106,Winston Salem,NC,36.104558,-80.362916,37067,SingleFamily,2018,2001,19166,3400,5.0,5,384996,Winston-Salem,city
6833273349000,3675 Emma Ave,27127,Winston Salem,NC,36.04449,-80.243638,37067,SingleFamily,2018,1953,17424,980,1.0,2,63597,Union Ridge,neighborhood
6807952959000,3762 Sandalwood Ln,27106,Winston Salem,NC,36.149704,-80.323447,37067,SingleFamily,2018,2000,19602,2848,4.5,4,455716,Greenbrier Farms,neighborhood
6812949396000,2043 Hogan Point Dr,27127,Winston Salem,NC,36.008298,-80.284864,37067,SingleFamily,2018,1999,9147,1600,2.0,3,173570,Winston-Salem,city
6816563403000,3308 Grouse Hollow Ct,27106,Winston Salem,NC,36.12368,-80.302571,37067,SingleFamily,2018,1992,13068,3574,5.0,4,381687,Merrimont Hills,neighborhood
6823553420000,3210 Trenchard Ln,27127,Winston Salem,NC,36.038799,-80.267271,37067,SingleFamily,2018,2003,9583,1232,2.0,3,139361,Winston-Salem,city
6827002591000,230 Harmon Ct,27106,Winston Salem,NC,36.135054,-80.285862,37067,SingleFamily,2018,1976,20037,2747,3.5,6,338017,Woodberry Forest,neighborhood
6826355716000,2729 Bartram Rd,27106,Winston Salem,NC,36.122154,-80.274722,37067,SingleFamily,2018,1962,64904,3261,5.5,4,1220309,Winston-Salem,city
5895840107000,138 Westmont Dr,27104,Winston Salem,NC,36.08933,-80.360561,37067,SingleFamily,2018,1997,5227,1020,2.0,3,131578,Stonebridge,neighborhood
6822031838000,155 Hogan Ln,27127,Winston Salem,NC,36.006959,-80.284327,37067,SingleFamily,2018,1999,9147,1252,2.5,3,143583,Winston-Salem,city
6865637878000,750 Old Hollow Rd,27105,Winston Salem,NC,36.191128,-80.246676,37067,SingleFamily,2018,1939,21780,883,1.0,2,65966,Winston-Salem,city
6865637878000,750 W 13th St,27105,Winston Salem,NC,36.110184,-80.252241,37067,Mobile,2018,1985,316245,1140,2.0,3,65966,Winston-Salem,city
6865637878000,750 Twenty Fifth & Half St,27105,Winston Salem,NC,36.121518,-80.260708,37067,SingleFamily,2018,1963,12632,1218,1.5,2,65966,Winston-Salem,city
5893815386000,4336 Cordova Dr,27103,Winston Salem,NC,36.026709,-80.357535,37067,SingleFamily,2018,1979,16552,1060,2.0,3,147648,Clemmons,city
6808102544000,4260 Lochurst Dr,27040,Pfafftown,NC,36.161895,-80.350823,37067,SingleFamily,2018,2011,12196,3048,4.0,5,270312,Winston-Salem,city
6836825631000,1429 Hattie Ave,27105,Winston Salem,NC,36.11398,-80.223755,37067,SingleFamily,2018,1926,4791,1295,1.0,4,33332,North East Winston,neighborhood
6815231254000,141 Turner St,27104,Winston Salem,NC,36.087331,-80.312631,37067,SingleFamily,2018,1951,23086,1054,1.0,3,119623,South Fork,neighborhood
6808582043000,5611 Main St,27040,Pfafftown,NC,36.182596,-80.337546,37067,SingleFamily,2018,1951,7405,616,1.0,1,64001,Bethania,city
6816603903000,2960 Reynolds Sq,27106,Winston Salem,NC,36.108645,-80.298936,37067,SingleFamily,2018,2001,9147,4110,5.0,4,835136,Buena Vista,neighborhood
6865215293000,335 Troy Lndg,27107,Winston Salem,NC,36.083493,-80.141892,37067,SingleFamily,2018,2004,6969,1360,2.0,3,140428,Winston-Salem,city
6804163411000,4838 Kester Mill Ct,27103,Winston Salem,NC,36.068141,-80.349012,37067,SingleFamily,2018,1961,16117,1176,1.5,3,,Winston-Salem,city
6804163411000,4838 Kester Mill Ct,27103,Winston Salem,NC,36.068141,-80.349012,37067,SingleFamily,2018,1961,92782,1176,1.5,3,,Winston-Salem,city
6804163411000,4838 Kester Mill Ct,27103,Winston Salem,NC,36.068141,-80.349012,37067,SingleFamily,2018,1961,27007,1176,1.5,3,,Winston-Salem,city
6817214845000,109 Powers Rd,27106,Winston Salem,NC,36.138385,-80.312375,37067,SingleFamily,2018,2007,15246,1840,3.0,4,182938,Winston-Salem,city
6806418644000,1205 Brennington Place Rd,27104,Winston Salem,NC,36.110122,-80.337741,37067,SingleFamily,2018,1989,17424,3879,3.5,4,567412,New Sherwood Forest,neighborhood
6815119380000,445 Janet Ave,27104,Winston Salem,NC,36.081983,-80.313125,37067,SingleFamily,2018,1986,10018,1300,2.0,2,148239,South Fork,neighborhood
6807254635000,4013 Poindexter Ave,27106,Winston Salem,NC,36.148548,-80.346888,37067,SingleFamily,2018,1997,20037,2601,3.0,3,266718,Shattalon Lake Estates,neighborhood
6807254635000,4013 Poindexter Ave,27106,Winston Salem,NC,36.148548,-80.346888,37067,SingleFamily,2018,1997,20037,2601,3.0,3,266718,Shattalon Lake Estates,neighborhood
6833285308000,312 W Clemmonsville Rd,27127,Winston Salem,NC,36.0472,-80.243153,37067,SingleFamily,2018,1929,6534,1161,2.0,2,81426,Union Ridge,neighborhood
6833034166000,407 Davie Ave,27127,Winston Salem,NC,36.032852,-80.249805,37067,SingleFamily,2018,1988,13939,1253,2.0,2,133804,Kingstree,neighborhood
6817014662000,950 Panola Rd,27106,Winston Salem,NC,36.137747,-80.319194,37067,SingleFamily,2018,1978,20473,1298,2.0,3,160016,Woodside,neighborhood
6809806402000,2155 Widgeon Ct,27106,Winston Salem,NC,36.189293,-80.326341,37067,SingleFamily,2018,1974,21344,1732,2.5,3,199978,Mallard Lakes,neighborhood
6827821849000,4110 Reich St,27105,Winston Salem,NC,36.141843,-80.259352,37067,SingleFamily,2018,1937,20160,744,1.0,2,27074,Winston-Salem,city
6824214345000,1524 Hawkcrest Ln,27127,Winston Salem,NC,36.055035,-80.277293,37067,SingleFamily,2018,2003,9147,1386,2.0,3,150850,Winston-Salem,city
6838139696000,4347 Oak Pointe Dr,27105,Winston Salem,NC,36.169759,-80.244553,37067,SingleFamily,2018,2015,6969,2104,4.0,3,179149,Winston-Salem,city
6815129578000,3800 Fritz St,27104,Winston Salem,NC,36.085478,-80.313204,37067,SingleFamily,2018,1941,18730,2100,3.0,5,194485,South Fork,neighborhood
5896734372000,5070 Century Oaks Ln,27106,Winston Salem,NC,36.114448,-80.362763,37067,SingleFamily,2018,2004,27878,2127,2.0,3,303088,Winston-Salem,city
6818716143000,2021 Independence Rd,27106,Winston Salem,NC,36.164098,-80.295309,37067,SingleFamily,2018,1962,27007,1700,1.5,3,548186,Colonial Estates,neighborhood
6833285598000,3516 Konnoak Dr,27127,Winston Salem,NC,36.047688,-80.242971,37067,SingleFamily,2018,1949,17424,2685,3.0,4,180669,Konnoak,neighborhood
6806839140000,3404 Jameson Ln,27106,Winston Salem,NC,36.11429,-80.32393,37067,SingleFamily,2018,1988,16988,4206,4.0,5,458118,Huntscroft,neighborhood
6846392036000,3510 Carver School Rd,27105,Winston Salem,NC,36.131822,-80.208146,37067,SingleFamily,2018,1958,30056,1990,2.0,4,133953,Prospect Park,neighborhood
6814973823000,2742 Cherokee Ln,27103,Winston Salem,NC,36.072727,-80.288124,37067,SingleFamily,2018,1957,11761,1622,2.0,3,161318,Ardmore,neighborhood
6847169658000,4505 Carver School Rd,27105,Winston Salem,NC,36.152718,-80.212756,37067,SingleFamily,2018,2000,12196,1176,2.0,3,98700,Old Carver,neighborhood
6845008524000,1346 Peachtree St,27107,Winston Salem,NC,36.080598,-80.215513,37067,SingleFamily,2018,1960,13503,1071,1.0,3,55947,Morningside Manor,neighborhood
6845008524000,1346 Peachtree St,27107,Winston Salem,NC,36.080598,-80.215513,37067,SingleFamily,2018,1960,16552,1071,1.0,3,55947,Morningside Manor,neighborhood
6806657426000,216 Leland Dr,27106,Winston Salem,NC,36.120669,-80.331566,37067,SingleFamily,2018,1965,20473,1504,1.5,3,141677,Robinhood Park,neighborhood
6845726349000,2757 Reynolds Park Rd,27107,Winston Salem,NC,36.086221,-80.192499,37067,Condominium,2018,1973,871,1020,1.5,2,54397,Reynolda Forest,neighborhood
6824385611000,1212 Miller St,27103,Winston Salem,NC,36.075016,-80.274,37067,SingleFamily,2018,1956,11761,1366,2.0,3,174379,Ardmore,neighborhood
6833003064000,4824 Lighthouse Ct,27127,Winston Salem,NC,36.024206,-80.250021,37067,SingleFamily,2018,2004,6050,1500,2.5,4,168822,South View,neighborhood
6815532914000,401 Anita Dr,27104,Winston Salem,NC,36.089367,-80.302327,37067,SingleFamily,2018,1964,15986,2182,3.0,3,,Country Club,neighborhood
