REID,street,zipcode,city,state,latitude,longitude,FIPScounty,useCode,taxAssessmentYear,yearBuilt,lotSizeSqFt,finishedSqFt,bathrooms,bedrooms,zestimate,name,type
6856179087000,4290 Morning Ridge Ln,27101,Winston Salem,NC,36.12668,-80.178428,37067,SingleFamily,2018,2015,5227,1561,2.0,3,159217,Winston-Salem,city
6846268599000,3000 Myra St,27105,Winston Salem,NC,36.12504,-80.209169,37067,SingleFamily,2018,1962,13503,1066,1.0,3,36040,Castle Heights,neighborhood
6813957731000,2000 Pope Rd,27127,Winston Salem,NC,36.039397,-80.286229,37067,SingleFamily,2018,1956,26136,1292,1.0,3,134059,Janita Lakes Estates,neighborhood
6813236133000,2365 W Clemmonsville Rd,27127,Winston Salem,NC,36.033507,-80.309466,37067,SingleFamily,2018,1920,1251043,2142,2.0,2,407569,Winston-Salem,city
6822598229000,3005 Laurel Hill Ct,27127,Winston Salem,NC,36.022012,-80.26537,37067,SingleFamily,2018,1990,13068,1456,2.5,3,143492,Twin Cedars Laurel Park,neighborhood
6817786447000,5056 Brian Center Ln,27106,Winston Salem,NC,36.156852,-80.295192,37067,SingleFamily,2018,2007,6098,1272,2.0,3,156579,Winston-Salem,city
6817423357000,2800 Loch Dr,27106,Winston Salem,NC,36.139937,-80.306021,37067,SingleFamily,2018,1958,29620,3150,2.0,3,212917,Town and Country Estates,neighborhood
6816716800000,2853 Merry Acres Ln,27106,Winston Salem,NC,36.111025,-80.294587,37067,SingleFamily,2018,1993,28314,6353,7.0,5,1159201,Buena Vista,neighborhood
6812429569000,3251 Farm Bell Ln,27127,Winston Salem,NC,36.003191,-80.301631,37067,SingleFamily,2018,2006,9147,2776,3.0,4,272471,Winston-Salem,city
6845382853000,2950 Galaxy Ct,27101,Winston Salem,NC,36.103752,-80.207636,37067,SingleFamily,2018,1970,9583,825,2.0,5,70386,City View,neighborhood
6838130334000,5525 Brookfield Ridge Dr,27105,Winston Salem,NC,36.170673,-80.250027,37067,SingleFamily,2018,1992,22215,1600,2.5,3,149763,Winston-Salem,city
6816101482000,1310 Saxon Ln,27104,Winston Salem,NC,36.106996,-80.316194,37067,SingleFamily,2018,1959,27442,1724,2.5,3,253951,Old Sherwood Forest,neighborhood
6847410204000,3947 Glen Oak Dr,27105,Winston Salem,NC,36.137923,-80.20562,37067,SingleFamily,2018,1967,20473,1461,1.5,3,130850,Monticello Park,neighborhood
6817490148000,2710 Glenhaven Ln,27106,Winston Salem,NC,36.15866,-80.307354,37067,SingleFamily,2018,1957,30492,1660,2.0,3,144621,Bethabara Estates,neighborhood
6833128651000,111 W Davidson Ave,27127,Winston Salem,NC,36.031359,-80.245096,37067,SingleFamily,2018,1949,10018,1043,1.0,3,74944,South View,neighborhood
6836707185000,1515 E 10th St,27101,Winston Salem,NC,36.107151,-80.226206,37067,SingleFamily,2018,1975,20473,1386,1.5,4,90251,East Winston,neighborhood
6864773657000,541 Country View Dr,27107,Winston Salem,NC,36.073887,-80.125611,37067,SingleFamily,2018,1999,16988,1635,2.0,3,181084,Winston-Salem,city
6848114761000,1617 Sanford Dr,27105,Winston Salem,NC,36.166538,-80.214701,37067,SingleFamily,2018,1960,22651,1189,1.0,3,98198,Winston-Salem,city
6817331299000,3148 Shannon Dr,27106,Winston Salem,NC,36.14243,-80.310008,37067,SingleFamily,2018,1956,22215,2140,3.0,4,197606,Town and Country Estates,neighborhood
6823730766000,3270 Peters Creek Pkwy,27127,Winston Salem,NC,36.033626,-80.26174,37067,SingleFamily,2018,1967,57934,1828,2.0,3,226749,Winston-Salem,city
6823730766000,3270 Peters Creek Pkwy,27127,Winston Salem,NC,36.033626,-80.26174,37067,SingleFamily,2018,1967,105415,1828,2.0,3,226749,Winston-Salem,city
6823730766000,3270 Peters Creek Pkwy,27127,Winston Salem,NC,36.033626,-80.26174,37067,SingleFamily,2018,1967,51400,1828,2.0,3,226749,Winston-Salem,city
6823730766000,3270 Peters Creek Pkwy,27127,Winston Salem,NC,36.033626,-80.26174,37067,SingleFamily,2018,1967,187308,1828,2.0,3,226749,Winston-Salem,city
5893611894000,4330 Owen Park St,27103,Winston Salem,NC,36.02794,-80.365661,37067,SingleFamily,2018,1973,15681,1350,1.0,3,123052,Clemmons,city
6805444373000,516 Amos Garden Dr,27104,Winston Salem,NC,36.094903,-80.323339,37067,SingleFamily,2018,2019,13068,2550,3.0,3,386630,South Fork,neighborhood
6804328381000,1137 Edenwood Dr,27103,Winston Salem,NC,36.056965,-80.34012,37067,SingleFamily,2018,1974,85,1500,2.0,3,148354,Salem Woods,neighborhood
6814374570000,1417 Hannaford Rd,27103,Winston Salem,NC,36.071595,-80.307892,37067,SingleFamily,2018,1964,20908,1690,2.0,3,180407,Stratford Manor,neighborhood
6839109131000,5928 Old Rural Hall Rd,27105,Winston Salem,NC,36.188599,-80.248434,37067,SingleFamily,2018,1947,273992,2305,1.0,3,100303,Winston-Salem,city
6808922226000,3775 Cheshire Woods Dr,27106,Winston Salem,NC,36.166896,-80.32382,37067,SingleFamily,2018,2003,18295,1132,2.0,3,140745,Winston-Salem,city
5897582547000,5620 Kane Dr,27040,Pfafftown,NC,36.156281,-80.37106,37067,SingleFamily,2018,1967,23522,1664,2.0,3,172322,Winston-Salem,city
6832519821000,5217 Brenda Dr,27107,Winston Salem,NC,36.001823,-80.230878,37067,SingleFamily,2018,1955,20037,1066,1.0,2,85450,Winston-Salem,city
5895593932000,670 Hunters Knoll Rd,27106,Winston Salem,NC,36.105171,-80.369892,37067,SingleFamily,2018,2000,14810,1932,3.0,3,207899,Winston-Salem,city
6815906022000,2726 Lyndhurst Ave,27103,Winston Salem,NC,36.078743,-80.287348,37067,SingleFamily,2018,1956,27442,1808,2.0,3,238106,Ardmore,neighborhood
5893393034000,216 Cabot Dr,27103,Winston Salem,NC,36.047579,-80.375641,37067,SingleFamily,2018,2005,11325,2000,2.0,3,258234,Clemmons,city
6805663011000,4010 Dresden Dr,27104,Winston Salem,NC,36.094744,-80.332548,37067,SingleFamily,2018,1970,15681,3008,3.0,5,271996,Peace Haven,neighborhood
6835899542000,853 N Cameron Ave,27101,Winston Salem,NC,36.105452,-80.222247,37067,SingleFamily,2018,1937,10454,1854,2.5,3,,Reynoldstown,neighborhood
6814396603000,3319 Old Vineyard Rd,27103,Winston Salem,NC,36.077442,-80.307775,37067,SingleFamily,2018,1948,26136,1448,2.0,3,128043,Old Vineyard,neighborhood
6834113713000,3034 Croft St,27127,Winston Salem,NC,36.056379,-80.247304,37067,SingleFamily,2018,1963,13068,1254,1.5,3,122525,Konnoak,neighborhood
6827896278000,4940 Trent Hill Dr,27105,Winston Salem,NC,36.159435,-80.257847,37067,SingleFamily,2018,2012,6534,1682,2.0,3,148283,Retnuh Hills,neighborhood
6832101230000,367 Sailway Rd,27127,Winston Salem,NC,35.997273,-80.247009,37067,SingleFamily,2018,2004,8712,1204,2.0,3,144859,Winston-Salem,city
6875380490000,705 Aureole St,27107,Winston Salem,NC,36.063515,-80.224956,37067,SingleFamily,2018,1959,9583,1056,2.0,3,29452,Belview,neighborhood
6875380490000,705 Goldfloss St,27107,Winston Salem,NC,36.066582,-80.224445,37067,SingleFamily,2018,1930,7405,1601,1.0,2,29452,Belview,neighborhood
6875380490000,721 Bethany Church Rd # 705,27107,Winston Salem,NC,35.954427,-80.169435,37057,SingleFamily,2018,1865,158123,1642,2.0,3,29452,Belview,neighborhood
6875380490000,705 Hampton Way Dr,27107,Winston Salem,NC,36.072121,-80.129442,37067,SingleFamily,2018,1989,36,1498,2.0,3,29452,Belview,neighborhood
6819513089000,1196 Pollyanna Dr,27105,Winston Salem,NC,36.191419,-80.303392,37067,SingleFamily,2018,1999,21780,1593,2.0,3,193457,Swink Acres,neighborhood
6833901794000,4148 Duck Pond Ct,27107,Winston Salem,NC,36.026478,-80.220174,37067,SingleFamily,2018,2003,9583,1628,3.0,3,150346,Winston-Salem,city
6857001931000,3840 Clara Ln,27105,Winston Salem,NC,36.137146,-80.184828,37067,SingleFamily,2018,1977,22215,1223,2.0,3,109190,Beeson Acres,neighborhood
6823376974000,125 Crossfield Ridge Ct,27127,Winston Salem,NC,36.045693,-80.272994,37067,SingleFamily,2018,1997,9583,1384,2.0,3,160637,Ardmore Village,neighborhood
6827328906000,867 Ewing St,27106,Winston Salem,NC,36.141826,-80.274066,37067,SingleFamily,2018,2013,9583,1100,4.0,4,134040,Brookwood,neighborhood
6847641809000,4308 Orchid Dr,27105,Winston Salem,NC,36.147967,-80.198623,37067,SingleFamily,2018,1975,11325,1470,2.0,4,104412,Jefferson Gardens,neighborhood
6813957306000,3814 Wynnwood Dr,27127,Winston Salem,NC,36.038508,-80.286289,37067,SingleFamily,2018,1960,22651,1628,2.0,3,154514,Janita Lakes Estates,neighborhood
5894668689000,5448 Hanover Park Dr,27103,Winston Salem,NC,36.068684,-80.364041,37067,SingleFamily,2018,1986,43560,2247,4.0,4,301780,Hanover Park,neighborhood
6805967088000,4109 Alonzo Dr,27104,Winston Salem,NC,36.094996,-80.320804,37067,SingleFamily,2018,1959,21344,1955,1.5,4,194279,South Fork,neighborhood
6838023239000,219 Azalea Dr,27105,Winston Salem,NC,36.167728,-80.252367,37067,SingleFamily,2018,2015,6969,2060,2.5,4,175284,Winston-Salem,city
6805333491000,145 Surtees Rd,27104,Winston Salem,NC,36.087465,-80.342278,37067,SingleFamily,2018,1967,17859,1895,2.0,3,193186,Club Haven Estates,neighborhood
6853499612000,3163 Ridgewood Rd,27107,Winston Salem,NC,36.051253,-80.167239,37067,SingleFamily,2018,1949,474368,1200,1.0,2,158681,Winston-Salem,city
6854173287000,3000 Corry Cir,27107,Winston Salem,NC,36.072262,-80.179619,37067,SingleFamily,2018,1970,8276,1199,2.0,3,81146,Broadbay Heights,neighborhood
6804536974000,104 Capistrano Dr,27103,Winston Salem,NC,36.061552,-80.334155,37067,SingleFamily,2018,1967,11325,1325,2.0,3,142950,Salem Woods,neighborhood
5893544766000,4710 Cloverhurst Rd,27103,Winston Salem,NC,36.035966,-80.368173,37067,SingleFamily,2018,1969,23086,1529,2.0,3,184089,Clemmons,city
6827597755000,5002 Sunrise Ter,27105,Winston Salem,NC,36.160556,-80.267778,37067,SingleFamily,2018,1964,28313,1636,2.0,3,94446,Hunter Hills,neighborhood
5893282375000,2911 Parkhurst Dr,27103,Winston Salem,NC,36.045664,-80.379126,37067,SingleFamily,2018,1959,39204,1176,1.0,2,125767,Clemmons,city
6864467145000,4229 Glenn Hi Rd,27107,Winston Salem,NC,36.069642,-80.134345,37067,SingleFamily,2018,1983,25700,2132,2.0,3,205074,Winston-Salem,city
6856046366000,4118 Reidsville Rd,27101,Winston Salem,NC,36.119172,-80.18274,37067,SingleFamily,2018,1955,20037,1575,1.0,3,120542,Winston-Salem,city
6808910279000,3655 Cheshire Woods Dr,27106,Winston Salem,NC,36.164235,-80.324338,37067,SingleFamily,2018,2004,9583,1264,2.0,3,142183,Winston-Salem,city
6808722496000,4856 Shattalon Dr,27106,Winston Salem,NC,36.167386,-80.330395,37067,SingleFamily,2018,2004,10920,1320,3.0,3,138324,Winston-Salem,city
6815408518000,2072 S Hawthorne Rd,27103,Winston Salem,NC,36.080122,-80.303524,37067,SingleFamily,2018,1951,21344,696,2.0,3,141284,Old Vineyard,neighborhood
6865108396000,4106 Johnny Knl,27107,Winston Salem,NC,36.081097,-80.144205,37067,SingleFamily,2018,2005,4356,1190,2.0,3,133644,Winston-Salem,city
5896908340000,415 Torrington Ln,27104,Winston Salem,NC,36.106275,-80.354608,37067,SingleFamily,2018,2005,12632,3781,3.5,4,637757,New Sherwood Forest,neighborhood
5898702134000,3500 Transou Rd,27040,Pfafftown,NC,36.160578,-80.364158,37067,SingleFamily,2018,1904,450410,3100,3.5,4,495367,Winston-Salem,city
6824149938000,2481 Ardmore Mnr,27103,Winston Salem,NC,36.064962,-80.279169,37067,SingleFamily,2018,1964,15246,1377,2.0,3,158259,Aldbrige,neighborhood
6818105448000,5401 Mesa Ct,27106,Winston Salem,NC,36.162184,-80.31599,37067,SingleFamily,2018,1978,35283,1298,2.0,3,132930,Georgetown,neighborhood
6864693044000,4361 Marla Ct,27107,Winston Salem,NC,36.07765,-80.128967,37067,SingleFamily,2018,2002,22215,1877,2.5,4,161082,Embark Oaks,neighborhood
6833466369000,3667 Yale Ave,27107,Winston Salem,NC,36.041848,-80.235748,37067,SingleFamily,2018,1948,7840,912,1.0,3,,Weston,neighborhood
6807448816000,4320 Shattalon Dr,27106,Winston Salem,NC,36.146214,-80.338317,37067,SingleFamily,2018,2003,233481,6700,8.0,5,720911,Shattalon Lake Estates,neighborhood
6818101650000,5412 Winona St,27106,Winston Salem,NC,36.162439,-80.317268,37067,SingleFamily,2018,1968,15681,1519,2.0,3,121779,Georgetown,neighborhood
6815305944000,3500 Chelsea Village Ln,27103,Winston Salem,NC,36.081076,-80.307851,37067,SingleFamily,2018,2003,8276,1152,2.0,3,141296,Old Vineyard,neighborhood
6814920726000,2742 Edinburg Dr,27103,Winston Salem,NC,36.058776,-80.28892,37067,SingleFamily,2018,1965,12197,2125,3.0,4,165158,British Woods,neighborhood
6824696678000,1711 Aberdeen Ter,27103,Winston Salem,NC,36.078028,-80.263329,37067,SingleFamily,2018,1969,10018,1375,1.5,3,163792,Ardmore,neighborhood
6804942855000,2835 Carrollwood Dr,27103,Winston Salem,NC,36.064168,-80.322125,37067,SingleFamily,2018,1999,23522,1248,2.0,3,149710,Atwood Acres,neighborhood
6807045754000,2830 Creekfield Way,27106,Winston Salem,NC,36.145972,-80.352874,37067,SingleFamily,2018,2015,33541,4069,5.0,4,471384,Winston-Salem,city
6845482884000,525 Lunar Ct,27101,Winston Salem,NC,36.103827,-80.204113,37067,SingleFamily,2018,1971,9583,1000,2.0,3,,City View,neighborhood
6832059402000,730 Hopewell Church Rd,27127,Winston Salem,NC,36.011557,-80.248313,37067,SingleFamily,2018,1952,442569,1629,1.0,3,176060,Winston-Salem,city
5896699842000,5305 Dust Devil Dr,27106,Winston Salem,NC,36.132298,-80.364862,37067,SingleFamily,2018,1975,21780,1520,2.0,3,178630,Winston-Salem,city
6803636770000,2816 Woodard Rd,27127,Winston Salem,NC,36.033444,-80.330261,37067,SingleFamily,2018,1950,82764,2384,2.0,4,272091,Winston-Salem,city
6817351697000,4011 Greenmead Rd,27106,Winston Salem,NC,36.148984,-80.310135,37067,SingleFamily,2018,1964,17424,2340,3.0,4,221224,Town and Country Estates,neighborhood
6815819943000,729 Elderwood Ave,27103,Winston Salem,NC,36.083949,-80.289622,37067,SingleFamily,2018,1961,12196,1904,2.0,2,181936,Knollwood Manor,neighborhood
6816122584000,3411 Sandon Pl,27104,Winston Salem,NC,36.112832,-80.316023,37067,SingleFamily,2018,1966,18730,3151,3.0,4,312104,New Forestdale,neighborhood
6805661854000,571 N Peace Haven Rd,27104,Winston Salem,NC,36.096843,-80.333251,37067,SingleFamily,2018,1970,22651,1478,2.0,2,170303,Peace Haven,neighborhood
6823203185000,1743 Woodstone Dr,27127,Winston Salem,NC,36.024277,-80.277001,37067,SingleFamily,2018,2006,10018,2381,3.0,4,206213,Winston-Salem,city
6837146418000,572 Alspaugh Dr,27105,Winston Salem,NC,36.146343,-80.24769,37067,SingleFamily,2018,1972,7840,1138,2.0,3,87027,North Hills,neighborhood
6856376817000,4364 Reidsville Rd,27101,Winston Salem,NC,36.128919,-80.172932,37067,SingleFamily,2018,1959,19166,1288,1.5,3,111152,Winston-Salem,city
6865212688000,275 Maynard South Dr,27107,Winston Salem,NC,36.084755,-80.142923,37067,SingleFamily,2018,2003,5227,1021,2.0,3,117211,Winston-Salem,city
6805165383000,5178 Laurel View Dr,27104,Winston Salem,NC,36.095393,-80.348534,37067,SingleFamily,2018,2000,16988,3037,3.0,4,335189,Mountain View,neighborhood
6815640961000,3109 Cambridge Rd,27104,Winston Salem,NC,36.092083,-80.299472,37067,SingleFamily,2018,1956,11761,1066,1.0,3,179694,Country Club,neighborhood
6838422611000,5530 Racin Dr,27105,Winston Salem,NC,36.168748,-80.239206,37067,SingleFamily,2018,2005,131115,2367,3.0,3,308259,Winston-Salem,city
6804245774000,4895 Stonington Rd,27103,Winston Salem,NC,36.06368,-80.344671,37067,SingleFamily,2018,1969,20037,2044,2.0,4,161185,Westbrook,neighborhood
6829576681000,5952 Germanton Rd,27105,Winston Salem,NC,36.207132,-80.251785,37067,SingleFamily,2018,1964,19602,925,1.0,2,26524,Winston-Salem,city
6829576681000,5952 Old Rural Hall Rd,27105,Winston Salem,NC,36.190705,-80.245877,37067,SingleFamily,2018,1937,28314,994,1.0,2,26524,Winston-Salem,city
6847877791000,325 Torey Pines Ct,27105,Winston Salem,NC,36.155781,-80.189649,37067,SingleFamily,2018,2001,11325,1678,2.0,3,155824,Huff Hills,neighborhood
6804402252000,513 Brookridge Dr,27103,Winston Salem,NC,36.051242,-80.338794,37067,SingleFamily,2018,1964,13939,975,1.0,3,121863,Salem Woods,neighborhood
5897589526000,3560 Community Church Rd,27040,Pfafftown,NC,36.156271,-80.368775,37067,SingleFamily,2018,1971,22651,1943,2.5,3,201192,Winston-Salem,city
6812252253000,3089 Woodlake Cir,27127,Winston Salem,NC,36.01047,-80.311001,37067,SingleFamily,2018,2014,174240,3340,2.5,3,413631,Winston-Salem,city
6812252253000,3089 Woodlake Cir,27127,Winston Salem,NC,36.01047,-80.311001,37067,SingleFamily,2018,2014,248727,3340,2.5,3,413631,Winston-Salem,city
6854356404000,3348 Ridgeback Dr,27107,Winston Salem,NC,36.067325,-80.17204,37067,SingleFamily,2018,2017,13939,1600,2.5,3,139113,Winston-Salem,city
6845484807000,515 Lunar Ct,27101,Winston Salem,NC,36.103905,-80.203709,37067,SingleFamily,2018,1970,18295,830,2.0,5,73175,City View,neighborhood
6823433896000,3268 Scarlet Sage Ln,27127,Winston Salem,NC,36.034507,-80.27034,37067,SingleFamily,2018,2016,9583,2712,2.5,4,197880,Winston-Salem,city
6814955126000,2630 Alderney Ln,27103,Winston Salem,NC,36.065337,-80.28736,37067,SingleFamily,2018,1958,12632,1720,2.0,3,162234,British Woods,neighborhood
5895710089000,5093 River Chase Rdg,27104,Winston Salem,NC,36.080841,-80.363544,37067,SingleFamily,2018,1996,24829,1767,2.5,3,353959,Huntcliff,neighborhood
6806934365000,3476 Sally Kirk Rd,27106,Winston Salem,NC,36.114988,-80.322191,37067,SingleFamily,2018,1991,13503,3850,4.0,4,437305,Huntscroft,neighborhood
5876926058000,209 Lakeway Dr,27127,Winston Salem,NC,35.99569,-80.263483,37057,SingleFamily,2018,1991,141570,1776,2.0,3,,Winston-Salem,city
5876926058000,209 Lakeway Dr,27127,Winston Salem,NC,35.99569,-80.263483,37057,Mobile,2018,1991,43560,1776,2.0,3,,Winston-Salem,city
6817552340000,2610 Ingle St,27106,Winston Salem,NC,36.148025,-80.303151,37067,SingleFamily,2018,1981,31363,1515,3.0,3,144238,Windsor Estates,neighborhood
6815463885000,190 Sherwood Forest Rd,27104,Winston Salem,NC,36.097309,-80.305252,37067,SingleFamily,2018,1967,27442,4048,3.5,6,574335,Country Club,neighborhood
6812836976000,4855 Lance Ridge Ln,27127,Winston Salem,NC,36.007132,-80.289267,37067,SingleFamily,2018,2001,9583,1416,2.5,3,161535,Winston-Salem,city
6818211826000,2525 Bluebird Ln,27106,Winston Salem,NC,36.165925,-80.314004,37067,SingleFamily,2018,2000,9147,1651,3.0,4,146339,Winston-Salem,city
6846718337000,3750 Old Greensboro Rd,27101,Winston Salem,NC,36.110862,-80.192248,37067,SingleFamily,2018,1956,8276,814,1.0,2,35565,City View,neighborhood
6823838890000,3025 Twin Knolls Dr,27127,Winston Salem,NC,36.034535,-80.255148,37067,SingleFamily,2018,1990,13068,1807,2.0,3,180150,Kingstree,neighborhood
6812685589000,2445 Darwick Rd,27127,Winston Salem,NC,36.019758,-80.296582,37067,SingleFamily,2018,1974,160736,1279,1.5,3,142289,Winston-Salem,city
6822650527000,3965 Overcreek Ln,27127,Winston Salem,NC,36.011821,-80.264492,37067,SingleFamily,2018,2014,4356,1049,2.0,3,135720,Winston-Salem,city
6823532543000,2337 Waverly Dell Dr,27127,Winston Salem,NC,36.033659,-80.267492,37067,SingleFamily,2018,2007,4791,2026,2.5,3,176003,Winston-Salem,city
6854772874000,120 Berwyn Ct,27107,Winston Salem,NC,36.074063,-80.159776,37067,SingleFamily,2018,2004,39204,2100,2.5,3,183453,Winston-Salem,city
5882990122000,3830 Crestwell Cove Ct,27103,Winston Salem,NC,36.055867,-80.324685,37067,SingleFamily,2018,2016,7405,2802,2.5,4,255945,Atwood Acres,neighborhood
6847656458000,4136 Sunflower Cir,27105,Winston Salem,NC,36.149641,-80.196817,37067,SingleFamily,2018,1975,19602,960,1.0,2,61454,Northampton,neighborhood
5896754387000,5000 Robinhood Rd,27106,Winston Salem,NC,36.119931,-80.362662,37067,SingleFamily,2018,1981,220413,3233,3.0,3,357174,Winston-Salem,city
5895966121000,5530 Stone Crossing Dr,27104,Winston Salem,NC,36.094748,-80.355158,37067,SingleFamily,2018,2004,14374,3500,3.5,4,366279,Winston-Salem,city
6832251035000,4880 Follansbee Rd,27127,Winston Salem,NC,36.010652,-80.24381,37067,SingleFamily,2018,1935,54014,900,1.5,2,83681,Winston-Salem,city
6838946411000,4836 Reba Dr,27105,Winston Salem,NC,36.173588,-80.22094,37067,SingleFamily,2018,1962,64904,1325,2.0,3,128777,Winston-Salem,city
6822057425000,4730 Seminole Ct,27127,Winston Salem,NC,36.011284,-80.282459,37067,SingleFamily,2018,1998,22651,1305,2.0,2,157317,Winston-Salem,city
6827662930000,4540 Indiana Ave,27106,Winston Salem,NC,36.152914,-80.266062,37067,SingleFamily,2018,1957,7840,800,1.0,4,,Winston-Salem,city
6827662930000,4540 Indiana Ave,27106,Winston Salem,NC,36.152914,-80.266062,37067,SingleFamily,2018,1957,7840,1192,2.0,4,,Winston-Salem,city
6808003097000,3405 Willow Wind Dr,27040,Pfafftown,NC,36.160563,-80.353676,37067,SingleFamily,2018,1994,16117,3665,3.5,4,346121,Lochhurst,neighborhood
6822098734000,1907 Paragon Dr,27127,Winston Salem,NC,36.02315,-80.282209,37067,SingleFamily,2018,2015,9147,1664,3.0,3,146524,Winston-Salem,city
6803251286000,2610 Chatfield Dr,27103,Winston Salem,NC,36.037586,-80.345546,37067,SingleFamily,2018,2004,9147,2904,4.0,4,241847,Edgewood Farms,neighborhood
6844005271000,1004 Nancy Ln,27107,Winston Salem,NC,36.052515,-80.215905,37067,SingleFamily,2018,1949,10890,750,1.0,4,22810,Easton,neighborhood
6847321516000,5034 Butterfield Dr,27105,Winston Salem,NC,36.141424,-80.208655,37067,SingleFamily,2018,1955,12632,1548,1.0,3,,Old Carver,neighborhood
5896495047000,2274 Olivet Church Rd,27106,Winston Salem,NC,36.130131,-80.372994,37067,SingleFamily,2018,1988,27007,1980,2.5,4,234306,Winston-Salem,city
6823550270000,1487 Old Sage Ct,27127,Winston Salem,NC,36.038229,-80.268108,37067,SingleFamily,2018,2015,6098,1437,3.0,3,161239,Winston-Salem,city
6854593097000,3675 Thornaby Cir,27107,Winston Salem,NC,36.077361,-80.166119,37067,SingleFamily,2018,2004,7405,1330,2.0,3,139998,Winston-Salem,city
6844008182000,1017 Betty Dr,27107,Winston Salem,NC,36.05227,-80.21487,37067,SingleFamily,2018,1949,7405,1340,1.0,4,32061,Easton,neighborhood
5897339022000,2466 Vincent Rd,27106,Winston Salem,NC,36.14099,-80.375278,37067,SingleFamily,2018,1976,21780,2052,2.5,4,231757,Winston-Salem,city
6823846148000,3001 Twin Knolls Dr,27127,Winston Salem,NC,36.035566,-80.256008,37067,SingleFamily,2018,1988,12632,2142,2.0,3,182710,Kingstree,neighborhood
6838504592000,5309 Cox Blvd,27105,Winston Salem,NC,36.163048,-80.2348,37067,SingleFamily,2018,1937,15246,896,1.0,2,36598,Mineral Springs,neighborhood
6886683239000,140 Southoak Ct,27107,Winston Salem,NC,36.041254,-80.202096,37067,SingleFamily,2018,1996,16988,1424,2.0,3,153092,Winston-Salem,city
6822090663000,4382 Paula Dr,27127,Winston Salem,NC,36.02277,-80.284837,37067,SingleFamily,2018,2016,11325,1716,3.0,4,170000,Winston-Salem,city
6822294521000,1750 Paragon Dr,27127,Winston Salem,NC,36.022525,-80.276847,37067,SingleFamily,2018,1976,20037,2004,2.0,3,176394,Winston-Salem,city
5893780610000,404 Donny Brook Ct,27103,Winston Salem,NC,36.046549,-80.363199,37067,SingleFamily,2018,1995,16988,2330,2.5,3,252785,McGregor Downs,neighborhood
6846269004000,2549 Rosemary Dr,27105,Winston Salem,NC,36.12359,-80.209059,37067,SingleFamily,2018,1959,13068,1208,2.0,3,58787,Castle Heights,neighborhood
6833578016000,3717 Tech Ave,27107,Winston Salem,NC,36.043733,-80.231905,37067,SingleFamily,2018,1948,12632,1312,2.0,4,73648,Weston,neighborhood
6803660824000,1841 Hunters Forest Dr,27103,Winston Salem,NC,36.042063,-80.332636,37067,SingleFamily,2018,1988,21344,2990,3.0,4,286852,Huntington Woods,neighborhood
6804735135000,2865 Atwood Rd,27103,Winston Salem,NC,36.059406,-80.327818,37067,SingleFamily,2018,1998,13939,1711,2.0,3,202564,Atwood Acres,neighborhood
6816222428000,3351 Paddington Ln,27106,Winston Salem,NC,36.11268,-80.312804,37067,SingleFamily,2018,1959,21344,1840,2.0,3,262485,Robinhood Trails,neighborhood
6806198719000,4220 Saddlewood Forest Dr,27106,Winston Salem,NC,36.132381,-80.348464,37067,SingleFamily,2018,1994,30927,4071,3.0,4,406965,Brownstone,neighborhood
6845882151000,204 Miami Ave,27101,Winston Salem,NC,36.101935,-80.190654,37067,SingleFamily,2018,1958,15246,1014,1.0,2,56231,Winston-Salem,city
6848140269000,4511 White Rock Rd,27105,Winston Salem,NC,36.173604,-80.216103,37067,SingleFamily,2018,1988,25700,1774,3.0,3,173087,Winston-Salem,city
6854593370000,3619 Thornaby Cir,27107,Winston Salem,NC,36.077979,-80.166213,37067,SingleFamily,2018,2003,5662,1182,2.0,3,121275,Winston-Salem,city
6816281777000,1424 Ridgemere Ln,27106,Winston Salem,NC,36.129946,-80.313242,37067,SingleFamily,2018,1997,13503,3230,4.0,4,451645,Ridgemere,neighborhood
6807731304000,310 Fox Lake Ct,27106,Winston Salem,NC,36.14234,-80.330615,37067,SingleFamily,2018,2003,11761,3300,4.0,4,522524,Winston-Salem,city
6817411282000,610 Woodbriar Ct,27106,Winston Salem,NC,36.136756,-80.306553,37067,SingleFamily,2018,2002,10454,1692,2.5,3,241214,Winston-Salem,city
6824694330000,1049 Gales Ave,27103,Winston Salem,NC,36.076993,-80.264094,37067,SingleFamily,2018,1972,16552,1229,1.1,3,145152,Ardmore,neighborhood
6818413401000,5033 Hutchins St,27106,Winston Salem,NC,36.164774,-80.30662,37067,SingleFamily,2018,1985,14374,1630,1.5,3,140493,Poman Acres,neighborhood
6822657193000,4023 Parkside Meadow Ct,27127,Winston Salem,NC,36.010657,-80.261932,37067,SingleFamily,2018,2015,8712,1800,2.0,3,180543,Winston-Salem,city
5893327461000,4470 Greenfield Way Dr,27103,Winston Salem,NC,36.029413,-80.373892,37067,SingleFamily,2018,1997,10454,2003,2.5,4,228521,Clemmons,city
6819600926000,892 Oakhaven Forest Dr,27105,Winston Salem,NC,36.191054,-80.301188,37067,SingleFamily,2018,1989,21780,1976,2.5,3,195644,Swink Acres,neighborhood
6816374231000,1250 Millerwood Dr,27106,Winston Salem,NC,36.125738,-80.308917,37067,SingleFamily,2018,1978,13503,1585,1.5,3,145717,West Polo Road,neighborhood
6808723294000,4826 Morningside Dr,27106,Winston Salem,NC,36.166814,-80.330075,37067,SingleFamily,2018,1935,46690,2177,2.0,4,146319,Winston-Salem,city
6823028568000,1680 Fairview Blvd,27127,Winston Salem,NC,36.030847,-80.28222,37067,SingleFamily,2018,1956,54450,1651,2.0,3,171307,Janita Lakes Estates,neighborhood
6806917217000,1265 N Peace Haven Rd,27104,Winston Salem,NC,36.109347,-80.321257,37067,SingleFamily,2018,1950,12196,2024,2.0,3,206503,Forestdale,neighborhood
6805467617000,508 Barrett Rd,27104,Winston Salem,NC,36.096471,-80.33799,37067,SingleFamily,2018,1995,13939,3625,3.5,4,370975,Knob View,neighborhood
6805683025000,702 Woodcrest Dr,27104,Winston Salem,NC,36.100366,-80.332627,37067,SingleFamily,2018,2012,13939,1637,2.0,3,234634,Winston-Salem,city
6824847148000,1009 Anne Ave,27127,Winston Salem,NC,36.06303,-80.256099,37067,SingleFamily,2018,1956,10890,1200,1.5,3,93202,Konnoak,neighborhood
6808739319000,4949 Shattalon Dr,27106,Winston Salem,NC,36.169699,-80.328208,37067,SingleFamily,2018,1960,80586,1260,1.0,3,125740,Winston-Salem,city
5896953303000,4857 Robinhood Rd,27106,Winston salem,NC,36.119931,-80.356744,37067,SingleFamily,2016,1950,87120,1250,1.0,2,,Winston-Salem,city
5896953303000,4857 Robinhood Rd,27106,Winston salem,NC,36.119931,-80.356744,37067,SingleFamily,2016,1950,55321,1250,1.0,2,,Winston-Salem,city
5896953303000,4857 Robinhood Rd,27106,Winston Salem,NC,36.119931,-80.356744,37067,SingleFamily,2018,1950,91040,1250,1.0,2,,Winston-Salem,city
5896264962000,5828 Birchdale Dr,27106,Winston Salem,NC,36.123863,-80.379878,37067,Mobile,2018,1999,66211,1248,2.0,3,116538,Winston-Salem,city
6806826507000,3433 Jameson Ln,27106,Winston Salem,NC,36.112822,-80.325091,37067,SingleFamily,2018,1989,20037,3588,4.5,4,442097,Huntscroft,neighborhood
6818503017000,4930 Pinewood Dr,27106,Winston Salem,NC,36.161108,-80.303144,37067,SingleFamily,2018,2003,45738,1917,2.0,3,183847,Poman Acres,neighborhood
6854073000000,2343 Cole Rd,27107,Winston Salem,NC,36.071496,-80.183293,37067,SingleFamily,2018,1964,6969,405,1.0,1,30893,Stewart Gardens,neighborhood
6803292144000,1315 Camden Place Ct,27103,Winston Salem,NC,36.048228,-80.345528,37067,SingleFamily,2018,2002,7405,1490,3.0,3,173317,Winston-Salem,city
6807278182000,4463 Greystone Place Ct,27106,Winston Salem,NC,36.152601,-80.345104,37067,SingleFamily,2018,2005,11325,2824,4.5,4,414020,Chadwyck,neighborhood
6827394810000,208 Blaze St,27105,Winston Salem,NC,36.160685,-80.275683,37067,SingleFamily,2018,1970,11761,900,1.5,3,62351,Cherryview,neighborhood
6845205140000,1340 Pleasant St,27107,Winston Salem,NC,36.079745,-80.209663,37067,SingleFamily,2018,1970,10890,1056,1.5,3,56276,Morningside Manor,neighborhood
6833024118000,4464 Fernbrook Dr,27127,Winston Salem,NC,36.029905,-80.249646,37067,SingleFamily,2018,1962,38768,2925,3.0,3,,South View,neighborhood
6833024118000,4464 Fernbrook Dr,27127,Winston Salem,NC,36.029905,-80.249646,37067,SingleFamily,2018,1962,51836,2925,3.0,3,,South View,neighborhood
6823477284000,2095 Ardmore Ct,27127,Winston Salem,NC,36.043839,-80.269185,37067,SingleFamily,2018,2002,39204,1920,2.0,3,163563,Winston-Salem,city
6804531021000,111 Worthdale Dr,27103,Winston Salem,NC,36.058943,-80.335964,37067,SingleFamily,2018,1968,16117,1510,2.0,3,142940,Salem Woods,neighborhood
6816017660000,870 Chester Rd,27104,Winston Salem,NC,36.110233,-80.317703,37067,SingleFamily,2018,1956,22215,2515,3.0,3,224979,Forestdale,neighborhood
6847012920000,3702 Whitfield Ct,27105,Winston Salem,NC,36.139532,-80.218446,37067,SingleFamily,2018,1968,12196,1584,2.0,3,112725,Northwoods Estate,neighborhood
6814392643000,3331 Old Vineyard Rd,27103,Winston Salem,NC,36.077436,-80.308786,37067,SingleFamily,2018,1946,13068,2376,3.0,3,195488,Old Vineyard,neighborhood
6823975033000,3701 Cora Dr,27127,Winston Salem,NC,36.043369,-80.253144,37067,SingleFamily,2018,1968,20473,1479,2.0,3,160929,Union Ridge,neighborhood
6822985129000,5025 Bridgton Run Ln,27127,Winston Salem,NC,36.019135,-80.252787,37067,SingleFamily,2018,2001,9147,1524,2.0,3,159630,Wilshire Estates,neighborhood
6822631903000,3010 Canterbury Park Ct,27127,Winston Salem,NC,36.007313,-80.264168,37067,SingleFamily,2018,2003,10018,1887,2.5,4,182326,Winston-Salem,city
6804165868000,4831 Kester Mill Rd,27103,Winston Salem,NC,36.069403,-80.348152,37067,SingleFamily,2018,1982,27878,1040,1.0,2,128600,Winston-Salem,city
6856160666000,3928 Silver Chalice Dr,27101,Winston Salem,NC,36.125451,-80.181482,37067,SingleFamily,2018,1988,20473,1544,2.0,3,144986,Winston-Salem,city
5893431975000,6242 Blue Bonnet Ln,27103,Winston Salem,NC,36.03373,-80.372583,37067,SingleFamily,2018,1971,20908,1740,2.0,4,188649,Clemmons,city
6845386963000,670 Chandler St,27101,Winston Salem,NC,36.104058,-80.206249,37067,SingleFamily,2018,1971,11325,1000,1.5,3,67790,City View,neighborhood
6847459965000,4490 Oak Ridge Dr,27105,Winston Salem,NC,36.150876,-80.202528,37067,SingleFamily,2018,1991,12196,1164,2.0,3,72274,Northampton,neighborhood
6843878812000,3100 Glen Laurel Ln,27107,Winston Salem,NC,36.046211,-80.187947,37067,SingleFamily,2018,2003,12196,1392,3.0,3,144079,Winston-Salem,city
6826234562000,964 Arbor Rd,27104,Winston Salem,NC,36.115959,-80.278206,37067,SingleFamily,2018,1961,27442,3220,3.0,4,450215,Buena Vista,neighborhood
6817144963000,4176 Greenmead Rd,27106,Winston Salem,NC,36.146884,-80.315956,37067,SingleFamily,2018,1973,16988,2456,3.0,4,273907,Town and Country Estates,neighborhood
6817881631000,5092 Brian Center Ln,27106,Winston Salem,NC,36.157236,-80.293509,37067,SingleFamily,2018,2008,16117,1699,2.0,3,167627,Winston-Salem,city
6847645372000,5301 Oak Ridge Pl,27105,Winston Salem,NC,36.146386,-80.196991,37067,SingleFamily,2018,1971,11325,960,1.5,3,69578,Northampton,neighborhood
5896816592000,850 Timothy Ln,27106,Winston Salem,NC,36.109562,-80.358512,37067,SingleFamily,2018,1974,40075,2878,3.0,3,303827,Winston-Salem,city
6854585277000,3790 Thornaby Cir,27107,Winston Salem,NC,36.075165,-80.165484,37067,SingleFamily,2018,2003,5662,1800,3.0,4,158211,Winston-Salem,city
6833802558000,4086 Meredith Woods Ln,27107,Winston Salem,NC,36.025997,-80.22335,37067,SingleFamily,2018,2019,13939,1316,2.0,3,172318,Winston-Salem,city
6822604996000,490 Fishel Rd,27127,Winston Salem,NC,35.999084,-80.262683,37067,SingleFamily,2018,1959,42688,1232,1.0,3,127017,Winston-Salem,city
6845211723000,1131 Pleasant St,27107,Winston Salem,NC,36.084234,-80.211149,37067,SingleFamily,2018,1962,14810,1392,1.5,3,62442,Morningside Manor,neighborhood
6847530794000,4210 Oak Ridge Dr,27105,Winston Salem,NC,36.144752,-80.201996,37067,SingleFamily,2018,1971,10890,1050,1.5,3,87325,Northampton,neighborhood
6817622084000,2659 Fairlawn Dr,27106,Winston Salem,NC,36.139134,-80.299474,37067,SingleFamily,2018,1957,20037,1148,1.5,2,125106,Town and Country Estates,neighborhood
6834211785000,3033 Marmion St,27127,Winston Salem,NC,36.056448,-80.244369,37067,SingleFamily,2018,1951,10890,1419,1.0,2,92864,Konnoak,neighborhood
6829332049000,5725 Stanleyville Dr,27105,Winston Salem,NC,36.19715,-80.276814,37067,SingleFamily,2018,1960,20037,1460,1.5,3,136084,Clayton Acres,neighborhood
6805352343000,130 Stonebrook Ct,27104,Winston Salem,NC,36.092689,-80.342914,37067,SingleFamily,2018,1996,17859,2534,2.5,4,299498,Winston-Salem,city
6875855517000,1270 Salem Lake Rd,27107,Winston Salem,NC,36.08226,-80.191082,37067,SingleFamily,2018,1977,10890,1334,2.0,3,132392,Reynolda Forest,neighborhood
6832090993000,1303 Lighthouse Ln,27127,Winston Salem,NC,36.02396,-80.250937,37067,SingleFamily,2018,2005,9583,1347,2.0,3,156421,Winston-Salem,city
6813864193000,3801 Ebert Rd,27127,Winston Salem,NC,36.040544,-80.290419,37067,SingleFamily,2018,1956,17424,1250,2.0,3,133343,Janita Lakes Estates,neighborhood
6832138319000,310 Fishel Rd,27127,Winston Salem,NC,36.006035,-80.244856,37067,SingleFamily,2018,1964,92782,1707,1.5,3,145441,Winston-Salem,city
6816100367000,1304 Saxon Ln,27104,Winston Salem,NC,36.106806,-80.316651,37067,SingleFamily,2018,1957,26136,2179,3.5,3,295157,Old Sherwood Forest,neighborhood
5895935311000,5225 Country Club Rd,27104,Winston Salem,NC,36.08705,-80.35543,37067,SingleFamily,2018,1941,37897,2169,3.0,4,204467,Winston-Salem,city
6854566243000,3600 High Point Rd,27107,Winston Salem,NC,36.069557,-80.165179,37067,SingleFamily,2018,1969,115434,2200,2.0,3,249685,Winston-Salem,city
6807105891000,4260 Saddlewood Forest Dr,27106,Winston Salem,NC,36.135183,-80.349184,37067,SingleFamily,2018,1992,23086,3161,3.5,4,373212,Brownstone,neighborhood
5895712220000,5101 River Chase Rdg,27104,Winston Salem,NC,36.081148,-80.363043,37067,SingleFamily,2018,1983,24393,2280,2.0,3,289186,Huntcliff,neighborhood
6855119153000,229 Nicholson Rd,27107,Winston Salem,NC,36.083177,-80.177351,37067,SingleFamily,2018,1990,213444,1100,2.0,2,,Parkview,neighborhood
6807736959000,3921 Burning Tree Ln,27106,Winston Salem,NC,36.144142,-80.32882,37067,SingleFamily,2018,2003,24394,4734,5.0,5,637340,Forsyth Forest,neighborhood
6827492997000,108 Blaze St,27105,Winston Salem,NC,36.161208,-80.272727,37067,SingleFamily,2018,1970,8712,962,1.5,3,61804,Cherryview,neighborhood
6807441632000,3950 Rookwood Ln,27106,Winston Salem,NC,36.145789,-80.340769,37067,SingleFamily,2018,1963,27878,1740,2.0,3,184915,Shattalon Lake Estates,neighborhood
6812772209000,2360 Darwick Rd,27127,Winston Salem,NC,36.01623,-80.294408,37067,SingleFamily,2018,1936,28749,1140,1.0,2,97678,Winston-Salem,city
6804400007000,516 Brookridge Dr,27103,Winston Salem,NC,36.050837,-80.33963,37067,SingleFamily,2018,1964,15681,1208,1.5,3,123734,Salem Woods,neighborhood
6833682013000,639 Clemson Cir,27107,Winston Salem,NC,36.046381,-80.230592,37067,SingleFamily,2018,1948,9147,900,1.0,3,54360,Weston,neighborhood
6804537750000,101 Capistrano Dr,27103,Winston Salem,NC,36.060886,-80.33385,37067,SingleFamily,2018,1967,13068,1542,2.0,3,144089,Salem Woods,neighborhood
6816135224000,3403 Scarsborough Dr,27104,Winston Salem,NC,36.114751,-80.315216,37067,SingleFamily,2018,1978,16117,3136,3.0,5,276157,New Forestdale,neighborhood
6854949593000,3949 Glenn Hi Rd,27107,Winston Salem,NC,36.06502,-80.1504,37067,SingleFamily,2018,1934,21344,1500,2.0,2,102029,Winston-Salem,city
6854949593000,3949 Glenn Hi Rd,27107,Winston Salem,NC,36.06502,-80.1504,37067,SingleFamily,2018,1934,12632,1500,2.0,2,102029,Winston-Salem,city
6855529847000,163 Hartley St,27107,Winston Salem,NC,36.087815,-80.164447,37067,SingleFamily,2018,1953,16117,1127,1.0,3,97142,Wintergreen,neighborhood
6807099575000,4348 Lochurst Dr,27040,Pfafftown,NC,36.159157,-80.351705,37067,SingleFamily,2018,2014,9147,2603,3.0,4,231507,Winston-Salem,city
6828914656000,5328 Northridge Dr,27105,Winston Salem,NC,36.167283,-80.256621,37067,SingleFamily,2018,2017,6534,1392,2.5,3,137738,Winston-Salem,city
6828914656000,5328 Northridge Dr,27105,Winston Salem,NC,36.16678,-80.25631,,SingleFamily,2018,2018,6534,1396,3.0,3,137738,Winston-Salem,city
6824007798000,1905 Penny Ln,27127,Winston Salem,NC,36.053437,-80.282897,37067,SingleFamily,2018,1997,16552,1757,2.0,3,174252,Winston-Salem,city
6815650469000,311 Lawndale Dr,27104,Winston Salem,NC,36.093619,-80.299534,37067,SingleFamily,2018,1987,10890,1809,2.0,3,242371,Country Club,neighborhood
6804399991000,4753 Eastwin Dr,27104,Winston Salem,NC,36.077858,-80.340106,37067,SingleFamily,2018,1955,29620,1076,1.0,3,98851,South Peace Haven,neighborhood
5894815466000,713 Bluffridge Trl,27103,Winston Salem,NC,36.054484,-80.358077,37067,SingleFamily,2018,1991,11761,1625,2.5,3,195698,McGregor Park,neighborhood
6822510441000,3179 Old Salisbury Rd,27127,Winston Salem,NC,36.000412,-80.267633,37067,SingleFamily,2018,1956,71002,1374,1.0,3,136200,Winston-Salem,city
6819944317000,5824 Nylon Dr,27105,Winston Salem,NC,36.200593,-80.289855,37067,SingleFamily,2018,1964,24829,2528,2.5,3,,Summer Trace,neighborhood
6814990169000,2761 Westridge Rd,27103,Winston Salem,NC,36.076459,-80.289078,37067,SingleFamily,2018,1956,10890,1296,1.5,3,147038,Ardmore,neighborhood
6823893532000,1625 Ethel Dr,27127,Winston Salem,NC,36.050188,-80.257307,37067,SingleFamily,2018,2000,23522,1160,2.0,3,126452,Konnoak,neighborhood
6855814501000,3730 Field Sedge Dr,27107,Winston Salem,NC,36.084144,-80.15605,37067,SingleFamily,2018,2001,10890,1371,2.5,3,169374,Winston-Salem,city
6815552018000,253 Anita Dr,27104,Winston Salem,NC,36.092468,-80.302384,37067,SingleFamily,2018,1953,16117,1248,1.0,3,174085,Country Club,neighborhood
6808829607000,4300 Morningside Dr,27106,Winston Salem,NC,36.16803,-80.324955,37067,SingleFamily,2018,1968,23958,1688,1.5,3,142495,Georgetown,neighborhood
6863076678000,2036 Union Cross Rd,27107,Winston Salem,NC,36.046254,-80.147841,37067,SingleFamily,2018,1963,21780,1555,1.5,3,136710,Winston-Salem,city
6807083469000,4008 Highland Creek Ct,27040,Winston Salem,NC,36.156257,-80.35369,37067,SingleFamily,2018,2016,12196,3994,3.5,5,327124,Winston-Salem,city
6854083080000,2846 E Sprague St,27107,Winston Salem,NC,36.074214,-80.183165,37067,SingleFamily,2018,1938,33105,2334,2.0,3,132863,Parkview,neighborhood
6846390569000,3524 Carver School Rd,27105,Winston Salem,NC,36.133316,-80.208695,37067,SingleFamily,2018,2004,12632,1476,3.0,3,126792,Prospect Park,neighborhood
6855807348000,234 Water Lily Cir,27107,Winston Salem,NC,36.081105,-80.15487,37067,SingleFamily,2018,2007,9583,1864,2.5,4,181749,Winston-Salem,city
5893397031000,830 Cameron Village Dr,27103,Winston Salem,NC,36.047554,-80.374299,37067,SingleFamily,2018,2006,9147,3070,3.5,4,328119,Clemmons,city
6815439771000,428 Anita Dr,27104,Winston Salem,NC,36.088694,-80.30312,37067,SingleFamily,2018,1962,15681,2169,2.0,3,275120,Country Club,neighborhood
6818523684000,5383 Liberty Hall Cir,27106,Winston Salem,NC,36.168224,-80.303,37067,SingleFamily,2018,2014,6969,1508,2.0,3,149185,Poman Acres,neighborhood
6808729751000,4930 Shattalon Dr,27106,Winston Salem,NC,36.16814,-80.328167,37067,SingleFamily,2018,1968,21780,1125,1.5,3,105471,Georgetown,neighborhood
6812512691000,3237 Winding Branch Trl,27127,Winston Salem,NC,36.000505,-80.300805,37067,SingleFamily,2018,2016,11325,1680,2.0,3,221464,Winston-Salem,city
6807493932000,4016 Yarbrough Ave,27106,Winston Salem,NC,36.160213,-80.340082,37067,SingleFamily,2018,1962,66646,1867,2.0,3,156676,Cedar Forest,neighborhood
6804332042000,1020 Shenandoah Ct,27103,Winston Salem,NC,36.058912,-80.342325,37067,SingleFamily,2018,1975,12196,1484,2.0,3,141181,Salem Woods,neighborhood
6836737598000,1820 Lafayette St,27105,Winston Salem,NC,36.116643,-80.226318,37067,SingleFamily,2018,1995,15681,1144,1.5,3,88269,North East Winston,neighborhood
6808789340000,2080 Mallard Lakes Dr,27106,Winston Salem,NC,36.183499,-80.328483,37067,SingleFamily,2018,1973,37026,2474,3.0,3,193001,Mallard Lakes,neighborhood
6807965992000,4465 Greenbrier Farm Rd,27106,Winston Salem,NC,36.152253,-80.322384,37067,SingleFamily,2018,1997,16117,2682,4.0,4,384835,Greenbrier Farms,neighborhood
6833660805000,3730 Tech Ave,27107,Winston Salem,NC,36.043151,-80.23119,37067,SingleFamily,2018,1949,23086,1056,1.0,2,37517,Weston,neighborhood
6847642240000,5229 Larkspur Dr,27105,Winston Salem,NC,36.146088,-80.198143,37067,SingleFamily,2018,1970,10454,1094,1.5,3,73723,Northampton,neighborhood
6813832856000,4003 Sherman Dr,27127,Winston Salem,NC,36.033995,-80.290948,37067,SingleFamily,2018,1959,151588,1400,1.5,5,166917,Janita Lakes Estates,neighborhood
6805002798000,201 S Peace Haven Rd,27104,Winston Salem,NC,36.080116,-80.352624,37067,SingleFamily,2018,1952,18730,945,1.0,3,115887,South Peace Haven,neighborhood
6833041698000,4073 Clinard Ave,27127,Winston Salem,NC,36.036998,-80.250819,37067,SingleFamily,2018,2001,16988,2202,2.0,3,194158,Kingstree,neighborhood
6846467751000,3741 Spaulding Dr,27105,Winston Salem,NC,36.125442,-80.20284,37067,SingleFamily,2018,1961,28314,1288,1.5,4,125998,Spaulding Drive,neighborhood
6815928444000,526 Knollwood St,27103,Winston Salem,NC,36.08541,-80.286574,37067,SingleFamily,2018,1950,10018,1092,1.0,2,163600,Knollwood Manor,neighborhood
6833573634000,3619 Cornell Blvd,27107,Winston Salem,NC,36.045308,-80.233549,37067,SingleFamily,2018,1948,8276,960,1.0,3,53015,Weston,neighborhood
6827854643000,80 Motor Rd,27105,Winston Salem,NC,36.149194,-80.25856,37067,SingleFamily,2018,1938,32234,1307,1.0,3,74789,Winston-Salem,city
6855917316000,3891 Williamston Park Ct,27107,Winston Salem,NC,36.083808,-80.151612,37067,SingleFamily,2018,2011,6969,2231,2.5,4,193078,Winston-Salem,city
6813580875000,3078 Zacharys Keep Ct,27103,Winston Salem,NC,36.04791,-80.302137,37067,SingleFamily,2018,2006,11325,3076,2.5,4,242173,Winston-Salem,city
6847314334000,3920 Glen Oak Dr,27105,Winston Salem,NC,36.138139,-80.207565,37067,SingleFamily,2018,1951,22215,2146,2.5,4,134137,Monticello Park,neighborhood
6854095712000,2947 Reynolds Park Rd,27107,Winston Salem,NC,36.078985,-80.182688,37067,SingleFamily,2018,1955,22651,1188,2.0,3,114549,Salem Gardens,neighborhood
6804459042000,952 Benjamins Way,27103,Winston Salem,NC,36.064488,-80.336645,37067,SingleFamily,2018,2005,9583,1372,2.5,3,151554,Salem Woods,neighborhood
