REID,street,zipcode,city,state,latitude,longitude,FIPScounty,useCode,taxAssessmentYear,yearBuilt,lotSizeSqFt,finishedSqFt,bathrooms,bedrooms,zestimate,name,type
6844116810000,1120 Leona St,27107,Winston Salem,NC,36.056913,-80.212531,37067,SingleFamily,2018,1930,21344,1277,1.0,2,42704,Easton,neighborhood
6835029621000,613 Laurel St,27101,Winston Salem,NC,36.08622,-80.249076,37067,SingleFamily,2018,1942,4791,1109,1.0,3,117950,West Salem,neighborhood
6836241248000,2326 Greenway Ave,27105,Winston Salem,NC,36.11834,-80.245478,37067,SingleFamily,2018,1928,19602,1440,1.0,2,53220,Greenway,neighborhood
6835107887000,913 Mulberry St,27101,Winston Salem,NC,36.081461,-80.246011,37067,SingleFamily,2018,1956,24829,974,1.0,2,117903,West Salem,neighborhood
6837467095000,4384 Ogburn Ave,27105,Winston Salem,NC,36.150764,-80.23697,37067,SingleFamily,2018,1928,19166,1020,1.0,2,16797,Ogburn Station,neighborhood
6844674192000,2115 E Sprague St,27107,Winston Salem,NC,36.071641,-80.196158,37067,SingleFamily,2018,1945,6534,954,1.0,3,40078,Flat Rock,neighborhood
6834068053000,712 W Devonshire St,27127,Winston Salem,NC,36.068159,-80.249016,37067,SingleFamily,2018,1965,9583,672,1.0,2,48124,Washington Park,neighborhood
6825902724000,924 Hutton St,27101,Winston Salem,NC,36.081045,-80.254735,37067,SingleFamily,2018,1920,7405,960,2.0,2,107902,West Salem,neighborhood
6837438198000,551 Efird St,27105,Winston Salem,NC,36.142878,-80.23652,37067,SingleFamily,2018,1936,11761,1040,1.0,2,38507,Ogburn Station,neighborhood
6825624303000,1712 Elizabeth Ave,27103,Winston Salem,NC,36.085326,-80.264361,37067,SingleFamily,2018,1922,8100,2000,2.5,3,269411,Ardmore,neighborhood
6825112550000,718 Magnolia St,27103,Winston Salem,NC,36.082863,-80.28175,37067,SingleFamily,2018,1948,13068,1180,1.0,3,187721,Ardmore,neighborhood
6834759454000,2414 Dacian St,27107,Winston Salem,NC,36.066801,-80.224999,37067,SingleFamily,2018,1937,4791,1006,1.0,3,32291,Belview,neighborhood
6837680631000,978 Motor Rd,27105,Winston Salem,NC,36.157838,-80.232882,37067,SingleFamily,2018,1957,22215,1104,1.0,3,64907,Mineral Springs,neighborhood
6825411011000,805 S Hawthorne Rd,27103,Winston Salem,NC,36.081635,-80.272088,37067,SingleFamily,2018,1941,16117,2336,2.0,4,380208,Ardmore,neighborhood
6825305688000,913 S Hawthorne Rd,27103,Winston Salem,NC,36.08069,-80.273839,37067,SingleFamily,2018,1925,9147,2228,2.5,4,287054,Ardmore,neighborhood
6834468781000,201 E Sprague St,27127,Winston Salem,NC,36.070229,-80.235467,37067,SingleFamily,2018,1915,6098,904,1.0,2,38836,Sunnyside,neighborhood
6825101416000,2468 Maplewood Ave,27103,Winston Salem,NC,36.080011,-80.282156,37067,SingleFamily,2018,1938,10454,1334,1.0,2,247140,Ardmore,neighborhood
6834321884000,2822 Edwards St,27127,Winston Salem,NC,36.059489,-80.241028,37067,SingleFamily,2018,1950,10454,768,1.0,2,46059,South Park,neighborhood
6835976128000,1961 Maryland Ave,27101,Winston Salem,NC,36.099118,-80.219827,37067,SingleFamily,2018,1962,6969,900,1.0,2,31400,Skyland,neighborhood
6827849622000,4235 Indiana Ave,27105,Winston Salem,NC,36.146606,-80.256787,37067,SingleFamily,2018,1948,37461,1208,2.0,3,73817,Winston-Salem,city
6834551553000,2447 Lomond St,27127,Winston Salem,NC,36.066965,-80.234481,37067,SingleFamily,2018,1924,6969,952,1.0,2,38986,Sunnyside,neighborhood
6837142488000,320 Forest Hill Ave,27105,Winston Salem,NC,36.14633,-80.248818,37067,SingleFamily,2018,1931,8712,1882,2.0,3,19435,Forest Hills,neighborhood
6824180855000,2427 Hoyt St,27103,Winston Salem,NC,36.0756,-80.282318,37067,SingleFamily,2018,1951,7840,960,1.0,3,124376,Ardmore,neighborhood
6833896606000,3623 Lambeth St,27107,Winston Salem,NC,36.050864,-80.22255,37067,SingleFamily,2018,1926,9583,1000,1.0,3,29280,Easton,neighborhood
6827133050000,175 Idlewilde Dr,27106,Winston Salem,NC,36.141916,-80.282428,37067,SingleFamily,2018,1938,45738,2122,3.0,4,210927,Winston-Salem,city
6826128174000,801 Roslyn Rd,27104,Winston Salem,NC,36.112013,-80.280143,37067,SingleFamily,2018,1947,19602,2821,3.0,4,606521,Buena Vista,neighborhood
6825309984000,819 S Hawthorne Rd,27103,Winston Salem,NC,36.081388,-80.272494,37067,SingleFamily,2018,1925,12632,1916,2.0,3,308908,Ardmore,neighborhood
6834453659000,2433 Stockton St,27127,Winston Salem,NC,36.067357,-80.23718,37067,SingleFamily,2018,1950,7405,780,1.0,3,52292,Sunnyside,neighborhood
6825562357000,1622 Hyde Ave,27104,Winston Salem,NC,36.09638,-80.268441,37067,SingleFamily,2018,1925,8712,2370,3.0,4,323169,West Highlands,neighborhood
6845699982000,401 Ross St,27101,Winston Salem,NC,36.106864,-80.195165,37067,SingleFamily,2018,1941,17424,776,1.0,2,21402,City View,neighborhood
6817914862000,359 Friendship Cir,27106,Winston Salem,NC,36.138626,-80.288638,37067,SingleFamily,2018,1956,21780,1446,1.5,3,170895,Winston-Salem,city
6833296890000,3309 Konnoak Dr,27127,Winston Salem,NC,36.051112,-80.242552,37067,SingleFamily,2018,1951,12196,1344,1.0,2,99800,Konnoak,neighborhood
6837424650000,507 Peden St,27105,Winston Salem,NC,36.14127,-80.237975,37067,SingleFamily,2018,1925,11325,1406,1.0,3,41823,Ogburn Station,neighborhood
6834947355000,931 Glencoe St,27107,Winston Salem,NC,36.063834,-80.218865,37067,SingleFamily,2018,1954,17859,1566,1.0,3,79359,Belview,neighborhood
6825192769000,2420 Buena Vista Rd,27104,Winston Salem,NC,36.105623,-80.282079,37067,SingleFamily,2018,1928,22651,3871,6.0,5,881706,Buena Vista,neighborhood
6836828522000,1422 N Cameron Ave,27105,Winston Salem,NC,36.113772,-80.222782,37067,SingleFamily,2018,1940,4356,943,1.0,3,29761,North East Winston,neighborhood
6826512344000,1700 Meadowbrook Dr,27104,Winston Salem,NC,36.110039,-80.268657,37067,SingleFamily,2018,1983,9147,1080,2.0,2,185594,Buena Vista,neighborhood
6826735705000,921 Roosevelt St,27105,Winston Salem,NC,36.11673,-80.261149,37067,SingleFamily,2018,1954,6969,1188,1.0,3,42281,Boston Thurmon,neighborhood
6826708871000,1112 Shrub St,27105,Winston Salem,NC,36.108666,-80.259778,37067,SingleFamily,2018,1914,15246,788,1.0,2,34217,Boston Thurmon,neighborhood
6826826718000,1440 Harrison Ave,27105,Winston Salem,NC,36.114121,-80.257329,37067,SingleFamily,2018,1961,6098,1008,1.0,3,70430,Boston Thurmon,neighborhood
6835115794000,740 S Broad St,27101,Winston Salem,NC,36.083891,-80.2468,37067,SingleFamily,2018,1949,6969,1189,1.0,3,99429,West Salem,neighborhood
6836356080000,2329 N Glenn Ave,27105,Winston Salem,NC,36.120392,-80.240269,37067,SingleFamily,2018,1937,8276,996,1.0,2,46673,North Winston,neighborhood
6825197572000,2314 Buena Vista Rd,27104,Winston Salem,NC,36.104877,-80.280397,37067,SingleFamily,2018,1925,24829,1848,2.0,3,403985,Buena Vista,neighborhood
6826115699000,770 Roslyn Rd,27104,Winston Salem,NC,36.110861,-80.281059,37067,SingleFamily,2018,1950,17100,4250,4.5,5,744373,Buena Vista,neighborhood
6836159605000,2502 NW Druid Hills Dr,27105,Winston Salem,NC,36.122117,-80.246308,37067,SingleFamily,2018,1940,6969,1399,1.0,3,50882,Greenway,neighborhood
6844195442000,1434 Argonne Blvd,27107,Winston Salem,NC,36.07783,-80.213007,37067,SingleFamily,2018,1957,9583,864,1.0,3,36433,Morningside Manor,neighborhood
6834567366000,342 E Sprague St,27127,Winston Salem,NC,36.069244,-80.232498,37067,Triplex,2018,1906,7405,2280,3.0,4,164115,Sunnyside,neighborhood
6835018622000,728 S Green St,27101,Winston Salem,NC,36.083531,-80.249406,37067,SingleFamily,2018,1923,7405,2392,2.0,4,181241,West Salem,neighborhood
6836353616000,2501 N Patterson Ave,27105,Winston Salem,NC,36.122206,-80.241577,37067,SingleFamily,2018,1928,7840,1181,1.0,3,36722,North Winston,neighborhood
6837539672000,4114 Tise Ave,27105,Winston Salem,NC,36.14414,-80.232883,37067,SingleFamily,2018,1938,14810,960,1.0,2,37569,Ogburn Station,neighborhood
6824488554000,1124 Watson Ave,27103,Winston Salem,NC,36.074878,-80.269455,37067,SingleFamily,2018,1974,13939,2202,3.0,3,197202,Ardmore,neighborhood
6834315505000,3110 S Main St,27127,Winston Salem,NC,36.055958,-80.239903,37067,SingleFamily,2018,1988,10018,999,1.0,3,103058,Konnoak,neighborhood
6835975372000,1946 E 3rd St,27101,Winston Salem,NC,36.099532,-80.220033,37067,SingleFamily,2018,1963,23958,950,1.0,3,32843,Skyland,neighborhood
6825313848000,2225 Westover Dr,27103,Winston Salem,NC,36.083971,-80.274773,37067,SingleFamily,2018,1928,10454,2350,2.0,4,330478,Ardmore,neighborhood
6814995895000,1520 S Hawthorne Rd,27103,Winston Salem,NC,36.078296,-80.287231,37067,Triplex,2018,1966,11325,2176,3.0,4,250903,Ardmore,neighborhood
6835961852000,1917 Maryland Ave,27101,Winston Salem,NC,36.098125,-80.221425,37067,SingleFamily,2018,1925,9583,1740,1.5,5,,Skyland,neighborhood
6844587130000,1878 Flatrock St,27107,Winston Salem,NC,36.074397,-80.198801,37067,SingleFamily,2018,1931,18295,1800,2.0,3,97473,Flat Rock,neighborhood
6835103988000,722 Walnut St,27101,Winston Salem,NC,36.081389,-80.247595,37067,SingleFamily,2018,1924,7405,1163,1.0,2,,West Salem,neighborhood
6835103988000,722 Walnut St,27101,Winston Salem,NC,36.081389,-80.247595,37067,SingleFamily,2018,1924,7405,1163,1.0,2,,West Salem,neighborhood
6834959298000,1010 E Devonshire St,27107,Winston Salem,NC,36.066449,-80.218082,37067,SingleFamily,2018,1965,7405,720,1.0,3,28552,Waughtown,neighborhood
6834425548000,2860 Patria St,27127,Winston Salem,NC,36.058855,-80.23644,37067,SingleFamily,2018,1953,4791,806,1.0,2,47640,South Park,neighborhood
6837457376000,4330 Ogburn Ave,27105,Winston Salem,NC,36.148867,-80.236995,37067,SingleFamily,2018,1938,24393,866,1.0,2,33596,Ogburn Station,neighborhood
6835993619000,906 Camel Ave,27101,Winston Salem,NC,36.105989,-80.220987,37067,SingleFamily,2018,1939,5227,1233,1.0,4,28743,Reynoldstown,neighborhood
6825224485000,2332 Elizabeth Ave,27103,Winston Salem,NC,36.085507,-80.277649,37067,SingleFamily,2018,1925,10890,2814,2.5,4,389525,Ardmore,neighborhood
6846120513000,208 Dellabrook Rd,27105,Winston Salem,NC,36.113829,-80.215337,37067,SingleFamily,2018,1910,79714,1703,1.0,2,,Dreamland,neighborhood
6825010865000,619 Knollwood St,27103,Winston Salem,NC,36.083824,-80.285801,37067,SingleFamily,2018,1949,9147,1176,1.0,3,148789,Ardmore,neighborhood
6825593408000,1713 Virginia Rd,27104,Winston Salem,NC,36.104959,-80.268394,37067,SingleFamily,2018,1928,13068,3502,4.0,4,685996,West Highlands,neighborhood
6827111655000,109 Rosedale Cir,27106,Winston Salem,NC,36.138243,-80.282976,37067,SingleFamily,2018,1937,11761,1350,1.0,5,139839,Woodberry Forest,neighborhood
6834238623000,2738 Edwards St,27127,Winston Salem,NC,36.061643,-80.242328,37067,SingleFamily,2018,1950,13503,768,1.0,2,46834,South Park,neighborhood
6815037762000,119 S Gordon Dr,27104,Winston Salem,NC,36.088583,-80.317365,37067,SingleFamily,2018,1928,12632,1044,1.0,2,124454,South Fork,neighborhood
6834759680000,2400 Dacian St,27107,Winston Salem,NC,36.067228,-80.224994,37067,SingleFamily,2018,1955,7405,1495,1.0,2,64435,Belview,neighborhood
6826757435000,2522 Ocono St,27105,Winston Salem,NC,36.121437,-80.260417,37067,SingleFamily,2018,1955,3484,1018,1.0,2,14627,Boston Thurmon,neighborhood
6826757435000,2522 Ocono St,27105,Winston Salem,NC,36.121437,-80.260417,37067,SingleFamily,2018,1955,3920,1018,1.0,2,14627,Boston Thurmon,neighborhood
6844117609000,1129 Charles St,27107,Winston Salem,NC,36.056606,-80.212171,37067,SingleFamily,2018,1949,9147,1160,1.0,3,56603,Easton,neighborhood
6845260955000,2232 Flag St,27101,Winston Salem,NC,36.098542,-80.211584,37067,SingleFamily,2018,1927,7840,956,1.0,3,38151,Skyland,neighborhood
6834871294000,2020 Dacian St,27107,Winston Salem,NC,36.071753,-80.224264,37067,SingleFamily,2018,1942,7840,828,1.0,2,29028,Forest Park,neighborhood
6825712880000,1422 W Academy St,27103,Winston Salem,NC,36.08387,-80.261373,37067,SingleFamily,2018,1922,18730,1201,1.0,3,174826,Ardmore,neighborhood
6836277763000,2934 NE Bon Air Ave,27105,Winston Salem,NC,36.127847,-80.243528,37067,SingleFamily,2018,1941,7405,1750,2.0,5,91068,Greenway,neighborhood
