REID,street,zipcode,city,state,latitude,longitude,FIPScounty,useCode,taxAssessmentYear,yearBuilt,lotSizeSqFt,finishedSqFt,bathrooms,bedrooms,zestimate,name,type
5893547887000,4711 Cloverhurst Rd,27103,Winston Salem,NC,36.036061,-80.367278,37067,SingleFamily,2018,1961,20473,1456,2.0,3,174911,Clemmons,city
5893547887000,4711 Cloverhurst Rd,27103,Winston Salem,NC,36.036061,-80.367278,37067,SingleFamily,2018,1961,10454,1456,2.0,3,174911,Clemmons,city
6817199071000,2901 Pioneer Trl,27106,Winston Salem,NC,36.158072,-80.314388,37067,SingleFamily,2018,1960,20473,1503,2.0,3,135602,Beacon Hill,neighborhood
6824991667000,993 Hutton St,27101,Winston Salem,NC,36.078059,-80.254939,37067,SingleFamily,2018,1963,10018,1468,2.0,3,129543,West Salem,neighborhood
6846688860000,3584 San Carlos Rd,27105,Winston Salem,NC,36.13123,-80.19585,37067,SingleFamily,2018,1988,42688,1618,2.0,4,167982,Spanish Pines,neighborhood
6815977420000,2605 Bitting Rd,27104,Winston Salem,NC,36.09902,-80.287215,37067,SingleFamily,2018,1973,23086,3162,3.5,4,780726,Country Club,neighborhood
6812856183000,4735 Eagle Path,27127,Winston Salem,NC,36.010359,-80.289315,37067,SingleFamily,2018,2004,9147,1626,2.0,3,166111,Winston-Salem,city
6808931709000,2749 Oak Grove Cir,27106,Winston Salem,NC,36.171091,-80.32442,37067,SingleFamily,2018,1956,45738,1350,1.0,2,118746,Winston-Salem,city
6807224026000,4005 Windsor Place Dr,27106,Winston Salem,NC,36.13862,-80.346402,37067,SingleFamily,2018,1996,14810,2858,4.5,4,411011,Winsor Place,neighborhood
6808947916000,2872 Bethabara Rd,27106,Winston Salem,NC,36.174358,-80.322355,37067,SingleFamily,2018,1964,36590,1656,1.5,4,139845,Winston-Salem,city
6807696169000,4574 Oakwood Cir,27106,Winston Salem,NC,36.158398,-80.332376,37067,SingleFamily,2018,1975,22215,1450,2.0,3,146086,Old Town Heights,neighborhood
6845629459000,1080 Shalimar Dr,27107,Winston Salem,NC,36.086485,-80.194817,37067,SingleFamily,2018,1965,13939,1649,1.5,3,126996,Shalimar,neighborhood
6846464641000,3734 Spaulding Dr,27105,Winston Salem,NC,36.125148,-80.203928,37067,SingleFamily,2018,1965,20473,2655,2.5,3,168694,Spaulding Drive,neighborhood
6829206109000,165 W Hanes Mill Rd,27105,Winston Salem,NC,36.189151,-80.278809,37067,SingleFamily,2018,1937,11325,784,1.0,2,,Winston-Salem,city
6817327377000,2090 Oakland Dr,27106,Winston Salem,NC,36.139914,-80.307997,37067,SingleFamily,2018,1966,33105,2496,2.5,4,198285,Town and Country Estates,neighborhood
6846366723000,3120 Carver School Rd,27105,Winston Salem,NC,36.125475,-80.206716,37067,SingleFamily,2018,1959,10890,1046,1.0,3,35487,Castle Heights,neighborhood
6843978180000,2500 Union Cross Rd,27107,Winston Salem,NC,36.044277,-80.184341,37067,SingleFamily,2018,1930,49658,2656,1.0,4,147424,Winston-Salem,city
6847071113000,4619 Renigar St,27105,Winston Salem,NC,36.153913,-80.219021,37067,SingleFamily,2018,1920,27442,926,1.0,2,22733,Ogburn Station,neighborhood
6822338855000,3085 Ridgemeadow Dr,27127,Winston Salem,NC,36.007006,-80.271766,37067,SingleFamily,2018,1964,20473,1423,2.0,3,134454,Winston-Salem,city
6856259947000,331 Gaither Rd,27101,Winston Salem,NC,36.12365,-80.175101,37067,SingleFamily,2018,1994,38768,1290,2.0,3,163890,Winston-Salem,city
6822069078000,2020 Darwick Rd,27127,Winston Salem,NC,36.012997,-80.281609,37067,Mobile,2018,2002,20037,1462,2.0,3,154771,Winston-Salem,city
6829918450000,1121 Twin Oak Dr,27105,Winston Salem,NC,36.192776,-80.254357,37067,SingleFamily,2018,1962,45738,3474,2.5,3,187992,Pinebrook Country Club,neighborhood
6816057647000,1212 Willowlake Ct,27106,Winston Salem,NC,36.121393,-80.317999,37067,SingleFamily,2018,1971,21780,1898,2.0,3,166257,Foxhall,neighborhood
5894893360000,5208 Ivystone Ln,27104,Winston Salem,NC,36.076001,-80.359107,37067,SingleFamily,2018,2001,10018,2176,2.0,3,217958,Breckingridge,neighborhood
6808780752000,2050 Bethania Rural Hall Rd,27106,Winston Salem,NC,36.184977,-80.332263,37067,SingleFamily,2018,1967,24829,1400,1.5,3,,Bethania,city
6808780752000,2050 Bethania Rural Hall Rd,27106,Winston Salem,NC,36.184977,-80.332263,37067,SingleFamily,2018,1967,44866,1400,1.5,3,,Bethania,city
6822094526000,1978 Paragon Dr,27127,Winston Salem,NC,36.022607,-80.283629,37067,SingleFamily,2018,2010,9583,2349,3.0,4,193930,Winston-Salem,city
6817609274000,212 Wake Dr,27106,Winston Salem,NC,36.134166,-80.297069,37067,SingleFamily,2018,1948,14374,2037,2.0,4,177768,Winston-Salem,city
6846705424000,3612 Denver St,27101,Winston Salem,NC,36.108299,-80.193216,37067,SingleFamily,2018,1956,15246,1070,2.0,2,35290,City View,neighborhood
6805330656000,147 N Peace Haven Rd,27104,Winston Salem,NC,36.08814,-80.343423,37067,SingleFamily,2018,1967,16988,2683,3.0,4,214242,Club Haven Estates,neighborhood
6837897474000,4628 Old Baux Mountain Rd,27105,Winston Salem,NC,36.160213,-80.223652,37067,SingleFamily,2018,1977,8276,1530,2.0,3,104318,Northview,neighborhood
6837897474000,4628 Old Baux Mountain Rd,27105,Winston Salem,NC,36.160213,-80.223652,37067,SingleFamily,2018,1977,10454,1530,2.0,3,104318,Northview,neighborhood
6807206273000,4120 Cherrylaurel Ln,27106,Winston Salem,NC,36.133629,-80.345482,37067,SingleFamily,2018,1992,13939,3104,3.5,4,384365,Brownstone,neighborhood
6816784113000,3041 Ormond Dr,27106,Winston Salem,NC,36.128419,-80.295486,37067,SingleFamily,2018,1968,14375,1800,3.0,4,230731,Ashlet Forest,neighborhood
6804848451000,2881 Navajo Ave,27103,Winston Salem,NC,36.062926,-80.323428,37067,SingleFamily,2018,1970,11325,1221,1.5,3,85403,Atwood Acres,neighborhood
6818703515000,2130 Whitney Rd,27106,Winston Salem,NC,36.162507,-80.296372,37067,SingleFamily,2018,1963,29620,1636,2.0,3,148671,Colonial Estates,neighborhood
6833145561000,100 Avondale St,27127,Winston Salem,NC,36.03654,-80.24612,37067,SingleFamily,2018,2000,13503,1638,2.0,3,155978,South View,neighborhood
6815636796000,3048 Kinnamon Rd,27104,Winston Salem,NC,36.088901,-80.297309,37067,SingleFamily,2018,1956,15681,1419,3.0,3,233404,Country Club,neighborhood
6805119530000,5001 Ryandale Rd,27104,Winston Salem,NC,36.082143,-80.347143,37067,SingleFamily,2018,1960,28749,1269,1.5,3,135500,South Peace Haven,neighborhood
6846135054000,2408 Dunbar St,27105,Winston Salem,NC,36.115264,-80.213552,37067,SingleFamily,2018,1920,6969,838,1.0,2,30878,Dreamland,neighborhood
6845100717000,1335 Peachtree St,27107,Winston Salem,NC,36.081546,-80.214878,37067,SingleFamily,2018,1960,13503,1000,1.0,3,34924,Morningside Manor,neighborhood
6805864797000,305 Gloucestershire Rd,27104,Winston Salem,NC,36.096884,-80.325172,37067,SingleFamily,2018,1976,19602,2280,2.5,4,294607,Peace Haven,neighborhood
6855553214000,446 Quail Haven Ln,27107,Winston Salem,NC,36.094276,-80.166661,37067,SingleFamily,2018,1991,43560,2712,2.0,3,248519,Wintergreen,neighborhood
6845215376000,1526 E Sedgefield Dr,27107,Winston Salem,NC,36.083198,-80.209588,37067,SingleFamily,2018,1970,10454,1040,1.5,3,55263,Morningside Manor,neighborhood
6816217322000,1241 Yorkshire Rd,27106,Winston Salem,NC,36.109531,-80.31106,37067,SingleFamily,2018,1969,23522,2456,3.0,4,360003,Robinhood Trails,neighborhood
6843177210000,1225 Morning Star Ln,27107,Winston Salem,NC,36.04432,-80.211975,37067,SingleFamily,2018,1977,142876,1590,2.5,4,195590,Kimball Acres,neighborhood
6846002796000,2128 E 12th St,27101,Winston Salem,NC,36.108951,-80.217736,37067,SingleFamily,2018,1954,14374,864,1.0,3,35673,Slater Park,neighborhood
6804129694000,344 Cheltenham Dr,27103,Winston Salem,NC,36.057845,-80.346527,37067,SingleFamily,2018,1987,10890,1374,2.0,3,148599,Canton Forest,neighborhood
6814361918000,1436 Hannaford Rd,27103,Winston Salem,NC,36.070151,-80.309196,37067,SingleFamily,2018,1960,25700,1539,2.0,3,143337,Stratford Manor,neighborhood
6808128751000,4136 Rock Hill Rd,27040,Pfafftown,NC,36.167908,-80.348864,37067,SingleFamily,2018,1983,20908,2316,3.5,4,247522,Winston-Salem,city
6833914782000,4112 Salem Springs Ct,27107,Winston Salem,NC,36.029128,-80.219304,37067,SingleFamily,2018,2010,7405,1214,2.0,3,142287,Winston-Salem,city
6804504822000,432 Hollinswood Ave,27103,Winston Salem,NC,36.052959,-80.33486,37067,SingleFamily,2018,1988,15246,2245,4.0,5,289012,Ashford,neighborhood
6813937820000,1941 Fairview Blvd,27127,Winston Salem,NC,36.034185,-80.286155,37067,SingleFamily,2018,1970,32670,1628,2.0,3,151215,Janita Lakes Estates,neighborhood
6822154749000,4821 Manteo Ln,27127,Winston Salem,NC,36.01224,-80.280049,37067,SingleFamily,2018,1996,10018,1360,2.0,3,150090,Winston-Salem,city
6812753897000,3125 Glenshire Dr,27127,Winston Salem,NC,36.012285,-80.293685,37067,SingleFamily,2018,1992,14810,2480,2.5,3,238858,Winston-Salem,city
6817409072000,406 Swan Dr,27106,Winston Salem,NC,36.133554,-80.303869,37067,SingleFamily,2018,1948,62290,2860,1.5,4,204857,Winston-Salem,city
6804649407000,2873 Inca Ln,27103,Winston Salem,NC,36.063076,-80.329985,37067,SingleFamily,2018,1972,13068,1145,2.0,2,83679,Atwood Acres,neighborhood
6844108718000,1070 Betty Dr,27107,Winston Salem,NC,36.054122,-80.211743,37067,SingleFamily,2018,1949,7840,1050,1.0,4,30007,Easton,neighborhood
6847287683000,2168 Bristol St,27105,Winston Salem,NC,36.158107,-80.210024,37067,SingleFamily,2018,1940,20473,2264,2.0,4,94889,Winston-Salem,city
6834307013000,3259 S Main St,27127,Winston Salem,NC,36.051832,-80.23913,37067,SingleFamily,2018,1941,31363,2046,1.5,3,182094,Konnoak,neighborhood
6845214672000,1540 E Sedgefield Dr,27107,Winston Salem,NC,36.083931,-80.20997,37067,SingleFamily,2018,1970,9583,1000,1.5,3,56637,Morningside Manor,neighborhood
6818523739000,5388 Kingswell Dr,27106,Winston Salem,NC,36.168597,-80.303183,37067,SingleFamily,2018,1984,11761,1630,2.0,3,147821,Poman Acres,neighborhood
6843065311000,638 Hillhaven Dr,27107,Winston Salem,NC,36.041775,-80.215954,37067,SingleFamily,2018,1987,18730,1000,1.0,2,78063,Kimball Acres,neighborhood
6843062755000,630 Waltrude Ln,27107,Winston Salem,NC,36.042998,-80.216849,37067,Mobile,2018,1998,21344,2052,2.0,4,129900,Winston-Salem,city
6835996617000,902 Ferrell Ave,27101,Winston Salem,NC,36.105919,-80.219976,37067,SingleFamily,2018,1941,13503,1020,1.0,3,33153,Reynoldstown,neighborhood
6847830959000,4059 Northampton Dr,27105,Winston Salem,NC,36.146177,-80.193996,37067,SingleFamily,2018,1955,422967,1053,1.0,2,140198,Winston-Salem,city
6804058813000,4941 Lombardy Ln,27103,Winston Salem,NC,36.066524,-80.350655,37067,SingleFamily,2018,1967,20037,2127,2.0,3,198331,Westbrook,neighborhood
6816637833000,1059 Kenleigh Cir,27106,Winston Salem,NC,36.116566,-80.297602,37067,SingleFamily,2018,1958,16552,2123,2.5,4,442318,Merrimont,neighborhood
6832330731000,263 Fishel Rd,27127,Winston Salem,NC,36.00695,-80.240967,37067,Mobile,2018,1990,22215,943,2.0,3,70633,Winston-Salem,city
6824053353000,2551 Alderney Ln,27103,Winston Salem,NC,36.06586,-80.28454,37067,SingleFamily,2018,1959,29,1,3.0,3,159394,British Woods,neighborhood
6854176762000,3011 Walsh St,27107,Winston Salem,NC,36.073507,-80.178691,37067,SingleFamily,2018,1971,9147,1174,1.5,3,86321,Broadbay Heights,neighborhood
6835983802000,800 Camel Ave,27101,Winston Salem,NC,36.103599,-80.220972,37067,SingleFamily,2018,1958,12632,1734,2.5,3,100495,Reynoldstown,neighborhood
5895331872000,678 Fillgate Dr,27104,Winston Salem,NC,36.088208,-80.376833,37067,SingleFamily,2018,1984,20908,2100,2.5,3,236267,Winston-Salem,city
6836835158000,1711 Hattie Ave,27105,Winston Salem,NC,36.115573,-80.223771,37067,SingleFamily,2018,1961,8712,1818,3.0,3,110037,North East Winston,neighborhood
6865012763000,208 Louella Dr,27107,Winston Salem,NC,36.084837,-80.149786,37067,SingleFamily,2018,1957,23522,1352,1.0,3,122512,Winston-Salem,city
6846346838000,3603 Spaulding Dr,27105,Winston Salem,NC,36.120331,-80.206597,37067,SingleFamily,2018,1961,23522,1102,1.0,3,109909,Spaulding Drive,neighborhood
6828931767000,330 Oak Summit Rd,27105,Winston Salem,NC,36.171584,-80.256532,37067,SingleFamily,2018,1958,133729,1741,3.0,3,196859,Winston-Salem,city
5893893682000,742 Mcgregor Rd,27103,Winston Salem,NC,36.049993,-80.360188,37067,SingleFamily,2018,1942,178596,2354,2.5,5,,McGregor Downs,neighborhood
5893893682000,742 Mcgregor Rd,27103,Winston Salem,NC,36.049993,-80.360188,37067,SingleFamily,2018,1942,39639,2354,2.5,5,,McGregor Downs,neighborhood
6818516224000,5060 Williamsburg Rd,27106,Winston Salem,NC,36.16436,-80.302123,37067,SingleFamily,2018,1960,26136,1400,1.5,3,127810,Colonial Estates,neighborhood
6806359090000,66 Robinhood Cir,27106,Winston Salem,NC,36.119292,-80.340756,37067,SingleFamily,2018,1963,22215,1034,1.0,2,121473,Bent Tree Farm,neighborhood
6808001818000,4510 Balsom Rd,27040,Pfafftown,NC,36.162772,-80.354681,37067,SingleFamily,2018,1910,21344,1362,1.0,3,,Lochhurst,neighborhood
6805269026000,5108 Rockmont Ct,27104,Winston Salem,NC,36.094714,-80.344018,37067,SingleFamily,2018,1994,11761,3034,4.0,4,352228,Mountain View,neighborhood
5893723159000,5984 Beckner St,27103,Winston Salem,NC,36.028919,-80.361795,37067,SingleFamily,2018,1966,60548,2036,2.0,2,170749,Clemmons,city
5893723159000,5984 Beckner St,27103,Winston Salem,NC,36.028919,-80.361795,37067,SingleFamily,2018,1966,50965,2036,2.0,2,170749,Clemmons,city
5893723159000,5984 Beckner St,27103,Winston Salem,NC,36.028919,-80.361795,37067,SingleFamily,2018,1966,4791,2036,2.0,2,170749,Clemmons,city
5893723159000,5984 Beckner St,27103,Winston Salem,NC,36.028919,-80.361795,37067,SingleFamily,2018,1966,87555,2036,2.0,2,170749,Clemmons,city
6822556680000,1805 Park Meadow Cir,27127,Winston Salem,NC,36.011958,-80.265682,37067,SingleFamily,2018,2016,3920,1608,3.0,3,135105,Winston-Salem,city
6808924094000,3838 Hartford St,27106,Winston Salem,NC,36.166326,-80.32293,37067,SingleFamily,2018,1970,11325,1080,1.0,3,103802,Georgetown,neighborhood
5893463032000,4758 Kinnamon Rd,27103,Winston Salem,NC,36.039375,-80.372136,37067,SingleFamily,2018,1947,17424,757,1.0,2,123196,Clemmons,city
6803469330000,2516 Huntington Woods Dr,27103,Winston Salem,NC,36.040496,-80.336311,37067,SingleFamily,2018,1987,17859,3400,3.5,4,333401,Huntington Woods,neighborhood
6812657495000,2270 Glenshire Ct,27127,Winston Salem,NC,36.011136,-80.29571,37067,SingleFamily,2018,1996,20908,1728,2.5,3,198968,Winston-Salem,city
6826109042000,536 Arbor Rd,27104,Winston Salem,NC,36.106269,-80.279804,37067,SingleFamily,2018,1930,15600,2346,3.0,4,458511,Buena Vista,neighborhood
6806837093000,1005 Blakeford Ct,27106,Winston Salem,NC,36.114105,-80.32446,37067,SingleFamily,2018,1991,21344,4851,5.0,5,500998,Huntscroft,neighborhood
6807364332000,4340 Langhorne Dr,27106,Winston Salem,NC,36.150396,-80.343143,37067,SingleFamily,2018,1994,15246,2032,2.5,4,256772,Chadwyck,neighborhood
6823582777000,1903 Old Salisbury Rd,27127,Winston Salem,NC,36.048047,-80.267635,37067,SingleFamily,2018,1890,22800,1268,1.0,3,93407,Winston-Salem,city
6838183258000,5880 Brookway Dr,27105,Winston Salem,NC,36.184242,-80.249143,37067,SingleFamily,2018,1969,28749,2550,3.0,4,205987,Pinebrook Country Club,neighborhood
6846278779000,2825 Raleigh Ave,27105,Winston Salem,NC,36.128366,-80.209237,37067,SingleFamily,2018,1959,9147,950,1.0,3,38444,Castle Heights,neighborhood
6807796293000,3827 Crosland Rd,27106,Winston Salem,NC,36.158541,-80.328882,37067,SingleFamily,2018,1956,20473,2648,2.0,4,95914,Old Town Heights,neighborhood
6815012568000,247 Hedgecock Ave,27104,Winston Salem,NC,36.082644,-80.318946,37067,SingleFamily,2018,1957,28749,1232,1.5,4,145599,South Fork,neighborhood
6815316078000,3351 Emory Dr,27103,Winston Salem,NC,36.081429,-80.307393,37067,SingleFamily,2018,1949,17424,725,1.0,2,75579,Old Vineyard,neighborhood
6805134616000,5046 Rushland Dr,27104,Winston Salem,NC,36.088085,-80.348959,37067,SingleFamily,2018,1965,17424,2040,2.0,3,203934,Rollinghills,neighborhood
5889268956000,9095 Reynolda Rd,27040,Pfafftown,NC,36.206308,-80.413878,37067,SingleFamily,2018,1962,42253,912,1.0,3,,Tobaccoville,city
6828318760000,144 Beechwood Cir,27105,Winston Salem,NC,36.165905,-80.27425,37067,SingleFamily,2018,1980,33541,1218,2.0,3,134358,Hunter Hills,neighborhood
6805545205000,480 Westoak Trl,27104,Winston Salem,NC,36.089851,-80.335185,37067,SingleFamily,2018,2004,19166,2988,3.5,3,334067,Peace Haven,neighborhood
6833143434000,133 Garland St,27127,Winston Salem,NC,36.036337,-80.246916,37067,SingleFamily,2018,1946,13503,880,1.0,1,49987,South View,neighborhood
6827726198000,4018 Dalton St,27105,Winston Salem,NC,36.139881,-80.260874,37067,SingleFamily,2018,1946,11761,754,1.0,2,28541,Brookwood,neighborhood
6814371697000,1408 Hannaford Rd,27103,Winston Salem,NC,36.072057,-80.308907,37067,SingleFamily,2018,1959,25700,1904,2.0,3,151599,Stratford Manor,neighborhood
6823254455000,1668 Quillmark Rd,27127,Winston Salem,NC,36.038815,-80.276977,37067,SingleFamily,2018,1992,10454,1795,2.5,3,153944,Carriage Cove,neighborhood
5893730052000,5924 Puritan Ln,27103,Winston Salem,NC,36.031212,-80.362759,37067,SingleFamily,2018,1971,23522,1919,2.0,3,183263,Clemmons,city
6808312910000,4521 Kreeger Rd,27106,Winston Salem,NC,36.165744,-80.344208,37067,SingleFamily,2018,1965,35283,1817,2.0,3,152077,Cedar Forest,neighborhood
6846672859000,103 Alice St,27105,Winston Salem,NC,36.128698,-80.197799,37067,Mobile,2018,1999,37461,1904,2.0,3,150949,Wildwood Park,neighborhood
6846672859000,103 Alice St,27105,Winston Salem,NC,36.128698,-80.197799,37067,SingleFamily,2018,1999,58370,1904,2.0,3,150949,Wildwood Park,neighborhood
6846672859000,103 Alice St,27105,Winston Salem,NC,36.128698,-80.197799,37067,SingleFamily,2018,1999,46173,1904,2.0,3,150949,Wildwood Park,neighborhood
6816762534000,2930 Saint Claire Rd,27106,Winston Salem,NC,36.12407,-80.296017,37067,SingleFamily,2018,1962,14374,1885,2.0,3,240021,Hope Valley,neighborhood
6816266536000,1211 Foxhall Dr,27106,Winston Salem,NC,36.123924,-80.311618,37067,SingleFamily,2018,1965,21780,1127,2.5,4,178156,Foxhall,neighborhood
6805384273000,5013 Knob View Trl,27104,Winston Salem,NC,36.100701,-80.342224,37067,SingleFamily,2018,1989,43560,4374,3.5,4,689151,Knob View,neighborhood
6812750805000,3165 Glenshire Dr,27127,Winston Salem,NC,36.012251,-80.295037,37067,SingleFamily,2018,1993,14810,2540,2.5,3,227657,Winston-Salem,city
6843062289000,632 Hillhaven Dr,27107,Winston Salem,NC,36.041756,-80.216746,37067,SingleFamily,2018,1958,25264,1449,1.5,3,138615,Kimball Acres,neighborhood
6823001694000,4225 Paula Dr,27127,Winston Salem,NC,36.025543,-80.284431,37067,SingleFamily,2018,2005,7840,2164,3.0,4,185970,Winston-Salem,city
5896739163000,4880 Century Oaks Ln,27106,Winston Salem,NC,36.113874,-80.361275,37067,SingleFamily,2018,1996,41382,2078,3.5,3,333995,Winston-Salem,city
6808306799000,4014 Fargo Dr,27106,Winston Salem,NC,36.162705,-80.34255,37067,SingleFamily,2018,1959,22651,1536,2.0,4,130605,Cedar Forest,neighborhood
6814993194000,2737 Westridge Rd,27103,Winston Salem,NC,36.07633,-80.287962,37067,SingleFamily,2018,1959,11761,2267,2.0,3,328053,Ardmore,neighborhood
5896826502000,4790 Century Oaks Ln,27106,Winston Salem,NC,36.112307,-80.358898,37067,SingleFamily,2018,1996,14810,2679,2.5,4,358914,Winston-Salem,city
6848405372000,4920 Davis Rd,27105,Winston Salem,NC,36.162845,-80.204118,37067,SingleFamily,2018,1953,38332,1700,2.0,3,121950,Winston-Salem,city
6818310290000,2429 Bethabara Rd,27106,Winston Salem,NC,36.164133,-80.310702,37067,Mobile,2018,2001,26136,1300,2.0,4,140834,Winston-Salem,city
6823231561000,1658 Village Pl,27127,Winston Salem,NC,36.033475,-80.277882,37067,SingleFamily,2018,1980,12196,1154,2.0,3,118280,Caroline Village,neighborhood
5893559944000,220 Coghill Dr,27103,Winston Salem,NC,36.039211,-80.366686,37067,SingleFamily,2018,1998,9750,2407,3.0,3,212381,Clemmons,city
6815910573000,766 S Westview Dr,27103,Winston Salem,NC,36.082884,-80.289114,37067,SingleFamily,2018,1957,13504,1651,2.0,3,237006,Knollwood Manor,neighborhood
5898716644000,3690 Transou Rd,27040,Pfafftown,NC,36.164805,-80.363086,37067,SingleFamily,2018,1935,29620,1471,2.0,4,123911,Winston-Salem,city
6815220092000,3749 Vandalia Dr,27104,Winston Salem,NC,36.083942,-80.312792,37067,SingleFamily,2018,1964,11325,1380,2.0,3,144980,South Fork,neighborhood
6827719727000,4001 Dalton St,27105,Winston Salem,NC,36.138746,-80.260043,37067,SingleFamily,2018,1947,12196,768,1.5,2,33412,Brookwood,neighborhood
6846963165000,3785 Crusade Dr,27101,Winston Salem,NC,36.124071,-80.187231,37067,SingleFamily,2018,1997,14374,2151,4.0,4,162260,Winston-Salem,city
6815813043000,2827 Birchwood Dr,27103,Winston Salem,NC,36.081469,-80.291602,37067,SingleFamily,2018,1961,12632,1488,1.5,2,165463,Knollwood Manor,neighborhood
6807071252000,4260 Lindsey Ln,27106,Winston Salem,NC,36.152754,-80.354371,37067,SingleFamily,2018,2003,10018,2750,3.0,5,261594,Winston-Salem,city
6835857822000,1814 E 1st St,27101,Winston Salem,NC,36.095328,-80.222819,37067,SingleFamily,2018,1925,15246,1258,1.0,3,32615,Skyland,neighborhood
6845281001000,2422 Pickford Ct,27101,Winston Salem,NC,36.10144,-80.211487,37067,SingleFamily,2018,1965,6716,1258,2.0,3,138391,Skyland,neighborhood
6815975637000,2620 Country Club Rd,27104,Winston Salem,NC,36.099759,-80.28781,37067,SingleFamily,2018,1928,18295,3423,4.5,5,648009,Country Club,neighborhood
6822540781000,3055 Creekside Dr,27127,Winston Salem,NC,36.00944,-80.267536,37067,SingleFamily,2018,1962,132858,1858,3.0,3,188764,Winston-Salem,city
6855609783000,518 Wayside Dr,27107,Winston Salem,NC,36.081939,-80.160829,37067,SingleFamily,2018,1922,40075,871,1.0,3,,Winston-Salem,city
6855609783000,518 Wayside Dr,27107,Winston Salem,NC,36.081939,-80.160829,37067,SingleFamily,2018,1922,41817,871,1.0,3,,Winston-Salem,city
6817465635000,3231 Linda Cir,27106,Winston Salem,NC,36.151711,-80.305643,37067,SingleFamily,2018,1971,20908,2223,3.0,3,185875,Windsor Estates,neighborhood
6845643593000,961 Shalimar Dr,27107,Winston Salem,NC,36.092045,-80.196831,37067,SingleFamily,2018,1982,10890,1161,2.0,3,115039,Shalimar,neighborhood
6824632544000,2740 Sedgewick St,27127,Winston Salem,NC,36.061199,-80.264548,37067,SingleFamily,2018,1950,16552,830,1.0,2,43911,Hootstown,neighborhood
6815568082000,206 Lawndale Dr,27104,Winston Salem,NC,36.095093,-80.300161,37067,SingleFamily,2018,1953,15246,1474,2.0,3,192488,Country Club,neighborhood
6833147688000,41 Avondale St,27127,Winston Salem,NC,36.037029,-80.24543,37067,SingleFamily,2018,1940,10454,1137,2.0,3,47725,South View,neighborhood
6808783814000,2046 Lash Rd,27106,Winston Salem,NC,36.185001,-80.330637,37067,Mobile,2018,1984,23522,1496,2.0,3,101516,Bethania,city
6846273153000,2713 Drewry Ln,27105,Winston Salem,NC,36.12651,-80.211037,37067,SingleFamily,2018,1963,11761,1152,1.0,3,31571,Castle Heights,neighborhood
6822547275000,1694 Haversham Park Dr,27127,Winston Salem,NC,36.008171,-80.265289,37067,SingleFamily,2018,2003,9583,1670,2.0,3,171536,Winston-Salem,city
6837383656000,700 Motor Rd,27105,Winston Salem,NC,36.157845,-80.241971,37067,SingleFamily,2018,1984,24829,1328,2.0,3,121057,Winston-Salem,city
6817048918000,4190 Mill Creek Rd,27106,Winston Salem,NC,36.146993,-80.318167,37067,SingleFamily,2018,1970,14810,1731,2.5,5,196737,Town and Country Estates,neighborhood
6819522766000,1207 Bunny Trl,27105,Winston Salem,NC,36.195965,-80.303903,37067,SingleFamily,2018,1977,20037,2238,3.0,3,206309,Swink Acres,neighborhood
6819522766000,1207 Bunny Trl,27105,Winston Salem,NC,36.195965,-80.303903,37067,SingleFamily,2018,1977,20037,2238,3.0,3,206309,Swink Acres,neighborhood
5893787919000,209 Mctavish Ln,27103,Winston Salem,NC,36.047643,-80.360839,37067,SingleFamily,2018,1988,16552,1950,2.0,3,235417,McGregor Downs,neighborhood
6815932641000,2618 Philip St,27103,Winston Salem,NC,36.088593,-80.288661,37067,MultiFamily2To4,2018,1951,8712,1068,1.0,3,114060,Biltmore,neighborhood
6847299219000,2188 School St,27105,Winston Salem,NC,36.159855,-80.209614,37067,SingleFamily,2018,1920,68824,784,1.0,4,31708,Winston-Salem,city
5894824955000,182 Wexham Rd,27103,Winston Salem,NC,36.058584,-80.358501,37067,SingleFamily,2018,1990,21780,2846,4.5,4,326894,Hunters Ridge,neighborhood
5897605911000,2250 Chipwood Ln,27106,Winston Salem,NC,36.135277,-80.36638,37067,SingleFamily,2018,1979,20473,1358,1.5,4,147229,Winston-Salem,city
6804831901000,2742 Inca Ln,27103,Winston Salem,NC,36.061549,-80.325916,37067,SingleFamily,2018,1969,13503,1188,1.5,3,81016,Atwood Acres,neighborhood
5894950171000,531 S Peace Haven Rd,27103,Winston Salem,NC,36.064456,-80.356259,37067,SingleFamily,2018,1955,411206,1512,1.0,2,227007,Winston-Salem,city
6826030695000,962 Vernon Ave,27106,Winston Salem,NC,36.116301,-80.286233,37067,SingleFamily,2018,1950,15246,2200,2.0,3,375094,Reynolda,neighborhood
6807781802000,4556 Sunny Dr,27106,Winston Salem,NC,36.15737,-80.330882,37067,SingleFamily,2018,1958,19602,1120,2.0,3,132863,Old Town Heights,neighborhood
6856581125000,147 Angel Dr,27101,Winston Salem,NC,36.129706,-80.167826,37067,SingleFamily,2018,1957,39639,2101,2.0,3,153872,Winston-Salem,city
6856085573000,3807 Crickett Ln,27105,Winston Salem,NC,36.130661,-80.183286,37067,SingleFamily,2018,1980,30056,1208,2.5,3,144302,Winston-Salem,city
6836822804000,1621 N Jackson Ave,27105,Winston Salem,NC,36.114606,-80.224893,37067,SingleFamily,2018,1936,13068,1026,1.0,2,31815,North East Winston,neighborhood
6809810461000,1720 Turfwood Dr,27040,Pfafftown,NC,36.192006,-80.328186,37067,SingleFamily,2018,1965,20908,3126,2.0,4,203207,Winston-Salem,city
6826483671000,2000 Faculty Dr,27106,Winston Salem,NC,36.129972,-80.271972,37067,SingleFamily,2018,1956,16117,2304,2.0,3,340282,Wake Forest,neighborhood
6812738938000,2353 Joshua Ln,27127,Winston Salem,NC,36.007203,-80.292111,37067,SingleFamily,2018,2004,9583,1821,2.5,4,186141,Winston-Salem,city
6815057062000,214 Lucerne Ln,27104,Winston Salem,NC,36.092147,-80.31741,37067,SingleFamily,2018,1956,20473,2443,1.5,3,201181,South Fork,neighborhood
6806664624000,3820 Shattalon Dr,27106,Winston Salem,NC,36.123907,-80.332595,37067,SingleFamily,2018,1957,25700,1296,1.5,3,135665,Bent Tree Farm,neighborhood
6843686937000,220 Meadowview Dr,27107,Winston Salem,NC,36.049288,-80.195337,37067,SingleFamily,2018,1949,77536,1428,2.0,2,121620,Winston-Salem,city
6816028088000,1008 Kendale Dr,27104,Winston Salem,NC,36.111563,-80.317329,37067,SingleFamily,2018,1967,20037,2650,3.0,3,289058,New Forestdale,neighborhood
5894782175000,225 Charlotte Ct,27103,Winston Salem,NC,36.072788,-80.362734,37067,SingleFamily,2018,2000,5662,1248,2.0,2,158896,Winston-Salem,city
6808128284000,4025 Lofter Ct,27040,Pfafftown,NC,36.166589,-80.34874,37067,SingleFamily,2018,2004,23958,2269,3.0,3,219498,Winston-Salem,city
6808915926000,3832 Hartford St,27106,Winston Salem,NC,36.166109,-80.32281,37067,SingleFamily,2018,1972,14810,1021,2.0,3,101377,Georgetown,neighborhood
6815269877000,3322 Nottingham Rd,27104,Winston Salem,NC,36.097315,-80.310045,37067,SingleFamily,2018,1950,29620,2114,2.0,2,267730,South Fork,neighborhood
6834230844000,2649 Ellerbe Ave,27127,Winston Salem,NC,36.062211,-80.244935,37067,SingleFamily,2018,1957,11761,1100,1.0,3,101869,Konnoak,neighborhood
6845007892000,1330 Peachtree St,27107,Winston Salem,NC,36.081668,-80.215625,37067,SingleFamily,2018,1960,12632,1071,1.5,3,51623,Morningside Manor,neighborhood
6814855179000,1800 Sandersted Rd,27103,Winston Salem,NC,36.065419,-80.290582,37067,SingleFamily,2018,1962,16988,2369,2.0,5,240975,British Woods,neighborhood
6822059098000,4861 Saponi Village Trl,27127,Winston Salem,NC,36.010273,-80.281473,37067,SingleFamily,2018,1996,10018,1544,2.0,3,151989,Winston-Salem,city
6815121023000,325 New Home St,27104,Winston Salem,NC,36.083972,-80.316083,37067,SingleFamily,2018,1959,21344,1738,1.5,3,172563,South Fork,neighborhood
6819935959000,6010 Summer Trace Ln,27105,Winston Salem,NC,36.19955,-80.289366,37067,SingleFamily,2018,1997,13503,1260,2.0,3,141030,Summer Trace,neighborhood
6807448031000,4294 Shattalon Dr,27106,Winston Salem,NC,36.144105,-80.338359,37067,SingleFamily,2018,1991,24393,1630,2.0,3,188488,Shattalon Lake Estates,neighborhood
6827475778000,4782 Indiana Ave,27106,Winston Salem,NC,36.155143,-80.271673,37067,SingleFamily,2018,1941,9147,760,1.0,2,,Piney Grove,neighborhood
6833917882000,530 Lakewood Glen Ct,27107,Winston Salem,NC,36.029463,-80.218197,37067,SingleFamily,2018,2007,6534,2200,2.5,3,171030,Winston-Salem,city
6815122075000,318 Auburndale St,27104,Winston Salem,NC,36.084009,-80.315575,37067,SingleFamily,2018,1956,20037,1512,2.0,3,40219,South Fork,neighborhood
6837890984000,5037 Scenic Dr,27105,Winston Salem,NC,36.16155,-80.225991,37067,SingleFamily,2018,1972,13068,760,1.0,3,,Northview,neighborhood
6819258285000,1121 Village Oak Dr,27106,Winston Salem,NC,36.202757,-80.312078,37067,SingleFamily,2018,1985,20037,1938,3.0,3,,Winston-Salem,city
6808589533000,5635 Stoneman Pl,27040,Pfafftown,NC,36.184046,-80.335321,37067,SingleFamily,2018,1969,22651,2200,2.5,4,192706,Bethania,city
6855504054000,125 Vogler Dr,27107,Winston Salem,NC,36.080018,-80.165939,37067,SingleFamily,2018,1935,33541,1120,1.0,3,90910,Winston-Salem,city
5896443199000,1331 Lynndale Dr,27106,Winston Salem,NC,36.116688,-80.373224,37067,Mobile,2018,1996,23086,1274,2.0,2,109653,Winston-Salem,city
